id,name,jl_number,block_id,latitude,longitude
34130,Kusumjoria,85,264.0,23.389141,88.13401909999999
34131,Garur Basa,86,264.0,23.3370808,86.6182736
34132,Fufunadi,87,264.0,-1.0,-1.0
34133,Bhagaband,88,264.0,23.5203086,86.5678321
34134,Palgan,89,264.0,23.3258338,86.6485137
34135,Matipur,90,264.0,23.3172874,86.6661453
34136,Hura,91,264.0,23.3058557,86.65292219999999
34137,Paharpur,92,264.0,22.5244929,88.2971985
34138,Pratappur,93,264.0,23.4707709,87.30285579999999
34139,Pakhuria,94,264.0,23.2939228,86.6862879
34140,Phupundih,95,264.0,-1.0,-1.0
34141,Nawadi,96,264.0,23.2667869,86.6686635
34142,Kundrudi,97,264.0,23.2715397,86.6825118
34143,Kaliabasa,98,264.0,23.2584476,86.6963561
34144,Chirugora,99,264.0,22.8700219,86.476908
34145,Tanginayada,100,264.0,23.2560508,86.72403299999999
34146,Dangagora,101,264.0,24.1863087,88.4185765
34147,Kumarbaid,102,264.0,26.1251753,89.464732
34148,Shamukgarya,103,264.0,23.2853708,86.70390590000001
34149,Kumurdi,104,264.0,-1.0,-1.0
34150,Dhabani,105,264.0,23.589362,87.3686661
34151,Cholagora,106,264.0,23.2933557,86.730321
34152,Bishpuria,107,264.0,23.2865802,86.741241
34153,Rampur,108,264.0,25.3470758,88.632578
34154,Jorberia,109,264.0,22.3679907,88.7854646
34155,Dimbaid,110,264.0,-1.0,-1.0
34156,Siyara,111,264.0,22.1923758,87.3971964
34157,Majhla Danga,112,264.0,23.2637725,86.7378655
34158,Rakshara,113,264.0,22.519861,88.35235250000001
34159,Dhadkigora,114,264.0,23.2528663,86.7498087
34160,Chachhipathar,115,264.0,-1.0,-1.0
34161,Parasia,116,264.0,23.6511104,87.1597417
34162,Rolabad,1,265.0,23.2308601,86.45288649999999
34163,Darodi,2,265.0,23.2204242,86.45162189999999
34164,Beranakhi,3,265.0,23.2240132,86.44593069999999
34165,Palma,4,265.0,23.505612,86.57540159999999
34166,Katrahi,5,265.0,23.204514,86.43834149999999
34167,Penchara,6,265.0,23.1964078,86.44150379999999
34168,Rajakhanda,7,265.0,23.1845131,86.44150379999999
34169,Dhabani,8,265.0,23.589362,87.3686661
34170,Chandra,9,265.0,22.4621842,87.1485232
34171,Noagarh,10,265.0,23.1757396,86.48133179999999
34172,Deorang,11,265.0,23.1708299,86.49460069999999
34173,Babuijor,12,265.0,23.1502918,86.5072345
34174,Kuruktopa,13,265.0,23.1477069,86.52491640000001
34175,Matha,14,265.0,23.1165292,86.0809938
34176,Pirra,15,265.0,22.8785907,86.8897655
34177,Dharampur,16,265.0,22.8768695,88.384625
34178,Kenda,17,265.0,23.1921493,86.5173392
34179,Bharatdi,18,265.0,23.1741948,86.5122871
34180,Anandabazar,19,265.0,23.1872141,86.4958642
34181,Kuchang,20,265.0,-1.0,-1.0
34182,Negurya,21,265.0,23.201746,86.48069989999999
34183,Makarka,22,265.0,23.1984903,86.4680593
34184,Kalipur,23,265.0,26.7338777,88.8401037
34185,Bhatamdi,24,265.0,23.2042679,86.46047349999999
34186,Gargatbahal,25,265.0,23.2067778,86.456364
34187,Punura,26,265.0,23.2207644,86.4667951
34188,Pratappur,27,265.0,23.4707709,87.30285579999999
34189,Panipathar,28,265.0,23.2184104,86.49460069999999
34190,Balakdi,29,265.0,23.2172872,86.51102399999999
34191,Hariharpur,30,265.0,22.523396,87.619872
34192,Saurang,31,265.0,23.2279459,86.5223908
34193,Shyamdi,32,265.0,23.7878542,86.9261008
34194,Konapara,33,265.0,23.2457878,86.5223908
34195,Chandatiri,34,265.0,23.2283895,86.5425921
34196,Jambad,35,265.0,23.2134234,86.5722478
34197,Maheshpur,36,265.0,22.2816125,88.3633918
34198,Gopinathpur,37,265.0,22.8076683,88.0534236
34199,Bansra,38,265.0,23.6388536,87.1397958
34200,Kaira,39,265.0,23.1763883,86.6132317
34201,Delang,40,265.0,23.1882847,86.6132317
34202,Baradahi alias Dhadkidi,41,265.0,23.1940164,86.6031465
34203,Ramaidi,42,265.0,23.2045608,86.60945
34204,Gagda,43,265.0,23.2140832,86.59416259999999
34205,Bhutam,44,265.0,23.2155577,86.6108682
34206,Gangadi,45,265.0,23.2003966,86.6233149
34207,Chotolalpur,46,265.0,-1.0,-1.0
34208,Napara,47,265.0,23.220941,86.6453646
34209,Damodarpur,48,265.0,22.7796573,87.7344988
34210,Bhatadi,49,265.0,23.2000574,86.6774765
34211,Laulara,50,265.0,23.1738079,86.6667748
34212,Panrui,51,265.0,23.7850366,87.60999819999999
34213,Tatari,52,265.0,23.1827671,86.63339599999999
34214,Bahadurpur,53,265.0,23.6924569,87.1447831
34215,Saragorha,54,265.0,-1.0,-1.0
34216,Kendadi,55,265.0,23.1588663,86.6283557
34217,Puncha,56,265.0,23.1592944,86.6485137
34218,Chaklalapur,57,265.0,23.7405124,86.88067749999999
34219,Pakbirra,62,265.0,23.37987,86.13131
34220,Kalapathar,63,265.0,22.9023968,86.8897655
34221,Butgorha,64,265.0,35.9657945,-88.930217
34222,Joykalla,65,265.0,23.177528,86.70265719999999
34223,Patkua,66,265.0,23.1779884,86.6888051
34224,Amlakanali,67,265.0,23.5780052,86.76426239999999
34225,Dhadki,68,265.0,22.2762186,87.24317409999999
34226,Feterpor,69,265.0,-1.0,-1.0
34227,Bagda,70,265.0,23.21468,88.8862809
34228,Narendrapur,71,265.0,22.4391117,88.3967536
34229,Haridi,72,265.0,23.2582068,86.82956449999999
34230,Chakia,73,265.0,23.1844618,86.7139704
34231,Kanara,74,265.0,23.2023074,86.7139704
34232,Kanchannagar,75,265.0,23.2370718,87.82535730000001
34233,Niasa,76,265.0,23.2056185,86.69446839999999
34234,Shyampur,77,265.0,22.299502,88.02774869999999
34235,Kumdhurka,78,265.0,23.3545675,86.533755
34236,Bamkamali,79,265.0,-1.0,-1.0
34237,Sargara,80,265.0,23.2372599,86.6787354
34238,Shyamakata,81,265.0,23.2387568,86.68925589999999
34239,Ramkundi,82,265.0,23.2269831,86.6850292
34240,Agaya,83,265.0,23.1954315,87.04368869999999
34241,Gopalpur,84,265.0,23.4976267,87.3959564
34242,Baraghutu,85,265.0,22.9894682,86.7793398
34243,Gadasal Alias Lalpahari,86,265.0,23.2427979,86.730321
34244,Chakaltagorha,87,265.0,-1.0,-1.0
34245,Gholkund,88,265.0,23.2323625,86.7290634
34246,Paika,89,265.0,21.8805298,87.0936387
34247,Panruda,90,265.0,23.2373685,86.755465
34248,Chhirudi,91,265.0,-1.0,-1.0
34249,Alkushdanga,92,265.0,-1.0,-1.0
34250,Dhyangakend,93,265.0,-1.0,-1.0
34251,Raghunathpore,94,265.0,23.5343795,86.6686635
34252,Arali,95,265.0,23.9588408,87.3326682
34253,Chandanpur,96,265.0,22.8761508,88.179137
34254,Layamara,97,265.0,23.2191088,86.73535079999999
34255,kendbani,98,265.0,23.2041856,86.73283599999999
34256,Laharia,99,265.0,23.1922067,86.7339156
34257,Poradi,100,265.0,23.1242387,86.6787354
34258,Simakanali,101,265.0,23.179447,86.7592355
34259,Mahuladanga,102,265.0,23.1688561,86.7504372
34260,Debgram,103,265.0,23.6886494,88.3093517
34261,Bhagaband,104,265.0,23.5203086,86.5678321
34262,Badra,105,265.0,23.2566252,87.054932
34263,Parbaid,106,265.0,22.934183,86.47430399999999
34264,Raghunathpur,107,265.0,23.5343795,86.6686635
34265,Birdanga,108,265.0,22.5225944,87.071792
34266,Lakhra,109,265.0,23.1464993,86.71208349999999
34267,Amjorha,110,265.0,23.6122328,87.14727649999999
34268,Bishpuria,111,265.0,23.2865802,86.741241
34269,Goaladi Alias Misradeuli,112,265.0,23.138228,86.70768029999999
34270,Deuli,113,265.0,22.204139,87.7923186
34271,Khayermara,124,265.0,-1.0,-1.0
34272,Kamta,1,266.0,23.1608368,86.4465631
34273,Basudebpur,2,266.0,21.8248993,87.62110609999999
34274,Baghkhuar,3,266.0,23.1656093,86.46047349999999
34275,Durku,4,266.0,23.272219,86.3756867
34276,Mohandi,5,266.0,23.0125037,86.6699226
34277,Tukya,6,266.0,23.1497322,86.4819637
34278,Damda,7,266.0,23.277698,86.355418
34279,Kalabai alias Brahandiha,8,266.0,-1.0,-1.0
34280,Kesya,9,266.0,23.135927,86.46300219999999
34281,Mahilidi,10,266.0,23.130092,86.4680593
34282,Baliguma,11,266.0,23.1294341,87.0543075
34283,Bijoydi,12,266.0,22.583377,88.3370794
34284,Turang,13,266.0,23.1262764,86.4971277
34285,Jangidiri,14,266.0,23.1199923,86.4819637
34286,Kunda,15,266.0,23.5282286,87.9543099
34287,Dakakendu,16,266.0,23.0964235,86.49207360000001
34288,Purru,17,266.0,23.1723902,86.43138379999999
34289,Kaparra,18,266.0,23.0666813,86.49207360000001
34290,Larra,19,266.0,23.0728529,86.5021814
34291,Mahara,20,266.0,23.2786689,87.66057909999999
34292,Kurmasol,21,266.0,23.09541,86.5135502
34294,Majihira,22,266.0,23.0973124,86.53249249999999
34295,Kadma,23,266.0,22.7252542,87.04368869999999
34296,Janara,24,266.0,-1.0,-1.0
34297,Bamni,26,266.0,23.0547157,86.76928869999999
34298,Chakya,27,266.0,23.0678995,86.54764109999999
34299,Nathurdi,28,266.0,23.0856357,86.5425921
34300,Hullung,29,266.0,23.085965,86.5577376
34301,Bari,30,266.0,23.026147,86.5425921
34302,khududi,31,266.0,23.122676,86.5362801
34303,Bagdega,32,266.0,23.1093197,86.5375425
34304,Mangobindapur,33,266.0,23.1149364,86.5223908
34305,keshargoria,34,266.0,23.1279426,86.5204655
34306,Hutudi,35,266.0,23.137159,86.51860219999999
34307,Maduagora,36,266.0,-1.0,-1.0
34308,Kuordi,37,266.0,22.2351791,87.10861349999999
34309,Ghastoria,38,266.0,23.1276049,86.5577376
34310,Jabala,39,266.0,22.5225084,88.3705281
34311,Khatchiri,40,266.0,23.139939,86.5779245
34312,Hetgora,41,266.0,23.1446452,86.589276
34313,Gopalnagar,42,266.0,23.0613166,88.76178700000001
34314,Dayaldi,43,266.0,23.1318008,86.5798166
34315,Jamgoria,44,266.0,23.1224198,86.5930592
34316,Metayala,45,266.0,-1.0,-1.0
34317,Chapati,47,266.0,23.0981903,86.5728785
34318,Makarkendi,48,266.0,23.1863664,87.03619169999999
34319,Sijadi,49,266.0,23.0985167,86.5880148
34320,Kundru,53,266.0,23.1109548,86.6132317
34321,Bukthela,51,266.0,23.1042759,86.613862
34322,Seetaramgora,52,266.0,22.581047,88.353231
34323,Amakacha,54,266.0,-1.0,-1.0
34324,Sindurpur,55,266.0,23.4329319,86.5148133
34325,Parhkidi,56,266.0,22.518033,88.35102739999999
34326,Nadiha,57,266.0,23.4944129,86.4073403
34327,Bekya,58,266.0,-1.0,-1.0
34330,Lekrakhonda,61,266.0,23.1197261,86.3712536
34331,Behanchabani,62,266.0,-1.0,-1.0
34332,Pratappur,63,266.0,23.4707709,87.30285579999999
34333,Palasbani,65,266.0,23.0838976,86.6699226
34334,Bhelagora,120,266.0,23.1283034,86.659849
34335,Shyampur,67,266.0,22.299502,88.02774869999999
34336,Tetuliagora,68,266.0,22.6816022,87.85865849999999
34337,Rajgram,69,266.0,24.538716,87.8500644
34338,Chirubhita,70,266.0,23.0859139,86.6245751
34339,Chelama,71,266.0,23.6150855,86.5526896
34340,Rasikadi,72,266.0,22.1690783,86.6119712
34341,Fakiradi,73,266.0,23.0681203,86.6270955
34342,Jharbagda,74,266.0,23.069011,86.63402599999999
34343,Govindapur,75,266.0,22.3781175,88.4052416
34344,Dubrajpur,76,266.0,23.7946344,87.3761105
34345,Chakmahuldanga,77,266.0,22.8379499,87.9739055
34346,Nutaindkuri,78,266.0,-1.0,-1.0
34347,Challa,79,266.0,23.3208806,87.2357086
34348,Fatepur,80,266.0,22.2846143,88.232467
34349,Gosaidi,81,266.0,23.1956911,86.0663419
34350,Birsingdi,82,266.0,23.0769797,86.65921929999999
34351,Puratanindkuri,83,266.0,23.0718933,86.66488609999999
34352,Bankata Keshyardi,84,266.0,23.0787052,86.6705522
34353,Harekrisnapur,86,266.0,22.5780307,87.7474017
34354,Burisahar,87,266.0,23.0691827,86.6774765
34355,Bankata,88,266.0,22.9148971,86.9986891
34356,Sonardang,89,266.0,23.0581985,86.6856585
34357,Pathar Khunya,90,266.0,23.0627656,86.6906929
34358,Mahulbana,91,266.0,23.991055,86.9098159
34359,Kalabani,93,266.0,23.409836,86.5798166
34360,Jorberia,94,266.0,22.3679907,88.7854646
34361,Bar Gajari,95,266.0,-1.0,-1.0
34362,Khatanga,96,266.0,23.4609401,86.0657047
34363,Udaypur,97,266.0,23.5452784,86.9098159
34364,Bamundihi,98,266.0,22.8666675,86.966163
34365,Shushuniya Parasigora,99,266.0,-1.0,-1.0
34366,Darasol,100,266.0,23.0405831,86.73283599999999
34367,Chhota Nunyani,101,266.0,-1.0,-1.0
34368,Baranunyani,102,266.0,-1.0,-1.0
34369,Pirargaryar Chak,103,266.0,23.0266494,86.7243474
34370,Dhanara,104,266.0,22.7375562,86.9849308
34371,Kelyardi,106,266.0,23.0015459,86.7152284
34372,Hallapur,107,266.0,22.9965857,86.72717709999999
34373,Parashya,108,266.0,22.9940823,86.7139704
34374,Sukapata,111,266.0,23.0053558,86.6837705
34375,Gaidumur,112,266.0,23.0096868,86.6774765
34376,Hatilada Gurtupa,113,266.0,23.0232052,86.6837705
34377,Bankati,164,266.0,23.5987763,87.48887099999999
34380,Dhadkidi,117,266.0,23.4952796,86.44529829999999
34381,Banmohara,118,266.0,23.0472136,86.6938392
34384,Bhramarpur,121,266.0,23.0394879,86.6799942
34385,Chakmanustupa,122,266.0,23.0327814,86.6793648
34386,Anandapur,123,266.0,22.7387577,87.73757619999999
34387,Nishchintapur,124,266.0,22.460581,88.1730427
34389,Gosaipur,126,266.0,25.2638449,88.9641261
34391,Kahalpara,128,266.0,23.0605579,86.67401439999999
34396,Damda,133,266.0,23.277698,86.355418
34397,Simlabandh,134,266.0,23.0557671,86.7479232
34399,Chhoto Jagannathpur,136,266.0,22.1885971,87.9828635
34403,Bankata,140,266.0,22.9148971,86.9986891
34406,Barotore,143,266.0,-1.0,-1.0
34407,Barkuri,144,266.0,23.2324146,87.0786044
34409,Madhupur,146,266.0,26.363461,89.3807678
34415,Gobindanagar,152,266.0,22.522149,87.7406534
34418,Gokulnagar,155,266.0,22.3030031,87.7246498
34421,Nipanya,159,266.0,26.7414692,88.2193381
34423,Dulaldi,161,266.0,23.0615256,86.5968422
34425,Rangatanr,162,266.0,23.0511416,86.59810310000002
34427,Basudi,92,266.0,23.076961,86.6938392
34428,Simchaka,165,266.0,23.0672014,86.72529060000001
34429,Dheka,167,266.0,23.9339298,87.8291861
34430,Baruidiha,168,266.0,23.4698016,87.4219912
34431,Gobarda,169,266.0,23.0022774,86.8245443
34432,Tetla,172,266.0,23.027775,86.6182736
34435,Pialsol,171,266.0,23.2240807,86.6182736
34436,Radhamadhabpur,156,266.0,23.0117904,87.43438359999999
34438,Patharkata,66,266.0,23.1340394,86.64977329999999
34439,Sanoda,85,266.0,23.0720519,86.6724407
34440,Akshayapur,64,266.0,23.4160025,88.7010437
34441,Kadiagora,50,266.0,-1.0,-1.0
34443,Manpur,258,266.0,23.0414659,88.6301659
34444,Bhengardi,259,266.0,22.5125814,88.6096575
34445,Mohandi,260,266.0,23.0125037,86.6699226
34446,Banshketia,264,266.0,22.981556,86.6837705
34447,Nagdagora,265,266.0,22.9877154,86.6938392
34448,Jamda,266,266.0,22.9007378,86.8809909
34449,Dhagara,267,266.0,22.9777702,86.7893889
34450,Doladanga,268,266.0,22.9687682,86.7127125
34451,Sikari Jangal,269,266.0,22.9568157,86.7101965
34452,Kantagara,270,266.0,22.9640193,86.69887279999999
34453,Budhpur,271,266.0,23.8720552,87.2978852
34454,Chhota Sagen,153,266.0,-1.0,-1.0
34455,Doldenrya,257,266.0,23.0046169,86.6485137
34456,Deshyardi,110,266.0,22.9981017,86.6925807
34457,Baghkundi,109,266.0,23.0042606,86.70264759999999
34458,Pirargarya,105,266.0,23.4390464,86.390883
34462,Asanboni,59,266.0,23.6904201,86.8560684
34463,Baramashya,60,266.0,23.4875165,86.31010739999999
34466,Loto,115,266.0,23.1188152,86.70390590000001
34467,Baroghutu,116,266.0,22.992554,86.77894099999999
34470,Poradih,119,266.0,23.1873825,86.7495177
34473,Sirkadi,125,266.0,23.173037,85.9636618
34475,Budhpur,127,266.0,23.8720552,87.2978852
34476,Ramnagar,129,266.0,21.6786436,87.5631613
34477,Maheshpur,130,266.0,22.2816125,88.3633918
34478,Amlatora,131,266.0,23.4922078,86.5741401
34479,Puruldiha,132,266.0,23.0959016,86.67495869999999
34482,Bhalukundi,135,266.0,-1.0,-1.0
34484,Kharikagora,137,266.0,23.3340999,86.7592355
34485,Dhadika,138,266.0,22.8975101,87.3624615
34487,Ratnardi alias Bankata,141,266.0,-1.0,-1.0
34488,Talandara,142,266.0,23.1021141,86.6875465
34490,Brahmanpara,245,266.0,23.7978238,87.8758417
34492,Hirapur alias Bagkhundi,147,266.0,23.084319,86.6900637
34493,Palmi,148,266.0,23.0889645,86.69887279999999
34494,Mukundapur,149,266.0,22.4923566,88.4086493
34495,Nimdiha,150,266.0,23.0996632,86.7127125
34496,Datardi,151,266.0,23.1116659,86.71774409999999
34498,Sagenbadia,154,266.0,-1.0,-1.0
34500,Shyamnagar,158,266.0,22.8323184,88.3967536
34503,Panisagora,163,266.0,23.0675119,86.7403801
34504,Jaysingpur,166,266.0,23.0730471,86.7202598
34505,Koldiha,170,266.0,23.0549381,86.70768029999999
34508,Khayerbani,173,266.0,23.6159793,87.54205789999999
34509,Maishamura,174,266.0,21.7987646,87.7775631
34510,Bhagara,157,266.0,23.0851537,86.730321
34511,Payrachali,160,266.0,22.1478005,87.81198499999999
34512,Bhunrasol,114,266.0,-1.0,-1.0
34513,Shalpara,139,266.0,23.039902,86.6642565
34514,Krishnagar alias Swarupdi,46,266.0,23.1054896,86.56657039999999
34516,Joragoria,25,267.0,-1.0,-1.0
34517,Dabra,165,267.0,23.2020776,87.0811561
34518,Nalkuri,166,267.0,22.5405237,88.3585095
34519,Pitidiree,167,267.0,23.5476728,87.2931389
34520,Sinduradi,168,267.0,23.0330777,86.5880148
34521,Ukamgar,169,267.0,23.0408115,86.6018857
34522,Chholagora,170,267.0,23.0349161,86.60440729999999
34523,Chalka,175,267.0,23.1573184,86.7680322
34524,Khariduara,176,267.0,22.9909376,86.63465599999999
34525,Boach,177,267.0,22.5494262,88.3570172
34526,Dundlu,178,267.0,22.9977052,86.6031465
34527,Noyadih,179,267.0,23.7781607,86.40607460000001
34528,Gobradi,180,267.0,23.0112261,86.60945
34529,Dighi,181,267.0,23.015338,86.5930592
34530,Bhutadi,182,267.0,23.0273447,86.59810310000002
34531,Jaora,183,267.0,23.0253427,86.5741401
34532,Penchara,184,267.0,23.1964078,86.44150379999999
34533,Kararbaid,185,267.0,23.0270963,86.5520586
34534,Bari,186,267.0,23.026147,86.5425921
34535,Chaukan,187,267.0,23.0376043,86.5223908
34536,Poradi,188,267.0,23.1242387,86.6787354
34537,Jamunabandh,189,267.0,23.0022405,86.5375425
34538,Bledi,190,267.0,-1.0,-1.0
34539,Patapahari,192,267.0,23.0027879,86.5627851
34540,Kultaird alias,193,267.0,-1.0,-1.0
34541,Dashihira,194,267.0,-1.0,-1.0
34542,Bundia,195,267.0,22.9989499,86.5917982
34543,Tamakhun,196,267.0,22.99154,86.5930592
34544,Basantpur,197,267.0,26.0657705,87.8782959
34545,Susina,198,267.0,22.9562719,86.6132317
34546,Dangardi,199,267.0,22.9501073,86.6031465
34547,Goalapara,200,267.0,25.3099413,88.08763359999999
34548,Chirugara,201,267.0,22.9736911,86.5930592
34549,Purdaha,202,267.0,22.9733666,86.5779245
34550,Kutni,203,267.0,22.9730406,86.5627851
34551,Chandanpur,204,267.0,22.8761508,88.179137
34552,Dhabani,205,267.0,23.589362,87.3686661
34553,Jhariadi,206,267.0,22.9683876,86.5539517
34554,Hensla,207,267.0,23.2965505,86.2717231
34555,Jambadya,208,267.0,23.2134234,86.5722478
34556,Chutya,209,267.0,22.3304547,86.9054306
34557,Raghunathpur,210,267.0,23.5343795,86.6686635
34558,Nunyachatra,211,267.0,22.9372336,86.5577376
34559,Radhamohan,212,267.0,23.3387809,87.45074269999999
34560,Haridi,213,267.0,23.2582068,86.82956449999999
34561,Murgadi,214,267.0,22.9333409,86.58423119999999
34562,Jaragora,215,267.0,22.9437262,86.5829699
34563,Rampur,216,267.0,25.3470758,88.632578
34564,Kandra,217,267.0,23.7292069,87.970232
34565,Burudi,218,267.0,22.9514902,86.6686635
34566,Boro,219,267.0,22.9261999,86.59810310000002
34567,Simtuni,220,267.0,22.9199264,86.5829699
34568,Ankro,221,267.0,22.9104047,86.5552137
34569,Chhota Mamro,222,267.0,22.9145668,86.54132969999999
34570,Bara Mamro,223,267.0,22.9070473,86.5375425
34571,Khayerbani,224,267.0,23.6159793,87.54205789999999
34572,Hitiramgora,225,267.0,23.0619011,86.87785579999999
34573,Jamria,226,267.0,23.7060688,87.0774107
34574,Lakra,227,267.0,22.8659418,86.5627851
34575,Krishnapur,228,267.0,22.6627899,88.2765304
34576,Patrangpar,229,267.0,26.5410267,89.1944024
34577,Bara Kadam,230,267.0,22.5817406,88.3543972
34578,Bikramdi,231,267.0,22.8842256,86.5829699
34579,Damjuri,232,267.0,22.8859556,86.59432029999999
34580,Aguibil,233,267.0,22.6545552,86.69887279999999
34581,Singraidi,234,267.0,22.8848701,86.6132317
34582,Durjjaypara,235,267.0,23.5204443,87.3119227
34583,Lalgungri,236,267.0,-1.0,-1.0
34584,Jharibad,237,267.0,22.8309941,86.59810310000002
34585,Jaypur,238,267.0,23.0551658,87.44801149999999
34586,Chhota Kadam,239,267.0,22.910025,86.6069287
34587,Jagda,191,267.0,23.00246,86.54764109999999
34588,Dharampur,241,267.0,22.8768695,88.384625
34589,Lalpur,242,267.0,22.1332081,88.4228186
34590,Ratyakacha,243,267.0,22.9330052,86.6384357
34591,Kashipur,244,267.0,23.4341206,86.6678714
34592,Panrra,245,267.0,22.8027558,88.14133869999999
34593,Bhanararya,246,267.0,-1.0,-1.0
34594,Krishtapur,247,267.0,22.8840094,86.5728785
34595,Olgara,248,267.0,23.3127991,85.9662154
34596,Kumari,249,267.0,22.9757428,86.6195339
34597,Rangameti,250,267.0,23.33331,86.1929747
34598,Mamurya,251,267.0,22.9723044,86.63276599999999
34599,Kuchilpela,252,267.0,-1.0,-1.0
34600,Serengdi,253,267.0,23.2035606,85.9368423
34601,Gobindapur,254,267.0,22.3781175,88.4052416
34602,Manikdi,255,267.0,22.9791444,86.6396956
34603,Tilabani,256,267.0,23.4127367,86.5425921
34604,Dhanda,261,267.0,22.1058623,87.7947774
34605,Toparbad,262,267.0,22.9811351,86.6636269
34606,Punda,263,267.0,22.9872959,86.6736997
34607,Mirgichand,272,267.0,-1.0,-1.0
34608,Ghat,273,267.0,22.9692351,86.6636269
34609,Tentlo,274,267.0,23.1026315,86.2437941
34610,Goladal,275,267.0,22.9588489,86.66488609999999
34611,Burudi,276,267.0,22.9514902,86.6686635
34612,Ladda,277,267.0,22.9172437,86.7391229
34613,Phulberya,278,267.0,26.6671059,88.4188101
34614,Bhalukdi alias,279,267.0,22.9467903,86.6573303
34615,Rangametiya,280,267.0,23.3093201,86.8571659
34616,Bargoria,281,267.0,23.4258568,87.2854565
34617,Pitidiri,282,267.0,23.2675693,86.0580585
34618,Pinrra,283,267.0,23.3990297,86.59558129999999
34619,Bangora,284,267.0,22.0739539,87.25810159999999
34620,Durgadi,285,267.0,22.9502915,86.6825118
34621,Khudyapara,286,267.0,22.9521188,86.69887279999999
34622,Dhadkidi,287,267.0,23.4952796,86.44529829999999
34623,Shusina,288,267.0,22.9562719,86.6132317
34624,Jorobari,289,267.0,22.9236718,86.6900637
34625,Dharangar,240,267.0,22.9146215,86.6132317
34626,Gopalpur,291,267.0,23.4976267,87.3959564
34627,Baghabad,292,267.0,22.9154722,86.65355199999999
34628,Baramara,293,267.0,22.2237025,87.2195292
34629,Phulbera,294,267.0,26.6671059,88.4188101
34630,Mukundapur,295,267.0,22.4923566,88.4086493
34631,Jamtaria,296,267.0,23.4324145,87.5964182
34632,Chhota Ranga,297,267.0,22.8991877,86.6573303
34633,Buribandh,298,267.0,22.8858253,86.6585897
34634,Brajarajpur,299,267.0,23.0951628,86.93361499999999
34635,Telighana,300,267.0,22.8898388,86.6371758
34636,Baridi,301,267.0,22.886651,86.6270955
34637,Janipur,302,267.0,23.0419418,88.78005689999999
34638,Taldabra,303,267.0,22.8809661,86.6396956
34639,Golapara,304,267.0,22.8677624,86.6485137
34640,Raynakarakurru,306,267.0,22.8920913,86.6736997
34641,Bara Ranga,307,267.0,24.8478866,87.6901614
34642,Bardahi,308,267.0,25.83676,88.0925186
34643,Danrikadoba,309,267.0,22.910257,86.6888051
34644,Kendajor,310,267.0,22.900026,86.69761439999999
34645,Biridungri,311,267.0,22.8967376,86.6825118
34646,Sankura,312,267.0,22.8925095,86.6938392
34647,kalajharma,313,267.0,22.3809969,87.10362239999999
34648,Belgeria,314,267.0,22.8686022,86.6888051
34649,Kalapati,315,267.0,22.8623378,86.6736997
34650,Chakua,305,267.0,22.2407335,86.9235958
34651,Amjora,290,267.0,23.1629431,86.7072085
34652,Dhabani,1,268.0,23.589362,87.3686661
34653,Haludbani,2,268.0,22.9232334,86.4617379
34654,Hetyakol,3,268.0,22.942821,86.4731159
34655,Parbaid,4,268.0,22.934183,86.47430399999999
34656,Gudur,5,268.0,-1.0,-1.0
34657,Bara Parashia,6,268.0,22.9381863,86.49902290000001
34658,Chhota Parashia,7,268.0,23.6414676,86.7591619
34659,Bhalu,8,268.0,22.9364666,86.5223908
34660,Pargela,9,268.0,22.9186175,86.5223908
34661,Tuitanrh,10,268.0,22.7382665,88.37370639999999
34662,Salbani,11,268.0,22.642257,87.3190065
34663,Saga,12,268.0,22.573192,88.353524
34664,Chandrha,13,268.0,22.4621842,87.1485232
34665,Liki,14,268.0,22.8996591,86.4718518
34666,Madhupur,15,268.0,26.363461,89.3807678
34667,Sayrha,16,268.0,-1.0,-1.0
34668,Bamandi,17,268.0,22.9009733,86.4977595
34669,Jitan,18,268.0,22.9061654,86.4971277
34670,Supudi,19,268.0,22.9066077,86.5173392
34671,Rithugorha,20,268.0,-1.0,-1.0
34672,Chila,21,268.0,22.8884268,86.5021814
34673,Bandwan,22,268.0,22.8751225,86.5059713
34674,Dabladi,23,268.0,-1.0,-1.0
34675,Ashparha,24,268.0,-1.0,-1.0
34676,Chirugorha,25,268.0,-1.0,-1.0
34677,Roladi,26,268.0,22.8815862,86.4617379
34678,Gangamanna,27,268.0,22.8518371,86.4617379
34679,Kurhiapara,28,268.0,-1.0,-1.0
34680,Mangla,29,268.0,22.8584555,86.49207360000001
34681,Jobnagora,30,268.0,22.8468872,86.5072345
34682,Kendapara,31,268.0,22.8472175,86.5223908
34683,Shirishgora,32,268.0,23.5476728,87.2931389
34684,Udalbani,33,268.0,22.8417052,86.5425921
34685,Keshhara,34,268.0,22.1167426,87.23446419999999
34686,Shyamnagar,35,268.0,22.8323184,88.3967536
34687,Chototal Path,36,268.0,-1.0,-1.0
34688,Radhanagar,37,268.0,22.7263702,87.8660235
34689,Mahulbana,38,268.0,23.991055,86.9098159
34690,Bartalpat,39,268.0,-1.0,-1.0
34691,Karmatanrh,40,268.0,25.2139996,88.19317579999999
34692,Poyabaid,41,268.0,-1.0,-1.0
34693,Bahadurpur,42,268.0,23.6924569,87.1447831
34694,Beko,43,268.0,23.4804402,86.6485137
34695,Bhogidi,44,268.0,22.868533,86.6144922
34696,Bhasamkata,45,268.0,22.8728623,86.6081894
34697,Jorsal,46,268.0,23.2596989,87.22450800000001
34698,Khatgorha,47,268.0,-1.0,-1.0
34699,Bara Karam,48,268.0,22.8955234,86.6245751
34700,Chhota Karam,49,268.0,22.9043422,86.6195339
34701,Banabhal,50,268.0,-1.0,-1.0
34702,Simabied,51,268.0,-1.0,-1.0
34703,Pukhurkata,52,268.0,22.8631143,86.6396956
34704,Dhaboni,53,268.0,23.589362,87.3686661
34705,Phaharhpur,54,268.0,22.5244929,88.2971985
34706,Andharjhore,55,268.0,-1.0,-1.0
34707,Kukrudabar,56,268.0,22.8440649,86.65355199999999
34708,Natundi,57,268.0,23.5244394,86.3281179
34709,Chaluniya,58,268.0,22.5723437,86.7542081
34710,Kuilapal,59,268.0,22.831528,86.6233149
34711,Dhobagorha,60,268.0,-1.0,-1.0
34712,Barkala,61,268.0,22.6655786,86.8784835
34713,Kapatdanga,62,268.0,22.8508945,86.6245751
34714,Harhgorha,63,268.0,-1.0,-1.0
34715,Chirudi,64,268.0,22.8547965,86.59810310000002
34716,Laupal,65,268.0,22.8428953,86.59810310000002
34717,Kherhiyadi,66,268.0,-1.0,-1.0
34718,Kenadi,67,268.0,22.6828591,88.4460284
34719,Lailamdi,68,268.0,22.832776,86.6119712
34720,Berhabanka,69,268.0,-1.0,-1.0
34721,Tasgram,70,268.0,22.824607,86.6126015
34722,Jharibaid,71,268.0,-1.0,-1.0
34723,Churku,72,268.0,22.8189854,86.5930592
34724,Kadaya,73,268.0,22.8206607,86.6018857
34725,Sarga,74,268.0,22.8149769,86.6144922
34726,Surshinga,75,268.0,23.688831,86.959684
34727,Jaspur,76,268.0,23.770341,87.43438359999999
34728,Bansal,77,268.0,-1.0,-1.0
34729,Sindari Uli,78,268.0,-1.0,-1.0
34730,Kumra,79,268.0,22.8084053,88.7181185
34731,Kayra,80,268.0,24.9736508,88.3421481
34732,Siruguru,81,268.0,-1.0,-1.0
34733,Gegra,82,268.0,21.9001037,87.53695960000002
34734,Ladashol,83,268.0,22.6839682,87.0243191
34735,Barudi,84,268.0,23.4262978,86.10646550000001
34736,Popo,85,268.0,22.8264463,86.52491640000001
34737,Danga,86,268.0,23.1758217,86.8747223
34738,Porhadi,87,268.0,23.1873825,86.7495177
34739,Pargorha,88,268.0,-1.0,-1.0
34740,Ghatahuli,89,268.0,22.6636967,87.74680710000001
34741,Patkita,90,268.0,22.825341,86.47438
34742,Burigorha,91,268.0,-1.0,-1.0
34743,Shirka,92,268.0,22.8484694,86.44403349999999
34744,Makpali,93,268.0,-1.0,-1.0
34745,Sekobasa,94,268.0,-1.0,-1.0
34746,Bhomragorha,95,268.0,-1.0,-1.0
34747,Kuchia,96,268.0,22.786162,86.45162189999999
34748,Asanpani,97,268.0,22.7768436,86.433914
34749,Lukapani,98,268.0,22.7582048,86.4655308
34750,Pachapani,99,268.0,22.7678589,86.4732739
34751,Mirgichami,100,268.0,22.7631398,86.4870189
34752,Salidi,101,268.0,23.2333539,86.056784
34753,Bangari,102,268.0,26.1216819,89.47067299999999
34754,Ghalura,103,268.0,-1.0,-1.0
34755,Jamgorha,104,268.0,23.9168912,90.3166162
34756,Dangarjuri,105,268.0,22.8044596,86.4718518
34757,Karpa,106,268.0,25.4473177,88.58431
34758,Lata,107,268.0,22.8092835,86.48828259999999
34759,Kumirdi,108,268.0,22.2051426,88.93659760000001
34760,Dhadka,109,268.0,23.6997719,86.9811778
34761,Digha,110,268.0,21.6266172,87.5074315
34762,Dhanparha,111,268.0,22.7375562,86.9849308
34763,Janijhor,112,268.0,22.7939921,86.5375425
34764,Kushbani,113,268.0,22.8002694,86.5526896
34765,Panra,114,268.0,23.0907105,86.1191966
34766,Harada,115,268.0,22.7948596,86.5779245
34767,Nanna,116,268.0,22.7803584,86.59558129999999
34768,Rajauli,117,268.0,22.7711637,86.5829699
34769,Bamundara,118,268.0,23.5000611,87.3637025
34770,Lidam,119,268.0,-1.0,-1.0
34771,Rasiknagar,120,268.0,22.7484972,86.56657039999999
34772,Dulukdi,121,268.0,-1.0,-1.0
34773,Katagorha,122,268.0,-1.0,-1.0
34774,Madhuban,123,268.0,23.0878276,87.3525325
34775,Ghoratika,124,268.0,22.7523367,86.5375425
34776,Borokhula,125,268.0,-1.0,-1.0
34777,Punsa,126,268.0,22.7667215,86.5148133
34778,Kadru,127,268.0,23.3310849,85.3161283
34779,Burijhor,128,268.0,22.7392264,86.4819637
34780,Satarha,129,268.0,22.7218157,86.5021814
34781,Chowra,130,268.0,26.3856409,89.39142509999999
34782,Rajgram,131,268.0,24.538716,87.8500644
34783,Mahulbani,132,268.0,22.8154543,86.93361499999999
34784,Golkata,133,268.0,22.572646,88.36389500000001
34785,Latjharna,134,268.0,-1.0,-1.0
34786,Gurhpalaorfeporhadi,135,268.0,-1.0,-1.0
34787,Kulaghutu,1,269.0,23.3710324,86.0950048
34788,Nagra,2,269.0,23.3728029,86.10646550000001
34789,Gundaligora,3,269.0,-1.0,-1.0
34790,Boram,4,269.0,22.9601503,86.27077129999999
34791,Thakursima alias Simbhua,5,269.0,23.3553479,86.1217424
34792,Ghatbon,6,269.0,21.8587258,88.14506159999999
34793,Ulugariya,7,269.0,23.3549702,86.10646550000001
34794,Balia,8,269.0,23.082003,88.66994799999999
34795,Hetgugui  alias Barahatu,9,269.0,-1.0,-1.0
34796,Kashidi,10,269.0,23.3501565,86.6736997
34797,Hetzari,11,269.0,-1.0,-1.0
34798,Balrampur,12,269.0,23.3454586,86.8057142
34799,Tari,13,269.0,26.7240823,88.3664257
34800,Kishanpur,14,269.0,23.3257508,86.12683369999999
34801,Kenda,15,269.0,23.1921493,86.5173392
34802,Uparjari,16,269.0,23.3042527,86.0988253
34803,Upargugui,17,269.0,23.3156355,86.07844589999999
34804,Bamni,18,269.0,23.0621699,86.5577376
34805,Ghatiyali,19,269.0,-1.0,-1.0
34806,Kanriyardih,20,269.0,23.2730737,86.10009869999999
34807,Parshia,21,269.0,23.6511104,87.1597417
34808,Sitarampur,22,269.0,23.7233343,86.89477889999999
34809,Bhuyandi,23,269.0,19.314476,72.8564411
34810,Goyalikocha,24,269.0,-1.0,-1.0
34811,Purano Burudi,25,269.0,-1.0,-1.0
34812,Tanasi,26,269.0,23.4045217,86.1878899
34813,Pattarnd,27,269.0,22.5012045,88.3643706
34814,Bandudihi,28,269.0,-1.0,-1.0
34815,Kalabani,29,269.0,23.409836,86.5798166
34816,Bhelaidi,30,269.0,23.4219827,86.1726327
34817,Harmadi,31,269.0,-1.0,-1.0
34818,Ghandabbazar,32,269.0,23.285626,86.1878899
34819,Nunia,33,269.0,22.5026955,86.8446218
34820,Harada,34,269.0,22.7948596,86.5779245
34821,Palpal,35,269.0,23.3052567,86.1395598
34822,Rugari,36,269.0,-1.0,-1.0
34823,Kadampur,37,269.0,26.516366,89.6698658
34824,Deltanr,38,269.0,-1.0,-1.0
34825,Aharra,39,269.0,23.2992184,86.19801029999999
34826,Gourangadi,40,269.0,23.821631,86.97982669999999
34827,Manpur,41,269.0,23.0414659,88.6301659
34828,Karandi,42,269.0,23.8568776,88.0717537
34829,Arsha,43,269.0,23.3268715,86.1726327
34830,Khedadi,44,269.0,23.3309892,86.15864289999999
34831,Chitidi,45,269.0,-1.0,-1.0
34832,Mankiari,46,269.0,23.343835,86.1370148
34833,Briddhitar alias Bondi,47,269.0,-1.0,-1.0
34834,Jaratanr,48,269.0,23.3636224,86.15609889999999
34835,Torang,49,269.0,23.267073,85.8364658
34836,Tumba,50,269.0,23.3385133,86.1624587
34837,Rangamati,51,269.0,23.33331,86.1929747
34838,Fasko,52,269.0,-1.0,-1.0
34839,Kudagora,53,269.0,-1.0,-1.0
34840,Kanchanpur,54,269.0,23.3116417,87.0942627
34841,Juradi,55,269.0,23.3340451,86.22347239999999
34842,Bamandiha,56,269.0,23.3445404,86.2272833
34843,Jhalda,57,269.0,23.3283436,86.23363429999999
34844,Goradag,58,269.0,23.3288286,86.25395189999999
34845,Birchali,59,269.0,23.3107506,86.2437941
34846,Hetjambaid,60,269.0,-1.0,-1.0
34847,Uparjambaid,61,269.0,-1.0,-1.0
34848,Lachanmanpur,62,269.0,22.6359557,88.2740982
34849,Senabona,63,269.0,-1.0,-1.0
34850,Salaidahar,64,269.0,23.2841773,86.2514126
34851,Kultanr,65,269.0,26.3053907,88.24368439999999
34852,Tiasi,66,269.0,-1.0,-1.0
34853,Gurahata,67,269.0,23.2594229,86.21076719999999
34854,Sirkabaid,68,269.0,23.2679126,86.1929747
34855,Bhuda,69,269.0,23.2379388,86.1828047
34856,Rajpati,70,269.0,23.2358835,86.2209316
34857,Mudali,71,269.0,23.2215641,86.2437941
34858,kumirdiha,72,269.0,23.2281123,86.26918479999999
34859,Chatuhansa,73,269.0,23.2489838,86.2717231
34860,Pathardi,74,269.0,23.2559047,86.2501429
34861,Jhujhka,75,269.0,23.2698547,86.2742614
34862,Ramjibanpur,76,269.0,22.8225661,87.6137011
34863,Hensla,77,269.0,23.2965505,86.2717231
34864,Jhariadi,78,269.0,22.9683876,86.5539517
34865,Beldi,79,269.0,23.3233655,86.2742614
34866,Bhursa,80,269.0,23.3118342,86.2894882
34867,Haranama,81,269.0,23.304432,86.2907568
34868,Satra,84,269.0,23.2853767,86.30217359999999
34869,Ibirkola alias Misirdi,86,269.0,23.2613545,86.2920255
34870,Patuyara,87,269.0,-1.0,-1.0
34871,Dhanera,88,269.0,23.4029262,86.6384357
34872,Shirdi,89,269.0,22.5167252,88.3530948
34873,Kantadi,90,269.0,23.2289479,86.30471039999999
34874,Piskapahari,91,269.0,23.240364,86.2844131
34875,Pithati,92,269.0,22.628544,86.5930592
34876,Juri,93,269.0,23.19862,86.2793375
34877,Kourang,94,269.0,23.1929121,86.2894882
34878,Khukramura,95,269.0,23.2111086,86.30471039999999
34879,Korarya,96,269.0,23.214732,86.3326058
34880,Puyara,97,269.0,22.5278746,88.35464549999999
34881,Sadpuyara,98,269.0,-1.0,-1.0
34882,Kukurchirka,206,269.0,23.2342642,86.34147840000001
34883,Ghatbera,1,270.0,23.1851591,86.2133085
34884,Parbad-Kashitanr,2,270.0,23.1999638,86.21076719999999
34885,Dumurbera,3,270.0,21.9080606,87.7086406
34886,Mirmi,4,270.0,23.190316,86.24252419999999
34887,Serenghatu,5,270.0,23.2130035,85.6768759
34888,Gohaldang,6,270.0,23.2101535,86.2641076
34889,Bankudi,7,270.0,23.1967441,86.2628383
34890,Jashudi,8,270.0,23.1862477,86.25903
34891,Bhaluka,9,270.0,23.3701939,88.44402250000002
34892,Berada,10,270.0,23.1747141,86.2742614
34893,Baraurma,11,270.0,23.1641578,86.2679155
34894,Chhoto Urma,12,270.0,23.1518927,86.25680059999999
34895,Latadah,13,270.0,23.1682877,86.25395189999999
34896,Tilai,14,270.0,23.1798192,86.2387144
34897,Jorka,15,270.0,23.1817009,86.2241076
34898,Dandudi,16,270.0,23.23576,86.6081894
34899,Kerowa,17,270.0,23.1681875,86.2231245
34900,Jugidi Kashidi,18,270.0,23.1499654,86.23363429999999
34901,Gitinglahar,19,270.0,23.1436553,86.2183907
34902,Karma,20,270.0,23.1610078,86.19805889999999
34903,Bersa,21,270.0,23.1489927,86.1929747
34904,Garga,22,270.0,23.1511672,86.15991489999999
34905,Siringi,23,270.0,23.1368547,86.1828047
34906,Ulidi,24,270.0,23.1253284,86.19805889999999
34907,Kana,25,270.0,23.1258151,86.2183907
34908,Namshol,26,270.0,23.1293328,86.2412543
34909,Amruhasa,27,270.0,23.114646,86.24887319999999
34910,Khairadi,28,270.0,18.4519566,73.85966379999999
34911,Dumari,29,270.0,23.1190663,86.27870300000001
34912,Parashya,30,270.0,22.9940823,86.7139704
34913,Ghasidi,31,270.0,23.1372772,86.2628383
34914,Darberia,32,270.0,22.2675081,88.4446282
34915,Maldi,33,270.0,23.1452187,86.2844131
34916,Jambani,34,270.0,22.6736061,87.2798625
34917,Sagma,35,270.0,23.1237647,86.2888538
34918,Sirkabad,36,270.0,23.2679126,86.1929747
34919,Panardda,37,270.0,-1.0,-1.0
34920,Gobindadi,38,270.0,23.2384304,85.9636618
34921,Harjora,39,270.0,23.1062491,86.3028078
34922,Supurdi,40,270.0,23.3373215,86.05423499999999
34923,Shyamnagar(41),41,270.0,22.8323184,88.3967536
34924,Hanspur,42,270.0,22.9273092,88.6892228
34925,Banbandha,43,270.0,23.07316,86.27077129999999
34926,Bargado,44,270.0,-1.0,-1.0
34927,Tentlo,45,270.0,23.1026315,86.2437941
34928,Balarampur,46,270.0,23.0943913,86.22029619999999
34929,Rangadi,47,270.0,23.381214,86.5287046
34930,Rugri,48,270.0,23.1133129,86.1929747
34931,Nekre,49,270.0,23.1187695,86.1726327
34932,Deoli-(050),50,270.0,22.209699,87.799544
34933,Dava,51,270.0,23.1127038,88.4627112
34934,Erka,52,270.0,23.0824731,86.1471939
34935,Ichadi,53,270.0,23.0174974,86.6245751
34936,Genrua,54,270.0,26.0375293,87.9690074
34937,Benradih,55,270.0,23.1025668,86.1860493
34938,Sunridih,56,270.0,-1.0,-1.0
34939,Sapuya,57,270.0,-1.0,-1.0
34940,Banshgarh,58,270.0,22.8519977,86.40227709999999
34941,Baghadi,59,270.0,23.1904229,86.3744202
34942,Chotogado,60,270.0,-1.0,-1.0
34943,Gobindpur,61,270.0,22.3781175,88.4052416
34944,Gerhgeddi,62,270.0,-1.0,-1.0
34945,Shalbani,63,270.0,22.642257,87.3190065
34946,Samurdi,64,270.0,23.0573473,86.27806849999999
34947,Bhurrudi,65,270.0,-1.0,-1.0
34948,Phatepur,66,270.0,24.0811089,87.73080569999999
34949,Kadamdi,67,270.0,22.5714769,86.46489869999999
34950,Darhda,68,270.0,23.0492258,86.24887319999999
34951,Burudi,69,270.0,22.9514902,86.6686635
34952,Juradi,70,270.0,23.3340451,86.22347239999999
34953,Domantorh,71,270.0,-1.0,-1.0
34954,Amaru,72,270.0,23.0680433,86.2272833
34955,Berhma,73,270.0,23.0781181,86.2133085
34956,Bela,74,270.0,23.0834563,86.1878899
34957,Neudi,75,270.0,-1.0,-1.0
34958,Brindabanpur,76,270.0,22.108309,87.8672509
34959,Baraha Chatarma,77,270.0,23.064756,86.1522827
34960,Malti,78,270.0,23.0562661,86.1700894
34961,Dantiya,79,270.0,23.2798387,85.96015469999999
34962,Bhalubasa,80,270.0,23.0356347,86.177719
34963,Kayradi,81,270.0,23.6719555,86.3744202
34964,Dhebredi,82,270.0,-1.0,-1.0
34965,Biramadi,83,270.0,-1.0,-1.0
34966,Shyamnagar alias Jojadi(84),84,270.0,-1.0,-1.0
34967,Ruchap,85,270.0,23.0544503,86.2183907
34968,Rafkata,86,270.0,-1.0,-1.0
34969,Kurhni,87,270.0,-1.0,-1.0
34970,Maraidi,88,270.0,-1.0,-1.0
34971,Chakuliya,89,270.0,26.0237418,87.9601283
34972,Atebela,90,270.0,23.0194876,86.24887319999999
34973,Murgorha,91,270.0,22.9536576,86.84838529999999
34974,Harat,92,270.0,22.8821896,88.186449
34975,Arahansa,93,270.0,23.0305231,86.2755304
34976,Deoli,94,270.0,22.0267437,87.2400636
34977,Rangamati,1,271.0,23.33331,86.1929747
34978,Mukrub,2,271.0,23.2366474,85.8846277
34979,Peretorang,3,271.0,23.242661,85.89722619999999
34980,Piuar Goria,4,271.0,-1.0,-1.0
34981,Chogapiri,5,271.0,23.2174309,85.8985046
34982,Gagi,6,271.0,23.2244286,85.8818829
34983,Shaldabra,7,271.0,23.2157662,85.8818761
34984,Suisa,8,271.0,23.1920672,85.89466929999999
34985,Raidi,9,271.0,23.5555278,86.755465
34986,Tunturi,10,271.0,23.2133372,85.912565
34987,Sopa,11,271.0,23.199995,85.9138431
34988,Tiruldih,12,271.0,23.1919184,85.91809030000002
34989,Harup,13,271.0,23.1821609,85.9138431
34990,Harta,14,271.0,23.1781973,85.9042571
34991,Marcha,15,271.0,23.1770061,85.8869978
34992,Saridi,16,271.0,23.1653823,85.89722619999999
34993,Simali,17,271.0,23.1715921,85.9074526
34994,Atna,18,271.0,23.1540216,85.917677
34995,Deoli,19,271.0,22.0267437,87.2400636
34996,Dugda,20,271.0,23.7483099,86.1522827
34997,Patahensal,21,271.0,-1.0,-1.0
34998,Ramdi,22,271.0,23.7926949,86.8709607
34999,karihensa,23,271.0,23.1922605,85.95983129999999
35000,Sasakhash,24,271.0,-1.0,-1.0
35001,Bhursudi,25,271.0,23.1962938,85.9432291
35002,Serengdih,26,271.0,23.0232842,85.86269740000002
35003,Barudi,27,271.0,23.4262978,86.10646550000001
35004,Dulmi,28,271.0,23.277523,85.866535
35005,Bidri,29,271.0,-1.0,-1.0
35006,Chatua,30,271.0,23.2211312,85.9266217
35007,Chaki Chalong,31,271.0,-1.0,-1.0
35008,Kalimati,32,271.0,23.2433238,85.92278840000002
35009,Bandhdih,33,271.0,23.6587683,86.0172595
35010,Bagti,34,271.0,23.2615523,85.9381197
35011,Maunia,35,271.0,23.260362,85.9496152
35012,Burudih,36,271.0,23.0670682,86.24887319999999
35013,Parmtikar,37,271.0,22.59272,88.4329556
35014,Pogrodih,38,271.0,-1.0,-1.0
35015,kuchi,39,271.0,23.2487352,85.95983129999999
35016,Sarjamhatu,40,271.0,23.3381609,85.912565
35017,Serengdi,41,271.0,23.2035606,85.9368423
35018,Chakghagra,42,271.0,22.5602543,88.3530323
35019,Tiringhensa,43,271.0,-1.0,-1.0
35020,Nayandi,44,271.0,23.2325241,85.93620349999999
35021,Churki,45,271.0,23.2305085,85.9445064
35022,Gobindodih,46,271.0,23.3535138,87.1067419
35023,Kushaldi,47,271.0,23.2264104,85.9585544
35024,Relakurra,48,271.0,23.2199413,85.9381197
35025,Sarmali,49,271.0,23.2143902,85.9534465
35026,Dhekiya,50,271.0,23.284984,86.34908229999999
35027,Parsha,51,271.0,22.6761578,88.3840073
35028,Jhabri,52,271.0,23.2015689,85.97515170000001
35029,Karru,53,271.0,22.7455088,86.4971277
35030,Sirkadi,54,271.0,23.173037,85.9636618
35031,Hurumda,55,271.0,23.161407,85.9738752
35032,Jiling,56,271.0,22.9900116,86.5223908
35033,Garait Sakra,57,271.0,-1.0,-1.0
35034,Godhudih,58,271.0,-1.0,-1.0
35035,Birgram,59,271.0,23.172362,85.9955719
35036,Sindri,60,271.0,23.1859649,86.0045031
35037,Dava,61,271.0,23.1127038,88.4627112
35038,Torang,62,271.0,23.267073,85.8364658
35039,Nishchintapur,63,271.0,22.460581,88.1730427
35040,Rengtudi,64,271.0,23.2077738,85.98536279999999
35041,Bhursu,65,271.0,23.2151725,85.98408649999999
35042,Koreng,66,271.0,23.2330069,85.98408649999999
35043,Ukada,67,271.0,23.2422482,85.99684789999999
35044,Burda,68,271.0,23.2493222,85.9828102
35045,Dungridi,69,271.0,23.2625032,86.033838
35046,Susnidih,70,271.0,22.3064664,87.3045643
35047,Saramchaki,71,271.0,23.2483362,86.0319253
35048,Bamnijara,72,271.0,22.631538,88.376468
35049,Pitidiri,73,271.0,23.2675693,86.0580585
35050,Kusumtikari,74,271.0,22.8107346,86.9986891
35051,Hensadi,75,271.0,-1.0,-1.0
35052,Saharjuri,76,271.0,23.2539096,86.10646550000001
35053,Bangada,77,271.0,23.3630266,86.4465631
35054,Sonahara,78,271.0,23.2350574,86.1255609
35055,Kalaha,79,271.0,24.927365,88.0274606
35056,Bhunighara,80,271.0,22.5125814,88.6096575
35057,Teliabhasa,81,271.0,23.2353166,86.0758979
35058,Shaldi,82,271.0,23.2333539,86.056784
35059,Bhitpani,83,271.0,23.2408807,86.06060740000001
35060,Alkushi,84,271.0,23.2451165,86.0516858
35061,Kurupahar,85,271.0,23.2404981,86.04531229999999
35062,Baredi,86,271.0,23.2341689,86.03001259999999
35063,Khirabera,87,271.0,23.2147513,86.026187
35064,Dhundikhap,88,271.0,23.208742,86.0236364
35065,Charida,89,271.0,-1.0,-1.0
35066,Ghorabandha,90,271.0,23.1835709,86.0274622
35067,Ghaghra,91,271.0,23.4926824,86.1471939
35068,Sarakdih,92,271.0,23.0076207,86.3459142
35069,Chano,93,271.0,23.182564,86.046587
35070,Pratappur,94,271.0,23.4707709,87.30285579999999
35071,Patardih,95,271.0,23.1915578,86.05896059999999
35072,Gobindapur,96,271.0,22.3781175,88.4052416
35073,Madla,97,271.0,23.1691547,86.04531229999999
35074,Srabandih,98,271.0,26.5769116,88.96996200000001
35075,Tantan,99,271.0,23.1465713,86.033838
35076,Basudi,100,271.0,23.076961,86.6938392
35077,Matiyala,101,271.0,23.1620091,86.056784
35078,Kudlung,102,271.0,23.2778814,86.49460069999999
35079,Bareria,103,271.0,23.192936,86.0725493
35080,Gosaidi,104,271.0,23.1956911,86.0663419
35081,Bagmundi,105,271.0,23.1930641,86.0504111
35082,Ranga,106,271.0,23.084974,86.7944127
35083,Hatinada,107,271.0,23.5095031,86.10646550000001
35084,Ayodhya,108,271.0,22.6020045,87.8082982
35085,Kuchrirakha,109,271.0,23.1949557,86.12683369999999
35086,Puriashasan,110,271.0,22.5885241,88.40975019999999
35087,Chatani,111,271.0,23.38662,86.144136
35088,Lahadungri,112,271.0,23.2255541,86.1624587
35089,Shilingda,113,271.0,23.2199785,86.177719
35090,Usuldungri,114,271.0,23.2082761,86.1786223
35091,Chatrajara,115,271.0,-1.0,-1.0
35092,Gadurjharna,116,271.0,-1.0,-1.0
35093,Kalijharna,117,271.0,23.1918274,86.1815333
35094,Kamar Jara,118,271.0,23.1843026,86.177719
35095,Shimulbera,119,271.0,23.3540653,86.25268229999999
35096,Kadamda,120,271.0,23.2097455,88.32636029999999
35097,Gobriya,121,271.0,-1.0,-1.0
35098,Kudna,122,271.0,23.1737077,86.1090119
35099,Pardi,123,271.0,23.1625643,86.1395598
35100,Shukridoba,124,271.0,23.1587802,86.10646550000001
35101,Ekra,125,271.0,23.1510025,86.0924576
35102,Tikartar,126,271.0,-1.0,-1.0
35103,Sankupi,127,271.0,23.1367712,86.0580585
35104,Charkapathar,128,271.0,23.1107098,86.05614680000001
35105,Loyakui,129,271.0,-1.0,-1.0
35106,Munibera,130,271.0,23.1117856,86.0695274
35107,Matha,131,271.0,23.1165292,86.0809938
35108,Madhupur,132,271.0,26.363461,89.3807678
35109,Rabar,133,271.0,23.1033075,86.0873629
35110,Haridi,134,271.0,23.2582068,86.82956449999999
35111,Dhanudih,135,271.0,23.1079348,86.0954017
35112,Bandudi,136,271.0,23.0874251,86.10646550000001
35113,Kanrda,137,271.0,23.7292069,87.970232
35114,Digardi,138,271.0,23.4679648,85.87676739999999
35115,Srirampur,139,271.0,22.748331,88.3385053
35116,Khudidi,140,271.0,23.1218982,86.11792360000001
35117,Dhaska,141,271.0,23.1309423,86.12301529999999
35118,Chirugora,142,271.0,22.8700219,86.476908
35119,Chaunia,143,271.0,23.1163874,86.13574229999999
35120,Banshidi,144,271.0,23.1035181,86.1261973
35121,Ponra,145,271.0,23.0960982,86.1249918
35122,Panjanbera,1,272.0,23.1750721,86.2894882
35123,Dubrajpur,2,272.0,23.7946344,87.3761105
35124,Pachukuda,3,272.0,-1.0,-1.0
35125,Raigara,4,272.0,23.1718098,86.3137473
35126,Shachandi,5,272.0,-1.0,-1.0
35127,Surigda,6,272.0,23.156249,86.3110516
35128,Adabana,7,272.0,23.1515223,86.2996368
35129,Garasangma,8,272.0,-1.0,-1.0
35130,Rangagara,9,272.0,23.0710085,86.35415090000001
35131,Babuijorh,10,272.0,23.8405745,87.1777556
35132,Taltard,11,272.0,-1.0,-1.0
35133,Muradi,12,272.0,23.5931634,86.80941779999999
35134,Bhelaidi,13,272.0,23.4219827,86.1726327
35135,Bamunjora,14,272.0,23.5000611,87.3637025
35136,Kharipahari,15,272.0,23.4315964,86.8747223
35137,Bhagabandh,16,272.0,23.3035652,86.4465631
35138,Turangdi,17,272.0,-1.0,-1.0
35139,Raotora,18,272.0,22.8264226,86.6636269
35140,Bamu,19,272.0,23.1506559,86.3262673
35141,Chirudi,20,272.0,22.8547965,86.59810310000002
35142,Japangdi,21,272.0,-1.0,-1.0
35143,Sonadungri,22,272.0,23.1567794,86.3338735
35144,Bhalukdungri,23,272.0,23.1657,86.3338735
35145,Dhanarha,24,272.0,22.7375562,86.9849308
35146,Takriya,25,272.0,21.7105562,87.6994019
35147,Bhuiyadi,26,272.0,22.8065755,86.2214944
35148,Bajra,27,272.0,23.1767219,86.3604859
35149,Sarishabahal,28,272.0,-1.0,-1.0
35150,Tilabani,29,272.0,23.4127367,86.5425921
35151,Pratappur,30,272.0,23.4707709,87.30285579999999
35152,Shalghati,31,272.0,23.688831,86.959684
35153,Gabhurhra,32,272.0,-1.0,-1.0
35154,Lakrakhonda,33,272.0,23.1711239,86.3756867
35155,Tatuladi,34,272.0,-1.0,-1.0
35156,Satsayerdi,35,272.0,-1.0,-1.0
35157,Dhabera,36,272.0,23.1465185,86.340211
35158,Radhakistopur,37,272.0,-1.0,-1.0
35159,Dhadkidi,38,272.0,23.4952796,86.44529829999999
35160,Huramda,39,272.0,-1.0,-1.0
35161,Lekrhakonda,40,272.0,-1.0,-1.0
35162,Bamundiha,41,272.0,23.1173651,86.3655534
35163,Murugarha,42,272.0,23.3444892,88.6297041
35164,Nadiha,43,272.0,23.4944129,86.4073403
35165,Kalyanpur,44,272.0,22.5006615,87.91509309999999
35166,Chipingdi,45,272.0,-1.0,-1.0
35167,Lauberha,46,272.0,-1.0,-1.0
35168,Shyamrola,47,272.0,-1.0,-1.0
35169,Manpur,48,272.0,22.9415515,88.52933829999999
35170,Turku,49,272.0,23.1069277,86.3642866
35171,Arabaid,50,272.0,-1.0,-1.0
35172,Rajdih,51,272.0,23.1413873,86.3756867
35173,Puriara,52,272.0,23.1561432,86.4031607
35174,Badaldi,53,272.0,-1.0,-1.0
35175,Gagarhadi,54,272.0,-1.0,-1.0
35176,Raidi,55,272.0,23.5555278,86.755465
35177,Gosaidi,56,272.0,23.1956911,86.0663419
35178,Dhelatbamu,57,272.0,23.1379918,86.422527
35179,Lagadi,58,272.0,-1.0,-1.0
35180,Jharia,59,272.0,23.1301847,86.40607460000001
35181,Sulungjuri,60,272.0,23.1374755,86.39974529999999
35182,Shiarketya,61,272.0,23.688831,86.959684
35183,Motilaldi,62,272.0,22.5744636,88.35222209999999
35184,Rangametya,63,272.0,23.4209136,86.8609285
35185,Bhabanipur,64,272.0,22.4224226,88.4422055
35186,Sukurhutu,65,272.0,23.1062788,86.4010112
35187,Kaipara,66,272.0,-1.0,-1.0
35188,Palma,67,272.0,23.505612,86.57540159999999
35189,Khawasdi,68,272.0,-1.0,-1.0
35190,Bhagiari,69,272.0,23.1187472,86.42632290000002
35191,Duyar,70,272.0,23.1254528,86.4269556
35192,Bamu,71,272.0,23.1506559,86.3262673
35193,Ulda,72,272.0,23.1223464,86.45415109999999
35194,Tilagarha,73,272.0,22.7382665,88.37370639999999
35195,Gordi,74,272.0,26.995475,-82.015243
35196,Banjora,75,272.0,23.5096392,87.2294864
35197,Patharaghata,76,272.0,22.5684389,88.52510679999999
35198,Ranipukur,77,272.0,23.0915418,86.4731159
35199,Siromonipur,78,272.0,22.9466393,87.5810794
35200,Banwdan,79,272.0,23.2324214,87.8614793
35201,Kandayan,80,272.0,22.5951094,88.4168771
35202,Lagudi,81,272.0,23.1127753,86.4347813
35203,Harhamdi,82,272.0,-1.0,-1.0
35204,Banbir,83,272.0,22.3215003,87.31580009999999
35205,Brajarajpur,84,272.0,23.0951628,86.93361499999999
35206,Baramukru,85,272.0,23.0826019,86.40607460000001
35207,Raghunathpur,86,272.0,23.5343795,86.6686635
35208,Rupapety,87,272.0,-1.0,-1.0
35209,Bashudebpur,88,272.0,21.8248993,87.62110609999999
35210,Murgabera,89,272.0,23.0871608,86.3452805
35211,Chandanpur,90,272.0,22.8761508,88.179137
35212,Tumrasole,91,272.0,23.0755881,86.30756679999999
35213,Tuima,92,272.0,23.083188,86.30217359999999
35214,Ghoshdi,93,272.0,-1.0,-1.0
35215,Muradi,94,272.0,23.5931634,86.80941779999999
35216,Lakshanpur,95,272.0,22.6359557,88.2740982
35217,Bhabanipur,96,272.0,22.4224226,88.4422055
35218,Beldi,97,272.0,23.3233655,86.2742614
35219,Badhadi,98,272.0,23.8508149,87.2730244
35220,Jyera,99,272.0,23.445587,88.31076499999999
35221,Damda,100,272.0,23.277698,86.355418
35222,Kashabhal,101,272.0,-1.0,-1.0
35223,Suraidi,102,272.0,-1.0,-1.0
35224,Gokulnagar,103,272.0,22.3030031,87.7246498
35225,Berada,104,272.0,23.1747141,86.2742614
35226,Digardi,105,272.0,23.4679648,85.87676739999999
35227,Raidih,106,272.0,23.0054134,86.21966119999999
35228,Sarajang,107,272.0,23.014214,86.2145791
35229,Bhikharichelama,108,272.0,-1.0,-1.0
35230,Saremacha,109,272.0,23.0084179,86.1897968
35231,Dumurberha,110,272.0,-1.0,-1.0
35232,Baghuberha,111,272.0,-1.0,-1.0
35233,Kukurchari,112,272.0,23.0206773,86.2996368
35234,Nutandi Alise Gopalpur,113,272.0,-1.0,-1.0
35235,Kenro,114,272.0,-1.0,-1.0
35236,Ramkanali,115,272.0,23.5780052,86.76426239999999
35237,Parsha,116,272.0,22.6761578,88.3840073
35238,Gosaidi,117,272.0,23.1956911,86.0663419
35239,Patpur,118,272.0,23.2314562,87.06117720000002
35240,Bankati,119,272.0,23.5987763,87.48887099999999
35241,Amagara,120,272.0,23.0555546,86.32880279999999
35242,Medinitard,121,272.0,-1.0,-1.0
35243,Durku,122,272.0,23.272219,86.3756867
35244,Dhadanga,123,272.0,22.9004432,86.8659449
35245,Nischantapur,124,272.0,21.9902315,88.2152393
35246,Metyala,125,272.0,23.0976162,87.1447831
35247,Rajdaha,126,272.0,22.9989893,86.3262673
35248,Radhanagar,127,272.0,22.7263702,87.8660235
35249,Naranpur,128,272.0,22.6453065,88.46218909999999
35250,Pattoria,129,272.0,22.9995145,86.34908229999999
35251,Sarakdi,130,272.0,23.1886369,86.0516858
35252,Baisnabdi,131,272.0,22.5257434,88.355408
35253,Tipur,132,272.0,23.0232494,86.34654780000001
35254,Gapalpur,133,272.0,23.4976267,87.3959564
35255,Parankendi,134,272.0,-1.0,-1.0
35256,Deogharadi,135,272.0,-1.0,-1.0
35257,Simuldanga,136,272.0,23.0351457,86.34654780000001
35258,Gorsai,137,272.0,23.0385639,86.3577936
35259,Dumurdi,138,272.0,-1.0,-1.0
35260,Rampur,139,272.0,25.3470758,88.632578
35261,Ransi,140,272.0,23.0498408,86.3389436
35262,Ragma,141,272.0,23.0478873,86.3509831
35263,Banshbera,142,272.0,22.5517226,86.9961879
35264,Karmabera,143,272.0,23.0678597,86.34654780000001
35265,Raghunathdi,144,272.0,23.5343795,86.6686635
35266,Rangagera,145,272.0,-1.0,-1.0
35267,Purihansa,146,272.0,-1.0,-1.0
35268,Rolladi,147,272.0,23.688831,86.959684
35269,Lanka,148,272.0,23.0658135,86.3870843
35270,Khawasdi,149,272.0,-1.0,-1.0
35271,Gurda,150,272.0,23.0535708,86.371887
35272,Sankhari,151,272.0,23.0459909,86.3655534
35273,Bhalukkhal,152,272.0,23.0447065,86.3744202
35274,Tilabani,153,272.0,23.4127367,86.5425921
35275,Kalachandpur,154,272.0,23.1901401,86.7730581
35276,Shuknibasa,155,272.0,22.7398181,86.7944127
35277,Barabazar,156,272.0,23.0280303,86.3604859
35278,Barrah,157,272.0,23.3888575,86.81952369999999
35279,Bankati,158,272.0,23.5987763,87.48887099999999
35280,Dhadkidih,159,272.0,23.0117595,86.3642866
35281,Maliramdi,160,272.0,22.2750402,87.6433139
35282,Pirhradi,161,272.0,-1.0,-1.0
35283,Bamnidi,162,272.0,23.0621699,86.5577376
35284,Nawadi,163,272.0,23.2667869,86.6686635
35285,Bhagabandh,164,272.0,23.3035652,86.4465631
35286,Krishnanagar,165,272.0,23.4008744,88.5013962
35287,Amrabera,166,272.0,22.9933763,86.40607460000001
35288,Sonadah,167,272.0,26.9599435,88.26801720000002
35289,Kuturkuma,168,272.0,23.003586,86.3972134
35290,Gobindapur,169,272.0,22.3781175,88.4052416
35291,Punjanga,170,272.0,-1.0,-1.0
35292,Nilmahonpur,171,272.0,-1.0,-1.0
35293,Phagudi,172,272.0,-1.0,-1.0
35294,Murjabani,173,272.0,23.3557914,86.8759761
35295,Herbana,174,272.0,23.0141393,86.403543
35296,Kadampur,175,272.0,26.516366,89.6698658
35297,Hullung,176,272.0,23.085965,86.5577376
35298,Sargo,177,272.0,23.0469129,86.40607460000001
35299,Bhurrudi,178,272.0,-1.0,-1.0
35300,Bhagalbhand,179,272.0,23.0586947,86.4010112
35301,Dumurdi,180,272.0,-1.0,-1.0
35302,Chotomukru,181,272.0,-1.0,-1.0
35303,Hensladi,182,272.0,-1.0,-1.0
35304,Bardah alias Metyala,183,272.0,-1.0,-1.0
35305,Hijla alias Nischintapur,184,272.0,-1.0,-1.0
35306,Latpada,185,272.0,23.0295243,86.42632290000002
35307,Agajhor,186,272.0,23.0418753,86.4465631
35308,Tentlo,187,272.0,23.1026315,86.2437941
35309,Simudari,188,272.0,-1.0,-1.0
35310,Tasorbaki,189,272.0,-1.0,-1.0
35311,Phatepur,190,272.0,24.0811089,87.73080569999999
35312,Ajodhyadi,191,272.0,23.2220229,86.1395598
35313,Singugara,192,272.0,23.0509616,86.52112799999999
35314,Sindri,193,272.0,23.1859649,86.0045031
35315,Haritanr,194,272.0,23.0297525,86.5034447
35316,Khyarbani,195,272.0,25.4237953,88.3178568
35317,Kudlung,196,272.0,23.2778814,86.49460069999999
35318,Biskudra,197,272.0,23.0423265,86.4667951
35319,Keshuberha,198,272.0,-1.0,-1.0
35320,Kutra,199,272.0,23.0178543,86.4364441
35321,Gahimak cha,200,272.0,-1.0,-1.0
35322,Gourdih,201,272.0,23.0043847,86.43264889999999
35323,Gidighati,202,272.0,22.8284671,88.3117819
35324,Dhargram,203,272.0,22.4549909,86.9974385
35325,Shibadi,204,272.0,23.0046113,86.4427687
35326,Mukundapur,205,272.0,22.4923566,88.4086493
35327,Sarberia,206,272.0,22.2675081,88.4446282
35328,Jharnako cha,207,272.0,23.0170164,86.4655308
35329,Babuijore,208,272.0,23.8405745,87.1777556
35330,Taladi,209,272.0,21.6512488,87.4616353
35331,Phuljore,210,272.0,26.6671059,88.4188101
35332,Laka,211,272.0,23.0134762,86.5072345
35333,Bhalukdi,212,272.0,23.3701939,88.44402250000002
35334,Hatnadi,213,272.0,-1.0,-1.0
35335,Sasandi,214,272.0,-1.0,-1.0
35336,Damrabaid,215,272.0,-1.0,-1.0
35337,Jilling,216,272.0,23.1617961,85.9891914
35338,Karkara,1,273.0,23.5795329,86.0555095
35339,Dhumadi,2,273.0,23.5739768,86.0708016
35340,Mantarh,3,273.0,-1.0,-1.0
35341,Nabindih,4,273.0,-1.0,-1.0
35342,Jamra,5,273.0,23.551918,86.0797199
35343,Dambera,6,273.0,23.561707,86.0555095
35344,Rarekacha,7,273.0,23.5672618,86.0402129
35345,Damru,8,273.0,23.5551188,86.03001259999999
35346,Bhadudi,9,273.0,23.8508149,87.2730244
35347,Ekduar,10,273.0,23.1254528,86.4269556
35348,Piri,11,273.0,23.5318673,86.0504111
35349,Asanya,12,273.0,23.5242136,86.0414878
35350,Aroyar Gari,13,273.0,23.5186346,86.04116909999999
35351,Chirkamu,14,273.0,23.3880359,86.2437941
35352,Baramalka,15,273.0,23.5005727,86.046587
35353,Chhotomalka,16,273.0,-1.0,-1.0
35354,Bali,17,273.0,22.645734,88.34786
35355,Salagram,18,273.0,23.3994749,86.1637306
35356,Baglata,19,273.0,23.4968536,86.0758979
35357,Darikuri,20,273.0,23.508696,86.08649
35358,Pundag,21,273.0,23.5075407,86.0873629
35359,Talmu,22,273.0,23.5263106,86.0657047
35360,Ropo,23,273.0,23.5322969,86.0701313
35361,Mayadi,24,273.0,23.5311836,86.0822677
35362,Baijanathdi,25,273.0,22.5890252,88.3715696
35363,Gopinathpur,26,273.0,22.8076683,88.0534236
35364,Chhakudi,27,273.0,23.5293534,86.0981886
35365,Udaypur,28,273.0,23.5452784,86.9098159
35366,Patamjuri,29,273.0,23.5217684,86.1217424
35367,Banshgarh,30,273.0,22.8519977,86.40227709999999
35368,Sidhi,31,273.0,23.545032,86.10137209999999
35369,Narandi,32,273.0,23.5498377,86.1153776
35370,Layadi,33,273.0,23.5614688,86.10519219999999
35371,Kashipur,34,273.0,23.4341206,86.6678714
35372,Kalikapur,35,273.0,22.5009134,88.39493449999999
35373,Bangidiri,36,273.0,23.5460432,86.1421046
35374,Karmatard,37,273.0,-1.0,-1.0
35375,Rangadih,38,273.0,23.5163293,86.1421046
35376,Dahikuri,39,273.0,22.5039974,86.991185
35377,Shushunidih,40,273.0,-1.0,-1.0
35378,Rampur,41,273.0,25.3470758,88.632578
35379,Koshangi,42,273.0,23.5083654,86.1204695
35380,Hatinada,43,273.0,23.5095031,86.10646550000001
35381,Chaukibera,44,273.0,23.5092491,86.0962783
35382,Singghagra,45,273.0,-1.0,-1.0
35383,Kalyanpur,46,273.0,22.5006615,87.91509309999999
35384,Hinjuri,47,273.0,23.1213423,87.3996765
35385,Chhatka,48,273.0,23.4877539,86.1281065
35386,Nimudi,49,273.0,23.4995771,86.1255609
35387,Ghagra,50,273.0,22.3038124,87.2904284
35388,Dimdiha,51,273.0,23.3795429,86.2615689
35389,Jorre,52,273.0,23.4743502,86.12683369999999
35390,Alkusa,53,273.0,23.5319764,86.5577376
35391,Parga,54,273.0,23.7383068,86.4819637
35392,Hatimuri,55,273.0,25.1819171,88.1547547
35393,Shilfore-(056),56,273.0,-1.0,-1.0
35394,Bheria,57,273.0,23.5887916,87.7098723
35395,Hargara,58,273.0,23.445634,86.167546
35396,Howangda,59,273.0,-1.0,-1.0
35397,Dhabani,60,273.0,23.589362,87.3686661
35398,Nutandi,61,273.0,23.3468776,85.962385
35399,Ritudi,62,273.0,23.4285706,86.1382873
35400,Barobenda,63,273.0,-1.0,-1.0
35401,Rahardaga,64,273.0,23.4135856,86.13319709999999
35402,Bhaddi,65,273.0,23.8508149,87.2730244
35403,Joypur,66,273.0,23.0551658,87.44801149999999
35404,Bhelaidih,67,273.0,23.278102,86.1840761
35405,Balibhasa,68,273.0,22.2455351,87.1048702
35406,Durma,69,273.0,23.4337279,86.1823982
35407,Silphor,70,273.0,23.4443654,86.1764475
35408,Bangora,71,273.0,22.0739539,87.25810159999999
35409,Selani,72,273.0,23.4462537,86.1929747
35410,Ratnadih,73,273.0,-1.0,-1.0
35411,Kokiara,74,273.0,23.453424,86.2437941
35412,Baragram,75,273.0,23.2438149,86.6371758
35413,Phuljhoria,76,273.0,22.52678,86.93611949999999
35414,Ramamati,77,273.0,23.33331,86.1929747
35415,Chaitandih,78,273.0,-1.0,-1.0
35416,Kusumtikri,79,273.0,22.8107346,86.9986891
35417,Agharpur,80,273.0,23.4285452,86.19805889999999
35418,Gunja,81,273.0,23.423215,86.22347239999999
35419,Narayanpur,83,273.0,22.6453065,88.46218909999999
35420,Manipur,84,273.0,22.2766043,88.92701819999999
35421,Pipratanr,85,273.0,23.4005254,86.2069551
35422,Kanudih,86,273.0,23.395783,86.0392007
35423,Jhalmamra,87,273.0,-1.0,-1.0
35424,Chapai Tarh,88,273.0,-1.0,-1.0
35425,Ranganitarh,89,273.0,-1.0,-1.0
35426,Tanasi,90,273.0,23.4045217,86.1878899
35427,Palanja,91,273.0,23.3126757,86.3896168
35428,Beltarh,92,273.0,-1.0,-1.0
35429,Dumurdi,93,273.0,-1.0,-1.0
35430,Pratappur,94,273.0,23.4707709,87.30285579999999
35431,Shalagram,95,273.0,23.3994749,86.1637306
35432,Baliagora,96,273.0,23.3903097,86.1535548
35433,Mukundapur,97,273.0,22.4923566,88.4086493
35434,Kamukhap,98,273.0,23.4014082,86.15164659999999
35435,Labindi,99,273.0,23.5605109,86.06697899999999
35436,Amdih,100,273.0,23.3929695,86.14083219999999
35437,Shyampur,101,273.0,22.299502,88.02774869999999
35438,Mirdi,102,273.0,23.4031524,86.1319245
35439,Dhabani,103,273.0,23.589362,87.3686661
35440,Tunta,104,273.0,23.3810186,86.1382873
35441,Chitahi,105,273.0,23.3797513,86.1471939
35442,Kulara,106,273.0,23.2995377,88.23516479999999
35443,Ghagri,107,273.0,23.3815178,86.15864289999999
35444,Srirampur,108,273.0,22.748331,88.3385053
35445,Jahajpur,109,273.0,23.3698775,86.16881769999999
35446,Khayer Tarh,110,273.0,-1.0,-1.0
35447,Uparkahan,111,273.0,23.3817431,86.1940547
35448,Baruadih,112,273.0,23.2422959,85.6614682
35449,Hetkahan,113,273.0,23.3693473,86.2082258
35450,Sabanpur,82,273.0,23.4127207,86.21966119999999
35451,Digardi,1,274.0,23.4679648,85.87676739999999
35452,adhikaridi,2,274.0,23.456638,85.8697329
35453,Madhupur,3,274.0,26.363461,89.3807678
35454,Sanggramdi,4,274.0,-1.0,-1.0
35455,Brajapur,5,274.0,23.4381192,85.8716515
35456,Tanasi,6,274.0,23.4045217,86.1878899
35457,Piprajara,7,274.0,23.4459841,85.88827649999999
35458,muradi,8,274.0,23.5931634,86.80941779999999
35459,Hensahatu,9,274.0,23.4608182,85.88504209999999
35460,Raksabera,10,274.0,23.4785988,85.8857191
35461,Ichahatu,11,274.0,23.2803312,85.748719
35462,Chhotabakad,12,274.0,-1.0,-1.0
35463,Kudagara,13,274.0,23.4749789,85.917677
35464,Baidgrawn,14,274.0,-1.0,-1.0
35465,Jalambilli,15,274.0,23.4588041,85.9240662
35466,Kalma,16,274.0,23.4424956,85.9253439
35467,Patub,17,274.0,23.450943,85.9074526
35468,Barabakad,18,274.0,23.4521945,85.8985046
35469,Baiddih,19,274.0,22.8053475,86.25163169999999
35470,Garia,20,274.0,22.4629461,88.3967536
35471,Bandulahar,21,274.0,23.4269058,85.89722619999999
35472,Ghutia,22,274.0,22.254041,86.8408579
35473,Mahatomara,23,274.0,23.4227236,85.91232819999999
35474,Kiribera,24,274.0,23.4275726,85.92278840000002
35475,Chhotogantha,25,274.0,-1.0,-1.0
35476,Raidi,26,274.0,23.5555278,86.755465
35477,Taldi,27,274.0,22.21114,88.3931154
35478,Guridi,28,274.0,23.4829376,86.05423499999999
35479,Dumordi,29,274.0,-1.0,-1.0
35480,Merendh,30,274.0,23.3995101,85.929177
35481,Joratanrd,31,274.0,-1.0,-1.0
35482,Kansra,32,274.0,23.7292069,87.970232
35483,Postabera,33,274.0,23.3761344,85.9445064
35484,Khatjuri,34,274.0,23.3693987,85.9425905
35485,Bansa,35,274.0,23.3733932,85.9247051
35486,Paparu,36,274.0,23.3905293,85.9266217
35487,Kerwari,37,274.0,-1.0,-1.0
35488,Chamardag,38,274.0,23.3811496,85.90873069999999
35489,Uhupiri,39,274.0,23.3738206,85.912565
35490,Akura,40,274.0,24.1977353,87.7824821
35491,Buribir,41,274.0,23.3689968,85.8985046
35492,Tulin,42,274.0,23.3777108,85.8908337
35493,Bandi alias Jagannathdi,43,274.0,23.3611331,85.8818829
35494,Chowpad,44,274.0,-1.0,-1.0
35495,Magha,45,274.0,21.6763727,87.68634800000001
35496,Chandmosina,46,274.0,-1.0,-1.0
35497,Jamlahar,47,274.0,23.326141,85.9074526
35498,Sarjamhatu,48,274.0,23.3381609,85.912565
35499,Maru,50,274.0,23.3598882,85.9195938
35500,Metyala,51,274.0,23.0976162,87.1447831
35501,Latar,52,274.0,23.3552007,85.9393971
35502,Banriyapilai,53,274.0,23.3488605,85.9240662
35503,Pilai,54,274.0,23.3350914,85.92310789999999
35504,Ichag,55,274.0,23.3363796,85.9298158
35505,Kuki,56,274.0,23.3147843,85.92789929999999
35506,Mesya,57,274.0,23.3204631,85.917677
35507,Birudi,58,274.0,22.8681509,86.8885121
35508,Jargo,59,274.0,23.3095632,85.8985046
35509,Bamandi,60,274.0,22.9009733,86.4977595
35510,Serenghatu,61,274.0,23.2130035,85.6768759
35511,Darpa,62,274.0,23.3329364,85.8831617
35512,Chandai,63,274.0,23.3866994,87.3438429
35513,ILLU,64,274.0,23.2985271,85.87420949999999
35514,Nowadih,65,274.0,22.9988661,86.3858181
35515,Bishria,66,274.0,22.2840001,88.1022869
35516,Paprahurum,67,274.0,23.3007587,85.8460643
35517,Kushi,68,274.0,23.2905263,85.85246219999999
35518,Gosaidi,69,274.0,23.1956911,86.0663419
35519,Betad,70,274.0,23.28411,85.8345459
35520,Chakkeruari,71,274.0,-1.0,-1.0
35521,Nowadih alias Koradih,73,274.0,-1.0,-1.0
35522,Hepad,74,274.0,23.2501704,85.8435049
35523,Bhakaudih,75,274.0,23.0365931,87.59980650000001
35524,Bhusudi,76,274.0,23.2313571,85.86269740000002
35525,Pusti,77,274.0,23.2476696,85.8614181
35526,Kud Long,78,274.0,22.50198,88.3187256
35527,Patradi,79,274.0,23.2668863,85.85758009999999
35528,Dulmii,80,274.0,-1.0,-1.0
35529,Durgu-(081),81,274.0,22.5587223,88.36528349999999
35530,Hensla,82,274.0,23.2602268,85.8869978
35531,Paradih,83,274.0,22.723016,86.5577376
35532,Putidi,84,274.0,23.2779249,85.8818829
35533,Khalari,85,274.0,23.2853212,85.8806041
35534,Kulajanga,86,274.0,23.391256,85.9547235
35535,Udaysiru,87,274.0,23.2827498,85.8959478
35536,Teledi,88,274.0,23.3146058,86.3214931
35537,Karmadi,89,274.0,23.2709951,85.9010613
35538,Serengdi,90,274.0,22.9702196,86.6396956
35539,Ghosra,91,274.0,23.2745638,85.9240662
35540,Bondi,92,274.0,-1.0,-1.0
35541,Chhotofuhara,93,274.0,-1.0,-1.0
35542,Turdag,94,274.0,23.2906117,85.912565
35543,Mathari,95,274.0,23.2952353,85.9189549
35544,Arahara,96,274.0,22.7239929,88.38680719999999
35545,Palma,97,274.0,23.505612,86.57540159999999
35546,Barofuhara,98,274.0,-1.0,-1.0
35547,Keotia,99,274.0,23.2927259,85.9368423
35548,Uhatu,100,274.0,23.2854605,85.9432291
35549,Paramura,101,274.0,23.3039861,85.9413132
35550,Dulla,102,274.0,23.3091046,85.9381197
35551,Ordana,103,274.0,23.6536764,85.8230251
35552,Olgara,104,274.0,23.3127991,85.9662154
35553,Kashidi,105,274.0,23.3501565,86.6736997
35554,Horlung,106,274.0,-1.0,-1.0
35555,Jajahatu,107,274.0,23.2949351,85.9584922
35556,Khamar,108,274.0,23.2898934,85.97067849999999
35557,Luskudi,109,274.0,-1.0,-1.0
35558,Adaldi110,110,274.0,26.713909,88.42889799999999
35559,Pandri,111,274.0,22.8478805,88.37888060000002
35560,Bangasur,112,274.0,23.2990446,86.00960599999999
35561,Pokhoria,113,274.0,25.1314084,88.02897159999999
35562,Bagbindha,114,274.0,23.3465973,86.00960599999999
35563,Gutilawa,115,274.0,-1.0,-1.0
35564,Arjundi,116,274.0,23.3470647,85.9987618
35565,Tanasi,117,274.0,23.4045217,86.1878899
35566,Kistapur alies Nutandih,118,274.0,-1.0,-1.0
35567,Mahakudar,119,274.0,23.3446244,85.9904676
35568,Gopalpur,120,274.0,23.4976267,87.3959564
35569,Tarhad,121,274.0,23.3221721,85.98408649999999
35570,Chatumghutu,122,274.0,23.3398733,85.9789811
35571,Kanr Bandhi,123,274.0,23.3404366,85.97196029999999
35572,Ona,124,274.0,23.3335371,85.9636618
35573,Saramba,125,274.0,23.3318215,85.9547235
35574,Kutidi,126,274.0,25.0025739,88.14428649999999
35575,Nutandi,127,274.0,23.3468776,85.962385
35576,Gokulnagar,128,274.0,22.3030031,87.7246498
35577,Mosina,129,274.0,23.362633,85.9533433
35578,Badgram,130,274.0,23.3674829,85.9547235
35579,Jhalda,131,274.0,23.3283436,86.23363429999999
35580,Patjhalda,132,274.0,23.3779107,85.98472470000002
35581,Dumuria,133,274.0,23.1877835,86.9930612
35582,Baragram,135,274.0,23.2438149,86.6371758
35583,Darda,136,274.0,23.0492258,86.24887319999999
35584,Kudahatu,137,274.0,23.3624011,86.0029084
35585,Tarkana,138,274.0,23.3658174,86.0057789
35586,Mahadebpur,148,274.0,25.6324091,88.3117819
35587,Kulajanga,149,274.0,23.391256,85.9547235
35588,Durgi,150,274.0,23.3985202,85.9483381
35589,Baraganta,154,274.0,23.42216,85.9432291
35590,Kashidi,163,274.0,23.3501565,86.6736997
35591,Gosaidih,261,274.0,23.1382201,86.43264889999999
35592,Patmadi,262,274.0,23.3333851,86.015984
35593,Bengo,49,275.0,22.582009,88.361631
35594,Torang,72,275.0,23.267073,85.8364658
35595,Chatrani,134,275.0,23.3804165,85.9955719
35596,Ulahatu,139,275.0,-1.0,-1.0
35597,Belyadih,140,275.0,23.3817415,86.0022939
35598,Durgu,141,275.0,23.3868144,86.0134329
35599,Chekya,142,275.0,23.3879434,85.9993997
35600,Gutnia,143,275.0,-1.0,-1.0
35601,Lupungdi,144,275.0,23.3894505,85.9856819
35602,Chitahi,145,275.0,23.3797513,86.1471939
35603,Mirdih,146,275.0,23.4035351,86.13835230000001
35604,Narayanpur,147,275.0,22.6453065,88.46218909999999
35605,Rahan,151,275.0,23.411859,85.9470609
35606,Tamakbera,152,275.0,23.4155568,85.9464223
35607,HesalBera,153,275.0,-1.0,-1.0
35608,Beko,155,275.0,23.4804402,86.6485137
35609,Kariyar,156,275.0,22.595104,88.416136
35610,Tahaddiri,157,275.0,23.4344414,85.9585544
35611,Rigid,158,275.0,23.4167443,85.9636618
35612,Dimu,159,275.0,23.4081577,85.9764282
35613,Mohanpur,160,275.0,21.8398171,87.4232306
35614,Karumama,161,275.0,23.4188523,85.98791519999999
35615,Rampore(162),162,275.0,22.5561624,88.350552
35616,Chutukpiri,164,275.0,23.3955351,86.0057789
35617,Oldi,165,275.0,23.406163,86.01470839999999
35618,Rajadera,166,275.0,23.4103934,86.0057789
35619,Jilinglahar,167,275.0,23.423097,86.0111797
35620,Buruhara alis Majhidi,168,275.0,23.423603,85.9993997
35621,Panra,169,275.0,23.0907105,86.1191966
35622,Ormad,170,275.0,-1.0,-1.0
35623,Lakshipur,171,275.0,23.4763304,86.3586026
35624,Haratan,172,275.0,23.452664,85.9738752
35625,Barudi,173,275.0,23.4262978,86.10646550000001
35626,Kanthali,174,275.0,23.4426896,85.9904676
35627,Simni,175,275.0,23.4533179,85.9993997
35628,Jabar,176,275.0,23.4562216,86.0108822
35629,Taherbera,177,275.0,23.4599102,86.02491169999999
35630,Bararola,178,275.0,23.4423396,86.035113
35631,Marlong,179,275.0,23.4477651,86.01470839999999
35632,Chirugora,180,275.0,23.2482754,86.70768029999999
35633,Khairi,181,275.0,23.4239928,86.01470839999999
35634,Bagda,182,275.0,23.21468,88.8862809
35635,Patrahatu,183,275.0,23.410847,86.0236364
35636,Ukma,184,275.0,23.4246389,86.0402129
35637,Nutanrola,185,275.0,-1.0,-1.0
35638,Urusaram,186,275.0,23.4352005,86.046587
35639,Belamu,187,275.0,23.4544835,86.04531229999999
35640,Hakasara,188,275.0,22.9798537,86.1459216
35641,Dugijara,189,275.0,23.4377661,86.0599702
35642,Pagro,190,275.0,25.1039954,87.53154909999999
35643,Khantanga,191,275.0,22.3338643,87.3984365
35644,Sulunglahar,192,275.0,23.4684649,86.0695274
35645,Korche,193,275.0,-1.0,-1.0
35646,Maramu,194,275.0,23.4774792,86.01470839999999
35647,Banshgarh,195,275.0,22.8519977,86.40227709999999
35648,Guridih,196,275.0,23.3510187,85.6177891
35649,Chitmu,197,275.0,23.4820603,86.07844589999999
35650,Sarjumhatu,198,275.0,23.4658763,86.0848153
35651,Damrughutu,199,275.0,23.4556347,86.091184
35652,Barametyala,200,275.0,21.9124199,87.92612629999999
35653,ChhotaMetyala,201,275.0,23.4813057,86.1077387
35654,Chamchaka,202,275.0,23.474098,86.1166506
35655,Damra,203,275.0,24.1114037,87.670442
35656,Amra,204,275.0,23.4639179,86.1255609
35657,Tutuara,205,275.0,-1.0,-1.0
35658,Dulmi,206,275.0,23.277523,85.866535
35659,Baruadi,207,275.0,23.4485671,85.98791519999999
35660,Timangda,208,275.0,23.4318612,86.091184
35661,Chorgali,209,275.0,23.282136,86.5526896
35662,Hurshi,210,275.0,24.2700463,88.4718747
35663,Chayadi,211,275.0,23.4195924,86.0758979
35664,Shyampur,212,275.0,22.299502,88.02774869999999
35665,Ghatketia,213,275.0,23.4147835,86.0618818
35666,Nowahatu-(214),214,275.0,-1.0,-1.0
35667,Garri,215,275.0,23.414463,86.0491365
35668,Bingdaru,216,275.0,23.4150292,86.0421252
35669,Chirahatu,217,275.0,-1.0,-1.0
35670,Adaradi,218,275.0,-1.0,-1.0
35671,Sambalpur,219,275.0,25.1967296,88.038754
35672,Kurali,220,275.0,22.3408562,88.556518
35673,Chhotohonkole,221,275.0,-1.0,-1.0
35674,Barohonkole,222,275.0,-1.0,-1.0
35675,Bamnia,223,275.0,23.3901095,86.026187
35676,Nalkupi,224,275.0,25.7419193,87.9482893
35677,Shalgram,225,275.0,23.3806285,86.0332004
35678,Arkali,226,275.0,23.3873956,86.036388
35679,Kanudih,227,275.0,23.395783,86.0392007
35680,Matkuma,228,275.0,23.3877169,86.0491365
35681,Chitarpur aliseKokarkhap,229,275.0,-1.0,-1.0
35682,Gowaladih Alies Tiruldih,230,275.0,-1.0,-1.0
35683,Murulahar,231,275.0,23.4060598,86.0695274
35684,Jewdaru,232,275.0,-1.0,-1.0
35685,Kotshila,233,275.0,23.403088,86.0695274
35686,Kachahatu,234,275.0,23.4022698,86.0962783
35687,UparBatri,235,275.0,23.4070024,86.1089117
35688,Hetbatri,236,275.0,22.2069575,86.71774409999999
35689,Parhroma,237,275.0,22.596175,88.36421299999999
35690,Banahata,238,275.0,23.3889277,86.09755179999999
35691,Hanslota,239,275.0,-1.0,-1.0
35692,Chaitandi,240,275.0,23.3913281,86.07462389999999
35693,Tigra,241,275.0,23.3778588,86.0708016
35694,Rampur (242),242,275.0,22.5183807,88.2826103
35695,Harbaha,243,275.0,23.3662254,86.0809938
35696,Katiya,244,275.0,24.4682917,87.9089623
35697,Bartalia,245,275.0,23.358509,86.0695274
35698,Raghunathpur,246,275.0,23.5343795,86.6686635
35699,Begunkodar,247,275.0,23.3597717,86.06060740000001
35700,Basudevpur,248,275.0,22.0877472,88.1364591
35701,Mutukura,249,275.0,23.3788013,86.0491365
35702,Mahuda,250,275.0,23.547906,86.538805
35703,Hirapur,251,275.0,23.661005,86.9367456
35704,Hudurgora,252,275.0,-1.0,-1.0
35705,Poradi,253,275.0,23.1242387,86.6787354
35706,Kuriam,254,275.0,23.9857464,87.0947847
35707,Nishchintapur,255,275.0,22.460581,88.1730427
35708,Lalpur,256,275.0,22.1332081,88.4228186
35709,Pandrua,257,275.0,23.0812382,88.2801785
35710,Jajlong,258,275.0,27.0404901,88.8737841
35711,Lagam,259,275.0,23.3587437,86.0198103
35712,Eakurhatu,260,275.0,-1.0,-1.0
35713,Nowagarh,263,275.0,23.7725526,86.2323641
35714,Jaharhatu,264,275.0,23.3383909,86.037663
35715,Supurdi,265,275.0,23.3373215,86.05423499999999
35716,Chatumbari,266,275.0,-1.0,-1.0
35717,Sasadi,267,275.0,-1.0,-1.0
35718,Brindabanpur,268,275.0,22.108309,87.8672509
35719,Murguma,269,275.0,23.3196164,86.059333
35720,LakshiNarayanPur,270,275.0,24.0873976,88.17517579999999
35721,Baradi,271,275.0,22.8869259,86.93611949999999
35722,Gobindapur,272,275.0,22.3781175,88.4052416
35723,Gajaraidi,273,275.0,-1.0,-1.0
35724,Mamudi,274,275.0,23.2908364,86.037663
35725,Seleta,81,276.0,23.5530808,86.6396956
35726,churmi,88,276.0,23.5513502,86.6283557
35727,Keshad,89,276.0,23.5434455,86.6236299
35728,soardi,90,276.0,-1.0,-1.0
35729,Dhaturia,91,276.0,22.957853,88.7854646
35730,Napara,92,276.0,23.220941,86.6453646
35731,Babugram,93,276.0,23.5362308,86.6029015
35732,Satudi,96,276.0,23.5162639,86.5867537
35733,Barmasia (097),97,276.0,25.5468558,87.5565
35734,Ammahuli,98,276.0,23.5105387,86.5968422
35735,Rangametya,100,276.0,23.4209136,86.8609285
35736,Dumuriakuri,101,276.0,23.4620457,87.1054941
35737,Shyamsundarpur (102),102,276.0,22.4595641,87.08490119999999
35738,Juludi,103,276.0,23.485189,86.5930592
35739,Bagatbari,104,276.0,23.4775649,86.58423119999999
35740,Namdi,105,276.0,23.4809217,86.6018857
35741,Jorabel,106,276.0,23.4840584,86.60945
35742,Barmasiya  (107),107,276.0,25.5492472,87.5531823
35743,Telihirh,108,276.0,-1.0,-1.0
35744,Gopinathpur,109,276.0,22.8076683,88.0534236
35745,Baghadabar (110),110,276.0,-1.0,-1.0
35746,Manikpur,111,276.0,22.4692758,88.0253027
35747,Metyala,112,276.0,23.0976162,87.1447831
35748,Bhagipur,113,276.0,25.1430575,88.12791849999999
35749,Nunupur,114,276.0,23.5233555,86.6396956
35750,Gobindapur,115,276.0,22.3781175,88.4052416
35751,Sanka,116,276.0,22.7554794,88.2406419
35752,Ekunja,117,276.0,25.2782306,88.9042582
35753,Nandaha,118,276.0,22.664173,88.391888
35754,Joradi,121,276.0,23.5715091,86.6674044
35755,Hurrah,130,276.0,23.4950495,86.43517899999999
35756,Amtora,137,276.0,23.9309782,88.4476565
35757,Nunudi,138,276.0,22.5698561,88.34454219999999
35758,Salanchi,141,276.0,23.6049005,86.7001311
35759,Dhatara,142,276.0,23.6067848,86.71900199999999
35760,Gopalchak,143,276.0,21.7786552,87.8340995
35761,Namabathan,144,276.0,23.5996442,86.73283599999999
35762,Lachhmanpur,145,276.0,23.4317798,87.0374413
35763,Jharukhamar,146,276.0,23.5927675,86.7186475
35764,Gogra,147,276.0,23.0170536,87.5803639
35765,Simlon,148,276.0,23.2625895,88.2582857
35766,Siulibari,149,276.0,23.8532796,86.8546573
35767,Digardhi,150,276.0,23.115827,86.11283139999999
35768,Sikratanr,151,276.0,23.5756007,86.7202598
35769,Kelahi,152,276.0,23.4792145,86.803203
35770,Layekdi,153,276.0,23.3349135,86.5867537
35771,Daikiari,154,276.0,23.5943641,86.6938392
35772,Durmut,155,276.0,21.8091431,87.7738735
35773,Jamtoria,156,276.0,22.9040315,86.6388004
35774,Lakhidiha alias Nutandi,157,276.0,-1.0,-1.0
35775,Kungradi,258,276.0,-1.0,-1.0
35776,Penamahul,159,276.0,23.5638567,86.6919515
35777,Bundla,160,276.0,23.5584813,86.6837705
35778,Bhurkundadi,161,276.0,22.5236256,88.8814857
35779,Upar Sankra,162,276.0,23.5484237,86.7001311
35780,Tal Sankra,163,276.0,23.5589075,86.70390590000001
35781,Khajura,164,276.0,23.5412837,86.7139704
35782,Dhighitala,165,276.0,-1.0,-1.0
35783,Chinpina,166,276.0,23.5335074,86.69761439999999
35784,Barabari,167,276.0,22.0988761,88.0680883
35785,Raghunathpur,168,276.0,23.5343795,86.6686635
35786,Baidyanathpur,169,276.0,23.7186496,87.27924089999999
35787,Hanumanganj,170,276.0,23.248296,77.42004299999999
35788,Nanduara,171,276.0,23.5224889,86.6686635
35789,Jiara,172,276.0,22.7235609,88.1760474
35790,Manipur Alias Motihir,173,276.0,-1.0,-1.0
35791,Haroka,174,276.0,23.4459205,86.9605313
35792,Dubrhadi,175,276.0,-1.0,-1.0
35793,Bankra,176,276.0,22.6019215,88.2715537
35794,Arrah,177,276.0,23.5030412,86.69668539999999
35795,Jayramdi,178,276.0,23.5012305,86.71774409999999
35796,Unansila,179,276.0,23.519228,86.7193085
35797,Narhatorh,180,276.0,-1.0,-1.0
35798,Bamnabui,181,276.0,-1.0,-1.0
35799,Dulalpur,182,276.0,21.7597051,87.6731172
35800,Kashitorha,183,276.0,25.3267475,88.01429399999999
35801,Madhutati,184,276.0,23.5336426,86.72879189999999
35802,Senara,185,276.0,23.5638211,86.7270515
35803,Kunjabehari,186,276.0,23.5718513,86.7542081
35804,Lachhia,187,276.0,23.5822292,86.7529512
35805,Ramkanali,188,276.0,23.5780052,86.76426239999999
35806,Nutandi (189),189,276.0,23.3449705,85.96616929999999
35807,Shamsundarpur(190),190,276.0,22.1977054,87.7003514
35808,Raidi,191,276.0,23.5555278,86.755465
35809,Banbahira,192,276.0,23.5575089,86.74352320000001
35810,Jamduara,193,276.0,23.5493209,86.7428946
35811,Pashchim Bero,194,276.0,23.5451494,86.7567219
35812,Purbba Bero,195,276.0,23.5306494,86.7743145
35813,Banshgram,196,276.0,24.2053088,88.00940039999999
35814,Simulkundi,197,276.0,23.5141689,86.7680322
35815,Puyanbaid,198,276.0,-1.0,-1.0
35816,Sija,199,276.0,23.7536337,87.50372
35817,Badurdi,200,276.0,23.5057723,86.7573503
35818,Alaldi,201,276.0,23.7037897,86.8834981
35819,Dhania,202,276.0,22.9080978,88.5347783
35820,Biltorha,203,276.0,23.4083861,86.41493419999999
35821,Nischintapur,204,276.0,21.9902315,88.2152393
35822,Lakrhajurhia,205,276.0,21.8590929,87.9506348
35823,Chorpahari,206,276.0,23.5104649,86.73283599999999
35824,Dabar,207,276.0,23.2916317,86.3794862
35825,Shimulberhia,208,276.0,23.5005045,86.7542081
35826,Gopalpur,209,276.0,23.4976267,87.3959564
35827,Kadamarrah,210,276.0,23.499981,86.7290634
35828,Gangurdi,211,276.0,-1.0,-1.0
35829,Arjunshol,212,276.0,23.4845436,86.7372369
35830,Sarberhia,213,276.0,22.2675081,88.4446282
35831,Metyal Sahar,214,276.0,23.4768244,86.7592355
35833,Kumardi,1,277.0,23.087267,86.6182736
35834,Pransingdi,2,277.0,-1.0,-1.0
35835,Nabagram (003),3,277.0,22.464567,88.4100911
35837,Poradiha,4,277.0,23.6117948,86.89101889999999
35838,Erendi,5,277.0,23.6069896,86.4566801
35840,Rangatanr,6,277.0,23.0511416,86.59810310000002
35841,Belkunra,7,277.0,23.2324146,87.0786044
35842,Chakbad,8,277.0,23.5967891,86.4655308
35843,Bagra,9,277.0,23.21468,88.8862809
35844,Gosaidi alies Tubkadih,10,277.0,-1.0,-1.0
35846,Santaldihi,11,277.0,23.5984753,86.47438
35847,Ichhar,12,277.0,23.6229327,86.504708
35848,Murabag,13,277.0,23.6261872,86.5173392
35850,Kargali,14,277.0,23.6266374,86.5375425
35851,Usir,15,277.0,23.611497,86.52491640000001
35852,Chak Kanakuri,16,277.0,-1.0,-1.0
35853,Alladih,17,277.0,23.6080169,86.5021814
35854,Simulhir,18,277.0,23.5899585,86.49207360000001
35855,Lakhiara alias Joradih,19,277.0,23.5904116,86.5122871
35856,Bhabanipur,20,277.0,22.4224226,88.4422055
35857,Uka,21,277.0,23.5784106,86.5072345
35858,Ratanpur,22,277.0,22.7985332,88.44402250000002
35860,Dandua,23,277.0,23.5790858,86.5375425
35861,Chatarmahul,24,277.0,23.5969181,86.5375425
35862,Hadla,25,277.0,23.7933398,86.82956449999999
35863,Cheliyama,26,277.0,23.6150855,86.5526896
35864,Setpalash,27,277.0,-1.0,-1.0
35865,Baghadabar (028),28,277.0,-1.0,-1.0
35866,Shaltorha,29,277.0,23.524204,86.9342411
35867,Chakmangla,30,277.0,23.6506582,86.5823393
35868,Jamudih,31,277.0,-1.0,-1.0
35869,Salgora,32,277.0,23.6336944,86.5880148
35870,Tulsibari,33,277.0,23.6333622,86.5728785
35871,Chitarma,34,277.0,23.6232097,86.58423119999999
35872,Bamarrah,35,277.0,23.6162673,86.5727414
35873,Motira,36,277.0,22.6336367,88.37067599999999
35874,Banda,37,277.0,23.6019622,86.5640469
35875,Sagarka,38,277.0,23.5927118,86.54890329999999
35876,Mandapdanga,39,277.0,23.5915322,86.5627851
35877,Trishuldanga,40,277.0,23.5939417,86.5709862
35878,Moutor,41,277.0,22.5407975,88.3581751
35879,Raybandh,42,277.0,23.3012474,86.3452805
35880,Barasatya,43,277.0,22.7228159,88.480552
35881,Barakanali,44,277.0,22.5053178,86.7887609
35882,Dhanera,45,277.0,23.4029262,86.6384357
35883,Chakkanahirh,46,277.0,-1.0,-1.0
35884,Ruknibera,47,277.0,23.5571019,86.5514275
35885,Khairichak,48,277.0,23.5489978,86.5545827
35886,Khatra,49,277.0,22.9731219,86.8546573
35887,Paranpur,50,277.0,25.1576548,87.997164
35888,Toldi,51,277.0,23.5577122,86.5791859
35889,Nadiha,52,277.0,23.4944129,86.4073403
35890,Barda,53,277.0,22.6264447,87.9690074
35891,Lalpur (054),54,277.0,23.0793582,88.5384045
35892,Changuri,55,277.0,23.5638224,86.5867537
35893,Boldi,56,277.0,23.8459799,86.71774409999999
35894,Narendrapur,57,277.0,-1.0,-1.0
35895,Narira,58,277.0,23.5729594,86.5968422
35896,Nutandi (059),59,277.0,23.3449705,85.96616929999999
35897,Gobranda,60,277.0,23.4687592,86.4530015
35898,dignagar,61,277.0,23.3278549,88.4512026
35899,Bagmanmi,62,277.0,23.5924161,86.6031465
35900,Nanduka,63,277.0,23.604524,86.6132317
35901,Batmanmi,64,277.0,23.6100288,86.5930592
35902,Barrah,65,277.0,23.3888575,86.81952369999999
35903,Tarapur,66,277.0,23.5550522,87.1098612
35904,Maladhar,67,277.0,23.6355933,86.6069287
35905,Gurudih,68,277.0,23.6449686,86.59929559999999
35906,Telkupi,69,277.0,23.6638537,86.6081894
35907,Balabana,70,277.0,23.6542364,86.61008029999999
35908,Lalpore (071),71,277.0,-1.0,-1.0
35909,Jaypur,72,277.0,23.0551658,87.44801149999999
35910,Baragoria,73,277.0,25.0229041,88.03512769999999
35911,Asura,74,277.0,21.790487,87.364323
35912,Pabra,75,277.0,23.535714,87.0299433
35913,Simra,76,277.0,23.6033383,86.6270955
35914,Rangamati,77,277.0,23.33331,86.1929747
35915,Charanbandh,78,277.0,23.5892612,86.6289857
35916,Muldih,79,277.0,25.1785773,88.24611829999999
35917,Mangalda,80,277.0,23.5692933,86.63339599999999
35918,Hingudi,82,277.0,23.5581061,86.6315059
35919,Dumurkola,83,277.0,23.5630219,86.6182736
35920,Karandih,84,277.0,23.3237515,86.18146370000001
35921,Kalagora,85,277.0,-1.0,-1.0
35922,Tentulia,86,277.0,22.7856288,88.8575011
35923,Manuadi,87,277.0,23.5495643,86.6144922
35924,Sundrabadh,94,277.0,21.9497274,89.1833304
35925,G.P alias Kashiberia,95,277.0,23.5266952,86.5880148
35926,Raghabpur,99,277.0,23.5225933,86.60440729999999
35927,Kulsora,119,277.0,23.6584443,86.4003783
35928,Kalipur,120,277.0,26.7338777,88.8401037
35929,pathartikuri,122,277.0,23.5697266,86.65355199999999
35930,Muchkunda,123,277.0,23.5771305,86.6522924
35931,Nildih,124,277.0,23.5912541,86.6602678
35932,Dhanuktor,125,277.0,23.5874526,86.6485137
35933,Singpur,126,277.0,22.814957,88.234481
35934,Pratappur,127,277.0,23.4707709,87.30285579999999
35935,Nabgram(128),128,277.0,22.8433936,88.380226
35936,Manipur,129,277.0,22.2766043,88.92701819999999
35937,Keoyabathan,131,277.0,-1.0,-1.0
35938,Dumdumi,132,277.0,23.6130137,86.6623676
35939,Khudirmahal,133,277.0,22.5692148,88.4488677
35940,Ghotitora,134,277.0,-1.0,-1.0
35941,Lachiara,135,277.0,-1.0,-1.0
35942,Kharikabad,136,277.0,23.8170376,87.2537483
35943,Chandra,139,277.0,22.4621842,87.1485232
35944,Khalsa,140,277.0,23.6053902,86.6881758
35945,Parbahal,1,278.0,23.5826386,86.43138379999999
35946,Dayaramdih,2,278.0,-1.0,-1.0
35947,Amchatar,3,278.0,23.5663222,86.43264889999999
35948,Tadgram,4,278.0,23.5704033,86.4161998
35949,Donrda,5,278.0,23.5700539,86.4010112
35950,Bahara,6,278.0,24.4087746,88.1266983
35951,Phatepur,7,278.0,24.0811089,87.73080569999999
35952,Parasiri,8,278.0,23.5403349,86.4010112
35953,Kharikabad,9,278.0,23.8170376,87.2537483
35954,Dalahitanr,10,278.0,23.5413237,86.3794862
35955,Tetalda,11,278.0,23.5279792,86.3807527
35956,Madhabpur,12,278.0,21.8742725,87.5846868
35957,Manipur,13,278.0,22.2766043,88.92701819999999
35958,Kantabani,14,278.0,23.3589526,87.16036489999999
35959,Charpatya,15,278.0,23.5044368,86.390883
35960,Nadiha,16,278.0,23.4944129,86.4073403
35961,Panara,17,278.0,23.4940051,86.3896168
35962,Chaukunya,18,278.0,23.4966259,86.3744202
35963,Churmi,19,278.0,23.5513502,86.6283557
35964,Chitadi,20,278.0,23.48503,86.3870843
35965,Rautara,21,278.0,22.8264226,86.6636269
35966,Fatepur,22,278.0,22.2846143,88.232467
35967,Ganahar,23,278.0,23.4687702,86.390883
35968,Bagalmari,24,278.0,23.4684193,86.3756867
35969,Chalania,25,278.0,23.451925,86.3693536
35970,Hatimara,26,278.0,23.4566472,86.3807527
35971,Rangamatya (027),27,278.0,22.1776885,87.0874956
35972,Garyabhita,28,278.0,23.4555985,86.39974529999999
35973,Kaluhar,29,278.0,23.4454563,86.4111374
35974,Ramkrisna  Natundi,30,278.0,-1.0,-1.0
35975,Sarulya,31,278.0,23.4663212,86.4136687
35976,Shyampur,32,278.0,22.299502,88.02774869999999
35977,Panruka,33,278.0,23.4757581,86.4364441
35978,Paranpur,34,278.0,25.1576548,87.997164
35979,Thakurdi,35,278.0,23.4805327,86.4503572
35980,Rameshwardi,36,278.0,23.4863052,86.4427687
35981,Sukhamaychak,37,278.0,22.5074344,88.3872835
35982,Dhadkidi,38,278.0,23.4952796,86.44529829999999
35983,Gopalpur,39,278.0,23.4976267,87.3959564
35984,Jaynagar alias Udaypur,40,278.0,23.5115408,86.44150379999999
35985,Telidi,41,278.0,23.2772047,85.911287
35986,Hurra,42,278.0,23.4950495,86.43517899999999
35987,Bhalagara,43,278.0,23.4678989,86.6182736
35988,Chalka,44,278.0,23.1573184,86.7680322
35989,Chaktorh,45,278.0,23.4993059,86.42632290000002
35990,Bhatdi,46,278.0,23.5035037,86.41493419999999
35991,Kalla,47,278.0,23.7034445,86.9953578
35992,Pathakdi,48,278.0,23.5221521,86.418098
35993,Chitra,49,278.0,23.5290276,86.42632290000002
35994,Bhandarkuli,50,278.0,23.546628,86.4161998
35995,Reshyagara,51,278.0,23.5543187,86.4275882
35996,Patpur,52,278.0,23.2314562,87.06117720000002
35997,Malanchadi,53,278.0,23.5339184,86.44529829999999
35998,Pirma,54,278.0,23.5310612,86.4503572
35999,Haraktor,55,278.0,23.5237742,86.4566801
36000,Tentuthiti,56,278.0,22.7856288,88.8575011
36001,Pabra,57,278.0,23.535714,87.0299433
36003,Gahira,58,278.0,23.5432363,86.46300219999999
36004,Sindurpur,59,278.0,23.4329319,86.5148133
36005,ChhotoUdaypur,60,278.0,24.1301492,87.80468169999999
36006,Asurabandh,61,278.0,-1.0,-1.0
36007,Shyampur,62,278.0,22.299502,88.02774869999999
36008,Deuli,63,278.0,22.204139,87.7923186
36009,Parashyaa,64,278.0,23.6511104,87.1597417
36011,Kanki,65,278.0,26.0063662,87.8562032
36012,Anantapur,66,278.0,24.1233506,88.10717029999999
36013,Dumardiha,67,278.0,23.5601248,86.4870189
36014,Bhalpahari,68,278.0,22.6320726,86.76426239999999
36015,Koldi,69,278.0,23.2440986,86.4465631
36016,Putulia,70,278.0,23.5379756,86.4933372
36017,Kinisayar,71,278.0,23.5319745,86.49081
36018,Dubeagar,72,278.0,23.5313873,86.4977595
36019,Kankdiha,73,278.0,23.5322576,86.5034447
36020,Agar,74,278.0,22.6065992,87.4145542
36021,Sidpur,75,278.0,22.8426204,87.9316419
36022,Gurguria,76,278.0,23.377028,86.4086061
36023,Bamanbad,77,278.0,23.5373631,86.53249249999999
36024,Kaliasota,78,278.0,23.5371387,86.5223908
36025,Dubra,79,278.0,23.542858,86.5122871
36026,Raherdi,80,278.0,-1.0,-1.0
36027,Balichasa,81,278.0,23.5664093,86.5021814
36028,Ketlapur,82,278.0,23.5668606,86.5223908
36029,Gobindapur,83,278.0,22.3781175,88.4052416
36030,Mahuda,84,278.0,23.547906,86.538805
36031,Kashiberia,85,278.0,23.5421848,86.54890329999999
36032,Dhulabad,86,278.0,23.5439769,86.5627851
36033,Alkusa,87,278.0,23.5319764,86.5577376
36034,Bhagaband,88,278.0,23.5203086,86.5678321
36035,Chowtala,89,278.0,23.5215452,86.55647570000001
36036,Dheria,90,278.0,23.5316422,86.5425921
36037,Sanar,91,278.0,23.5138078,86.5425921
36038,Mapuidi,92,278.0,23.5179028,86.5261792
36039,Goaladi,93,278.0,23.5147619,86.51860219999999
36040,Piyalsol,94,278.0,-1.0,-1.0
36041,Intakora,95,278.0,23.50663,86.5204965
36042,Para,96,278.0,23.5094899,86.5154448
36043,Chungari,97,278.0,23.4979648,86.515129
36044,Hariharpur,98,278.0,22.523396,87.619872
36045,Birkicha,99,278.0,23.7602704,87.743115
36046,Kelahi,100,278.0,23.4792145,86.803203
36047,Beradih,101,278.0,23.1873825,86.7495177
36048,Sarberia,102,278.0,22.2675081,88.4446282
36049,Ekunja,103,278.0,25.2782306,88.9042582
36050,Kenkchia,104,278.0,23.5197444,86.475644
36051,Turradi,105,278.0,23.5134573,86.46047349999999
36052,Bamandiha,106,278.0,23.1173651,86.3655534
36053,Taltor,107,278.0,23.7052175,87.68954529999999
36054,Bhanuridi,108,278.0,23.4987102,86.4655308
36055,Barabandya,109,278.0,23.5212647,87.3412147
36056,Sidhabari,110,278.0,23.8189304,86.8458763
36057,Rangamatya,111,278.0,23.2428893,86.6636269
36058,Rigudi,112,278.0,23.4764458,86.4667951
36059,Chhatairga,113,278.0,-1.0,-1.0
36060,Barairga,114,278.0,23.4708423,86.4819637
36061,Durrimahul,115,278.0,-1.0,-1.0
36062,Chaturbhujpur,116,278.0,23.4541236,86.4655308
36063,Lipania,117,278.0,23.7204798,86.4819637
36064,Palashkora,118,278.0,23.7927405,88.4512901
36065,Jabarra,119,278.0,23.4771272,86.4971277
36066,Jhapra,120,278.0,23.5155347,88.54928129999999
36067,Tentulabad,121,278.0,-1.0,-1.0
36068,Bagalia,122,278.0,23.4421304,86.5274419
36069,Phusrabaid,123,278.0,23.4573846,86.5451167
36070,Loyara,124,278.0,-1.0,-1.0
36071,Sankra,125,278.0,23.1217929,86.9261008
36072,Baiswakuli,126,278.0,-1.0,-1.0
36073,Maldi,127,278.0,23.1452187,86.2844131
36074,Anara,128,278.0,23.4882015,86.5608924
36075,Ranipur,129,278.0,23.4782489,86.54764109999999
36076,Chapuri,130,278.0,23.927876,87.43438359999999
36077,Palma,131,278.0,23.505612,86.57540159999999
36078,Amlatorha,132,278.0,-1.0,-1.0
36079,Rampur,133,278.0,25.3470758,88.632578
36080,Jorberia,134,278.0,22.3679907,88.7854646
36081,Dhagora,135,278.0,23.4504242,86.56657039999999
36082,Kusgora - Gopinathpur,136,278.0,23.4430197,86.5678321
36083,Sonaijuri,1,279.0,23.4513743,86.5760323
36084,Dhanjore,2,279.0,23.4628111,86.589276
36085,Kalyandi,3,279.0,22.9750855,88.43450779999999
36086,Kalajhore,4,279.0,26.9318908,88.4506845
36087,Jihurbona,5,279.0,-1.0,-1.0
36088,Parasol,6,279.0,22.8979975,87.21579469999999
36089,Chuna,7,279.0,23.4200051,86.6031465
36090,Banshraya,8,279.0,23.4264949,86.6283557
36091,Dalanbani,9,279.0,23.4442245,86.6233149
36092,Rudra,10,279.0,22.9023154,86.73660819999999
36093,Sitarampur,11,279.0,23.7233343,86.89477889999999
36094,Bhabanipur,12,279.0,22.4224226,88.4422055
36095,Bara Ahartor,13,279.0,-1.0,-1.0
36096,Daldali,14,279.0,23.2919369,86.62772559999999
36097,Bhalagora,15,279.0,23.1413873,86.3756867
36098,Maysaradi,17,279.0,23.4812493,86.6170131
36100,Gosaidi alias Birsinghobari,19,279.0,-1.0,-1.0
36101,Beko,20,279.0,23.4804402,86.6485137
36102,Jibanpur,21,279.0,23.3654013,86.7630057
36103,Kantaranguni,22,279.0,23.5188495,86.6772243
36104,Palaskola,23,279.0,23.4825438,86.6774765
36105,Ranganidi,24,279.0,23.4808701,86.6686635
36106,Rogori,25,279.0,-1.0,-1.0
36107,Kharai,26,279.0,23.4704917,86.6699226
36108,Susunidi,27,279.0,23.4732502,86.659849
36109,Chhoto Ahartor,28,279.0,-1.0,-1.0
36110,Kalyathol,29,279.0,23.4569795,86.6636269
36111,Gopalchak(30),30,279.0,23.3078065,86.7588076
36112,Rangiladi,31,279.0,23.4449982,86.6624279
36113,Gopalpur(32),32,279.0,22.6510437,88.4674052
36114,Ranbani,33,279.0,22.5674116,88.3268732
36115,Lapara,34,279.0,22.6731258,87.4789689
36116,Kashipur,35,279.0,23.4341206,86.6678714
36117,Sarjujoria,36,279.0,23.4360802,86.67390069999999
36118,Kalloli,37,279.0,23.4336224,86.6837705
36119,Gosaidih,38,279.0,23.1382201,86.43264889999999
36120,Suarua,39,279.0,23.3830395,87.17656459999999
36121,Narayangar,40,279.0,22.3171793,88.5818951
36122,Bara Daikiari,41,279.0,23.4484343,86.6867939
36123,Karttikganj,42,279.0,23.4454082,86.6787354
36124,Sidpur,43,279.0,22.8426204,87.9316419
36125,Jurguridi,44,279.0,23.4631396,86.6736997
36126,Chakalta,45,279.0,23.3131845,86.6132317
36127,Jhariatdi,46,279.0,23.1301847,86.40607460000001
36128,Daulatpur,47,279.0,25.3290095,88.3269552
36129,Chhoto Daikiari,48,279.0,-1.0,-1.0
36130,Tilahir,49,279.0,23.4539963,86.6982436
36131,Gagnabad,50,279.0,23.4579375,86.7089384
36132,Ghorakata,51,279.0,21.8873892,87.83287120000001
36133,Manpura,52,279.0,23.6543989,86.79315679999999
36134,Duarimahul,53,279.0,23.4774997,86.7202598
36135,Kunwardi,54,279.0,-1.0,-1.0
36136,Benadola alias Haridi,55,279.0,-1.0,-1.0
36137,Dhobari,56,279.0,23.4463613,86.72403299999999
36138,Aguibari,57,279.0,22.2069575,86.71774409999999
36139,Kapishta,58,279.0,24.0630933,87.5259846
36140,Majuramura,59,279.0,23.4392166,86.7378655
36141,Sihika,60,279.0,23.3944509,86.8759761
36142,Dhopahari,61,279.0,23.4291493,86.7542081
36143,Mahuljodha,62,279.0,23.4037976,86.7504372
36144,Sutabai,63,279.0,23.4051852,86.7567091
36145,Rangunigora,64,279.0,23.4108898,86.769917
36146,Rautara,65,279.0,22.8264226,86.6636269
36147,Talanjhuri,66,279.0,23.4251814,86.7780836
36148,Gaurangdih,67,279.0,23.821631,86.97982669999999
36149,Shyampur,68,279.0,22.299502,88.02774869999999
36150,Jamkuri,69,279.0,23.1660291,87.4950586
36151,Jorapukur Alias Pachagora,70,279.0,-1.0,-1.0
36152,Babirdi,71,279.0,23.4589856,86.7592355
36153,Krishnaganj,72,279.0,23.4171433,88.69765269999999
36154,Saldiha,73,279.0,23.1707886,86.8088531
36155,Gopalpore(74),74,279.0,22.6198021,88.4351329
36156,Indrabill,75,279.0,23.4431245,86.7831085
36157,Pathariagora,76,279.0,23.4491226,86.78562079999999
36158,Mohankoka,77,279.0,-1.0,-1.0
36159,Bhaluka,78,279.0,23.3701939,88.44402250000002
36160,Rajra,79,279.0,23.4241317,86.79943589999999
36161,Bhatdih,80,279.0,23.4315908,86.8006916
36162,Khanni,81,279.0,22.5270464,88.3251489
36163,Pathardiha,82,279.0,23.5411415,87.4195123
36164,Parbedia,83,279.0,23.4376911,86.80822529999999
36165,Jagannathdi (084),84,279.0,23.4457814,86.8062984
36166,Siada,85,279.0,23.4598117,86.79943589999999
36167,Kalidah,86,279.0,23.462528,86.7868768
36168,Ulubera,87,279.0,22.4744363,88.1000377
36169,Lohat,88,279.0,23.7876553,86.91608
36170,Upar Panchmahuli,89,279.0,23.5069697,86.7793398
36171,Namo Panchmahuli,90,279.0,23.4937717,86.7881329
36172,Guhagara,91,279.0,23.5014359,86.79943589999999
36173,Jialgoria,92,279.0,-1.0,-1.0
36174,Manjhopra,93,279.0,23.4940802,86.803203
36175,Namgoria,94,279.0,23.7637705,87.99838779999999
36176,Karanjberia,95,279.0,22.3821949,87.99966649999999
36177,Kelhai,96,279.0,-1.0,-1.0
36178,Rampur,97,279.0,25.3470758,88.632578
36179,Bhalurdi,98,279.0,23.3701939,88.44402250000002
36180,Chhelia,99,279.0,23.463143,86.81701319999999
36181,Bhatuikend,100,279.0,23.4526599,86.81324719999999
36182,Ketankiari,101,279.0,23.4437399,86.81324719999999
36183,Agrabad,102,279.0,23.4424824,86.8245443
36184,Mantoria,103,279.0,23.4287709,86.80822529999999
36185,Jamboni,104,279.0,22.4501766,86.89979180000002
36186,Sialdanga alias Barmagura,105,279.0,23.4321516,86.8283095
36187,Baiddih,106,279.0,22.8053475,86.25163169999999
36188,Manihara,107,279.0,23.4250468,86.8446218
36189,Adali,108,279.0,23.4312959,86.8596744
36190,Fusra,109,279.0,-1.0,-1.0
36191,Rampur,110,279.0,25.3470758,88.632578
36192,Dumda pahari,111,279.0,23.40539,86.8283095
36193,Bardiha,112,279.0,23.4112864,86.82579940000001
36194,Jamkanali,113,279.0,22.8860825,86.9699172
36195,Barairga alias Radha,114,279.0,-1.0,-1.0
36196,Mahujora,115,279.0,23.4183893,86.8094808
36197,Bhabanipur,116,279.0,22.4224226,88.4422055
