{
    "Manpur": {
        "geometry": {
            "bounds": {
                "northeast": {
                    "lat": 23.04437,
                    "lng": 88.63354
                },
                "southwest": {
                    "lat": 23.03672,
                    "lng": 88.62337
                }
            },
            "viewport": {
                "northeast": {
                    "lat": 23.04437,
                    "lng": 88.63354
                },
                "southwest": {
                    "lat": 23.03672,
                    "lng": 88.62337
                }
            },
            "location_type": "APPROXIMATE",
            "location": {
                "lat": 23.0414659,
                "lng": 88.6301659
            }
        },
        "formatted_address": "Manpur, West Bengal, India",
        "types": [
            "locality",
            "political"
        ],
        "place_id": "ChIJt0vxetPH-DkR2omDOWDnCMI",
        "address_components": [
            {
                "types": [
                    "locality",
                    "political"
                ],
                "long_name": "Manpur",
                "short_name": "Manpur"
            },
            {
                "types": [
                    "administrative_area_level_2",
                    "political"
                ],
                "long_name": "Nadia",
                "short_name": "Nadia"
            },
            {
                "types": [
                    "administrative_area_level_1",
                    "political"
                ],
                "long_name": "West Bengal",
                "short_name": "WB"
            },
            {
                "types": [
                    "country",
                    "political"
                ],
                "long_name": "India",
                "short_name": "IN"
            }
        ]
    },
    "Laugachhi Abad": {
        "geometry": {
            "bounds": {
                "northeast": {
                    "lat": 22.5025301,
                    "lng": 88.69964
                },
                "southwest": {
                    "lat": 22.48883,
                    "lng": 88.67996989999999
                }
            },
            "viewport": {
                "northeast": {
                    "lat": 22.5025301,
                    "lng": 88.69964
                },
                "southwest": {
                    "lat": 22.48883,
                    "lng": 88.67996989999999
                }
            },
            "location_type": "APPROXIMATE",
            "location": {
                "lat": 22.4938881,
                "lng": 88.69042720000002
            }
        },
        "formatted_address": "Laugachhi Abad, West Bengal 743425, India",
        "types": [
            "locality",
            "political"
        ],
        "place_id": "ChIJCfQbhj8EAjoRsi6DnY0PAqU",
        "address_components": [
            {
                "types": [
                    "locality",
                    "political"
                ],
                "long_name": "Laugachhi Abad",
                "short_name": "Laugachhi Abad"
            },
            {
                "types": [
                    "administrative_area_level_2",
                    "political"
                ],
                "long_name": "North 24 Parganas",
                "short_name": "North 24 Parganas"
            },
            {
                "types": [
                    "administrative_area_level_1",
                    "political"
                ],
                "long_name": "West Bengal",
                "short_name": "WB"
            },
            {
                "types": [
                    "country",
                    "political"
                ],
                "long_name": "India",
                "short_name": "IN"
            },
            {
                "types": [
                    "postal_code"
                ],
                "long_name": "743425",
                "short_name": "743425"
            }
        ]
    },
    "Manoharpur": {
        "geometry": {
            "bounds": {
                "northeast": {
                    "lat": 22.62286,
                    "lng": 87.60227979999999
                },
                "southwest": {
                    "lat": 22.59918,
                    "lng": 87.58230999999999
                }
            },
            "viewport": {
                "northeast": {
                    "lat": 22.62286,
                    "lng": 87.60227979999999
                },
                "southwest": {
                    "lat": 22.59918,
                    "lng": 87.58230999999999
                }
            },
            "location_type": "APPROXIMATE",
            "location": {
                "lat": 22.6108262,
                "lng": 87.59147899999999
            }
        },
        "formatted_address": "Manoharpur, West Bengal 721232, India",
        "types": [
            "locality",
            "political"
        ],
        "place_id": "ChIJe8H3TJoA-DkRjxrxw16bTcA",
        "address_components": [
            {
                "types": [
                    "locality",
                    "political"
                ],
                "long_name": "Manoharpur",
                "short_name": "Manoharpur"
            },
            {
                "types": [
                    "administrative_area_level_2",
                    "political"
                ],
                "long_name": "West Medinipur",
                "short_name": "West Medinipur"
            },
            {
                "types": [
                    "administrative_area_level_1",
                    "political"
                ],
                "long_name": "West Bengal",
                "short_name": "WB"
            },
            {
                "types": [
                    "country",
                    "political"
                ],
                "long_name": "India",
                "short_name": "IN"
            },
            {
                "types": [
                    "postal_code"
                ],
                "long_name": "721232",
                "short_name": "721232"
            }
        ]
    },
    "Pabdara": {
        "formatted_address": "Pabdara, West Bengal, India",
        "types": [
            "locality",
            "political"
        ],
        "partial_match": true,
        "geometry": {
            "bounds": {
                "northeast": {
                    "lat": 22.90324,
                    "lng": 88.55893999999999
                },
                "southwest": {
                    "lat": 22.88641,
                    "lng": 88.5437501
                }
            },
            "viewport": {
                "northeast": {
                    "lat": 22.90324,
                    "lng": 88.55893999999999
                },
                "southwest": {
                    "lat": 22.88641,
                    "lng": 88.5437501
                }
            },
            "location_type": "APPROXIMATE",
            "location": {
                "lat": 22.8963612,
                "lng": 88.55411459999999
            }
        },
        "address_components": [
            {
                "types": [
                    "locality",
                    "political"
                ],
                "long_name": "Pabdara",
                "short_name": "Pabdara"
            },
            {
                "types": [
                    "administrative_area_level_2",
                    "political"
                ],
                "long_name": "North 24 Parganas",
                "short_name": "North 24 Parganas"
            },
            {
                "types": [
                    "administrative_area_level_1",
                    "political"
                ],
                "long_name": "West Bengal",
                "short_name": "WB"
            },
            {
                "types": [
                    "country",
                    "political"
                ],
                "long_name": "India",
                "short_name": "IN"
            }
        ],
        "place_id": "ChIJT2FZ5wO8-DkRET9kmoHogwM"
    },
    "Rameshwarpur": {
        "formatted_address": "Rameshwarpur, West Bengal 711314, India",
        "types": [
            "locality",
            "political"
        ],
        "partial_match": true,
        "geometry": {
            "bounds": {
                "northeast": {
                    "lat": 22.29839,
                    "lng": 88.0600699
                },
                "southwest": {
                    "lat": 22.2841401,
                    "lng": 88.04006
                }
            },
            "viewport": {
                "northeast": {
                    "lat": 22.29839,
                    "lng": 88.0600699
                },
                "southwest": {
                    "lat": 22.2841401,
                    "lng": 88.04006
                }
            },
            "location_type": "APPROXIMATE",
            "location": {
                "lat": 22.2908582,
                "lng": 88.05220130000001
            }
        },
        "address_components": [
            {
                "types": [
                    "locality",
                    "political"
                ],
                "long_name": "Rameshwarpur",
                "short_name": "Rameshwarpur"
            },
            {
                "types": [
                    "administrative_area_level_2",
                    "political"
                ],
                "long_name": "Howrah",
                "short_name": "Howrah"
            },
            {
                "types": [
                    "administrative_area_level_1",
                    "political"
                ],
                "long_name": "West Bengal",
                "short_name": "WB"
            },
            {
                "types": [
                    "country",
                    "political"
                ],
                "long_name": "India",
                "short_name": "IN"
            },
            {
                "types": [
                    "postal_code"
                ],
                "long_name": "711314",
                "short_name": "711314"
            }
        ],
        "place_id": "ChIJlzhD36yNAjoRxtooLMI2IIQ"
    },
    "Mirjanagar": {
        "geometry": {
            "bounds": {
                "northeast": {
                    "lat": 22.1980699,
                    "lng": 87.78238999999999
                },
                "southwest": {
                    "lat": 22.1844299,
                    "lng": 87.76749
                }
            },
            "viewport": {
                "northeast": {
                    "lat": 22.1980699,
                    "lng": 87.78238999999999
                },
                "southwest": {
                    "lat": 22.1844299,
                    "lng": 87.76749
                }
            },
            "location_type": "APPROXIMATE",
            "location": {
                "lat": 22.1919899,
                "lng": 87.77510339999999
            }
        },
        "formatted_address": "Mirja Nagar, West Bengal 721642, India",
        "types": [
            "locality",
            "political"
        ],
        "place_id": "ChIJU0t-FzPHAjoRfT1A6hywynY",
        "address_components": [
            {
                "types": [
                    "locality",
                    "political"
                ],
                "long_name": "Mirja Nagar",
                "short_name": "Mirja Nagar"
            },
            {
                "types": [
                    "administrative_area_level_2",
                    "political"
                ],
                "long_name": "Purba Medinipur",
                "short_name": "Purba Medinipur"
            },
            {
                "types": [
                    "administrative_area_level_1",
                    "political"
                ],
                "long_name": "West Bengal",
                "short_name": "WB"
            },
            {
                "types": [
                    "country",
                    "political"
                ],
                "long_name": "India",
                "short_name": "IN"
            },
            {
                "types": [
                    "postal_code"
                ],
                "long_name": "721642",
                "short_name": "721642"
            }
        ]
    },
    "Rajapur": {
        "geometry": {
            "bounds": {
                "northeast": {
                    "lat": 23.60182,
                    "lng": 88.36829999999999
                },
                "southwest": {
                    "lat": 23.5837701,
                    "lng": 88.34929
                }
            },
            "viewport": {
                "northeast": {
                    "lat": 23.60182,
                    "lng": 88.36829999999999
                },
                "southwest": {
                    "lat": 23.5837701,
                    "lng": 88.34929
                }
            },
            "location_type": "APPROXIMATE",
            "location": {
                "lat": 23.5965449,
                "lng": 88.36496939999999
            }
        },
        "formatted_address": "Rajapur, West Bengal, India",
        "types": [
            "locality",
            "political"
        ],
        "place_id": "ChIJHSMXvF4Q-TkR3w_59xDIPTk",
        "address_components": [
            {
                "types": [
                    "locality",
                    "political"
                ],
                "long_name": "Rajapur",
                "short_name": "Rajapur"
            },
            {
                "types": [
                    "administrative_area_level_2",
                    "political"
                ],
                "long_name": "Nadia",
                "short_name": "Nadia"
            },
            {
                "types": [
                    "administrative_area_level_1",
                    "political"
                ],
                "long_name": "West Bengal",
                "short_name": "WB"
            },
            {
                "types": [
                    "country",
                    "political"
                ],
                "long_name": "India",
                "short_name": "IN"
            }
        ]
    },
    "Dakshinsarai": {
        "formatted_address": "Dakshin Sarai, West Bengal, India",
        "types": [
            "locality",
            "political"
        ],
        "partial_match": true,
        "geometry": {
            "bounds": {
                "northeast": {
                    "lat": 22.81024,
                    "lng": 88.63754
                },
                "southwest": {
                    "lat": 22.78528,
                    "lng": 88.6217999
                }
            },
            "viewport": {
                "northeast": {
                    "lat": 22.81024,
                    "lng": 88.63754
                },
                "southwest": {
                    "lat": 22.78528,
                    "lng": 88.6217999
                }
            },
            "location_type": "APPROXIMATE",
            "location": {
                "lat": 22.7957738,
                "lng": 88.631372
            }
        },
        "address_components": [
            {
                "types": [
                    "locality",
                    "political"
                ],
                "long_name": "Dakshin Sarai",
                "short_name": "Dakshin Sarai"
            },
            {
                "types": [
                    "administrative_area_level_2",
                    "political"
                ],
                "long_name": "North 24 Parganas",
                "short_name": "North 24 Parganas"
            },
            {
                "types": [
                    "administrative_area_level_1",
                    "political"
                ],
                "long_name": "West Bengal",
                "short_name": "WB"
            },
            {
                "types": [
                    "country",
                    "political"
                ],
                "long_name": "India",
                "short_name": "IN"
            }
        ],
        "place_id": "ChIJZTNFulal-DkR0Te3oRgpFzM"
    },
    "Sonatholi": {
        "formatted_address": "Sonathali, West Bengal 723121, India",
        "types": [
            "locality",
            "political"
        ],
        "partial_match": true,
        "geometry": {
            "bounds": {
                "northeast": {
                    "lat": 23.3862617,
                    "lng": 86.7559004
                },
                "southwest": {
                    "lat": 23.377044,
                    "lng": 86.74873339999999
                }
            },
            "viewport": {
                "northeast": {
                    "lat": 23.3862617,
                    "lng": 86.7559004
                },
                "southwest": {
                    "lat": 23.377044,
                    "lng": 86.74873339999999
                }
            },
            "location_type": "APPROXIMATE",
            "location": {
                "lat": 23.3826572,
                "lng": 86.7526369
            }
        },
        "address_components": [
            {
                "types": [
                    "locality",
                    "political"
                ],
                "long_name": "Sonathali",
                "short_name": "Sonathali"
            },
            {
                "types": [
                    "administrative_area_level_2",
                    "political"
                ],
                "long_name": "Purulia",
                "short_name": "Purulia"
            },
            {
                "types": [
                    "administrative_area_level_1",
                    "political"
                ],
                "long_name": "West Bengal",
                "short_name": "WB"
            },
            {
                "types": [
                    "country",
                    "political"
                ],
                "long_name": "India",
                "short_name": "IN"
            },
            {
                "types": [
                    "postal_code"
                ],
                "long_name": "723121",
                "short_name": "723121"
            }
        ],
        "place_id": "ChIJlYuJ1zr49jkR_IgRs_D1sWM"
    },
    "Hatgachha": {
        "geometry": {
            "bounds": {
                "northeast": {
                    "lat": 22.4388301,
                    "lng": 88.05843
                },
                "southwest": {
                    "lat": 22.4185201,
                    "lng": 88.04357
                }
            },
            "viewport": {
                "northeast": {
                    "lat": 22.4388301,
                    "lng": 88.05843
                },
                "southwest": {
                    "lat": 22.4185201,
                    "lng": 88.04357
                }
            },
            "location_type": "APPROXIMATE",
            "location": {
                "lat": 22.4264216,
                "lng": 88.0534236
            }
        },
        "formatted_address": "Hatgachha, West Bengal 711315, India",
        "types": [
            "locality",
            "political"
        ],
        "place_id": "ChIJ9-47PYKFAjoRmwNT3stcGb8",
        "address_components": [
            {
                "types": [
                    "locality",
                    "political"
                ],
                "long_name": "Hatgachha",
                "short_name": "Hatgachha"
            },
            {
                "types": [
                    "administrative_area_level_2",
                    "political"
                ],
                "long_name": "Howrah",
                "short_name": "Howrah"
            },
            {
                "types": [
                    "administrative_area_level_1",
                    "political"
                ],
                "long_name": "West Bengal",
                "short_name": "WB"
            },
            {
                "types": [
                    "country",
                    "political"
                ],
                "long_name": "India",
                "short_name": "IN"
            },
            {
                "types": [
                    "postal_code"
                ],
                "long_name": "711315",
                "short_name": "711315"
            }
        ]
    },
    "Bangaon": {
        "geometry": {
            "bounds": {
                "northeast": {
                    "lat": 23.0709884,
                    "lng": 88.8627126
                },
                "southwest": {
                    "lat": 23.0089644,
                    "lng": 88.79850379999999
                }
            },
            "viewport": {
                "northeast": {
                    "lat": 23.0709884,
                    "lng": 88.8627126
                },
                "southwest": {
                    "lat": 23.0089644,
                    "lng": 88.79850379999999
                }
            },
            "location_type": "APPROXIMATE",
            "location": {
                "lat": 23.0440381,
                "lng": 88.827703
            }
        },
        "formatted_address": "Bongaon, West Bengal, India",
        "types": [
            "locality",
            "political"
        ],
        "place_id": "ChIJP2IDt7I1_zkRPc4i-fiBO_o",
        "address_components": [
            {
                "types": [
                    "locality",
                    "political"
                ],
                "long_name": "Bongaon",
                "short_name": "Bongaon"
            },
            {
                "types": [
                    "administrative_area_level_2",
                    "political"
                ],
                "long_name": "North 24 Parganas",
                "short_name": "North 24 Parganas"
            },
            {
                "types": [
                    "administrative_area_level_1",
                    "political"
                ],
                "long_name": "West Bengal",
                "short_name": "WB"
            },
            {
                "types": [
                    "country",
                    "political"
                ],
                "long_name": "India",
                "short_name": "IN"
            }
        ]
    },
    "Khas Shak Daha": null,
    "Taruliya": {
        "formatted_address": "Tarulia, West Bengal 731124, India",
        "types": [
            "locality",
            "political"
        ],
        "partial_match": true,
        "geometry": {
            "bounds": {
                "northeast": {
                    "lat": 23.7442701,
                    "lng": 87.41709999999999
                },
                "southwest": {
                    "lat": 23.73327,
                    "lng": 87.4106199
                }
            },
            "viewport": {
                "northeast": {
                    "lat": 23.7442701,
                    "lng": 87.41709999999999
                },
                "southwest": {
                    "lat": 23.73327,
                    "lng": 87.4106199
                }
            },
            "location_type": "APPROXIMATE",
            "location": {
                "lat": 23.7373103,
                "lng": 87.4145542
            }
        },
        "address_components": [
            {
                "types": [
                    "locality",
                    "political"
                ],
                "long_name": "Tarulia",
                "short_name": "Tarulia"
            },
            {
                "types": [
                    "administrative_area_level_2",
                    "political"
                ],
                "long_name": "Birbhum",
                "short_name": "Birbhum"
            },
            {
                "types": [
                    "administrative_area_level_1",
                    "political"
                ],
                "long_name": "West Bengal",
                "short_name": "WB"
            },
            {
                "types": [
                    "country",
                    "political"
                ],
                "long_name": "India",
                "short_name": "IN"
            },
            {
                "types": [
                    "postal_code"
                ],
                "long_name": "731124",
                "short_name": "731124"
            }
        ],
        "place_id": "ChIJrTte_YZn9zkRqWRvLU6TZHE"
    },
    "Koijuri": {
        "formatted_address": "Kaijuri, West Bengal, India",
        "types": [
            "locality",
            "political"
        ],
        "partial_match": true,
        "geometry": {
            "bounds": {
                "northeast": {
                    "lat": 22.60462,
                    "lng": 87.85589990000001
                },
                "southwest": {
                    "lat": 22.58397,
                    "lng": 87.82943
                }
            },
            "viewport": {
                "northeast": {
                    "lat": 22.60462,
                    "lng": 87.85589990000001
                },
                "southwest": {
                    "lat": 22.58397,
                    "lng": 87.82943
                }
            },
            "location_type": "APPROXIMATE",
            "location": {
                "lat": 22.5965114,
                "lng": 87.84269669999999
            }
        },
        "address_components": [
            {
                "types": [
                    "locality",
                    "political"
                ],
                "long_name": "Kaijuri",
                "short_name": "Kaijuri"
            },
            {
                "types": [
                    "administrative_area_level_2",
                    "political"
                ],
                "long_name": "West Medinipur",
                "short_name": "West Medinipur"
            },
            {
                "types": [
                    "administrative_area_level_1",
                    "political"
                ],
                "long_name": "West Bengal",
                "short_name": "WB"
            },
            {
                "types": [
                    "country",
                    "political"
                ],
                "long_name": "India",
                "short_name": "IN"
            }
        ],
        "place_id": "ChIJjcKoMg6gAjoRrU86WuL8Aqg"
    },
    "Chaitol": {
        "formatted_address": "Chaital, West Bengal 743456, India",
        "types": [
            "locality",
            "political"
        ],
        "partial_match": true,
        "geometry": {
            "bounds": {
                "northeast": {
                    "lat": 22.5280098,
                    "lng": 88.8260899
                },
                "southwest": {
                    "lat": 22.4932899,
                    "lng": 88.77306
                }
            },
            "viewport": {
                "northeast": {
                    "lat": 22.5280098,
                    "lng": 88.8260899
                },
                "southwest": {
                    "lat": 22.4932899,
                    "lng": 88.77306
                }
            },
            "location_type": "APPROXIMATE",
            "location": {
                "lat": 22.5101084,
                "lng": 88.80013389999999
            }
        },
        "address_components": [
            {
                "types": [
                    "locality",
                    "political"
                ],
                "long_name": "Chaital",
                "short_name": "Chaital"
            },
            {
                "types": [
                    "administrative_area_level_2",
                    "political"
                ],
                "long_name": "North 24 Parganas",
                "short_name": "North 24 Parganas"
            },
            {
                "types": [
                    "administrative_area_level_1",
                    "political"
                ],
                "long_name": "West Bengal",
                "short_name": "WB"
            },
            {
                "types": [
                    "country",
                    "political"
                ],
                "long_name": "India",
                "short_name": "IN"
            },
            {
                "types": [
                    "postal_code"
                ],
                "long_name": "743456",
                "short_name": "743456"
            }
        ],
        "place_id": "ChIJI201UbD4AToRzSMjo5o6KrA"
    },
    "Sidpur": {
        "formatted_address": "Saidpur, West Bengal 721146, India",
        "types": [
            "locality",
            "political"
        ],
        "partial_match": true,
        "geometry": {
            "bounds": {
                "northeast": {
                    "lat": 22.53787,
                    "lng": 87.6777
                },
                "southwest": {
                    "lat": 22.5305701,
                    "lng": 87.67036
                }
            },
            "viewport": {
                "northeast": {
                    "lat": 22.53787,
                    "lng": 87.6777
                },
                "southwest": {
                    "lat": 22.5305701,
                    "lng": 87.67036
                }
            },
            "location_type": "APPROXIMATE",
            "location": {
                "lat": 22.5338731,
                "lng": 87.6747563
            }
        },
        "address_components": [
            {
                "types": [
                    "locality",
                    "political"
                ],
                "long_name": "Saidpur",
                "short_name": "Saidpur"
            },
            {
                "types": [
                    "administrative_area_level_2",
                    "political"
                ],
                "long_name": "West Medinipur",
                "short_name": "West Medinipur"
            },
            {
                "types": [
                    "administrative_area_level_1",
                    "political"
                ],
                "long_name": "West Bengal",
                "short_name": "WB"
            },
            {
                "types": [
                    "country",
                    "political"
                ],
                "long_name": "India",
                "short_name": "IN"
            },
            {
                "types": [
                    "postal_code"
                ],
                "long_name": "721146",
                "short_name": "721146"
            }
        ],
        "place_id": "ChIJZxJ3NuqoAjoRZQ2kOn-vH0s"
    },
    "Raykhan": {
        "formatted_address": "Raikhan, West Bengal 733141, India",
        "types": [
            "locality",
            "political"
        ],
        "partial_match": true,
        "geometry": {
            "bounds": {
                "northeast": {
                    "lat": 25.4289201,
                    "lng": 88.80516
                },
                "southwest": {
                    "lat": 25.42006,
                    "lng": 88.79529989999999
                }
            },
            "viewport": {
                "northeast": {
                    "lat": 25.4289201,
                    "lng": 88.80516
                },
                "southwest": {
                    "lat": 25.42006,
                    "lng": 88.79529989999999
                }
            },
            "location_type": "APPROXIMATE",
            "location": {
                "lat": 25.4255458,
                "lng": 88.8010831
            }
        },
        "address_components": [
            {
                "types": [
                    "locality",
                    "political"
                ],
                "long_name": "Raikhan",
                "short_name": "Raikhan"
            },
            {
                "types": [
                    "administrative_area_level_2",
                    "political"
                ],
                "long_name": "Dakshin Dinajpur",
                "short_name": "Dakshin Dinajpur"
            },
            {
                "types": [
                    "administrative_area_level_1",
                    "political"
                ],
                "long_name": "West Bengal",
                "short_name": "WB"
            },
            {
                "types": [
                    "country",
                    "political"
                ],
                "long_name": "India",
                "short_name": "IN"
            },
            {
                "types": [
                    "postal_code"
                ],
                "long_name": "733141",
                "short_name": "733141"
            }
        ],
        "place_id": "ChIJOUxEUZyn_DkRnr1UpaH2xZk"
    },
    "Kaliada": {
        "geometry": {
            "bounds": {
                "northeast": {
                    "lat": 23.3625899,
                    "lng": 86.7578599
                },
                "southwest": {
                    "lat": 23.3402599,
                    "lng": 86.74815
                }
            },
            "viewport": {
                "northeast": {
                    "lat": 23.3625899,
                    "lng": 86.7578599
                },
                "southwest": {
                    "lat": 23.3402599,
                    "lng": 86.74815
                }
            },
            "location_type": "APPROXIMATE",
            "location": {
                "lat": 23.3503258,
                "lng": 86.7529512
            }
        },
        "formatted_address": "Kaliada, West Bengal 723130, India",
        "types": [
            "locality",
            "political"
        ],
        "place_id": "ChIJlb_jXQj49jkRQqHaEPw1bak",
        "address_components": [
            {
                "types": [
                    "locality",
                    "political"
                ],
                "long_name": "Kaliada",
                "short_name": "Kaliada"
            },
            {
                "types": [
                    "administrative_area_level_2",
                    "political"
                ],
                "long_name": "Purulia",
                "short_name": "Purulia"
            },
            {
                "types": [
                    "administrative_area_level_1",
                    "political"
                ],
                "long_name": "West Bengal",
                "short_name": "WB"
            },
            {
                "types": [
                    "country",
                    "political"
                ],
                "long_name": "India",
                "short_name": "IN"
            },
            {
                "types": [
                    "postal_code"
                ],
                "long_name": "723130",
                "short_name": "723130"
            }
        ]
    },
    "Mayna": {
        "geometry": {
            "bounds": {
                "northeast": {
                    "lat": 25.3031901,
                    "lng": 88.16914009999999
                },
                "southwest": {
                    "lat": 25.2869,
                    "lng": 88.1522099
                }
            },
            "viewport": {
                "northeast": {
                    "lat": 25.3031901,
                    "lng": 88.16914009999999
                },
                "southwest": {
                    "lat": 25.2869,
                    "lng": 88.1522099
                }
            },
            "location_type": "APPROXIMATE",
            "location": {
                "lat": 25.2930953,
                "lng": 88.16085149999999
            }
        },
        "formatted_address": "Mayna, West Bengal 732124, India",
        "types": [
            "locality",
            "political"
        ],
        "place_id": "ChIJS-gY2fLf-jkR_RCzq2D9Nlk",
        "address_components": [
            {
                "types": [
                    "locality",
                    "political"
                ],
                "long_name": "Mayna",
                "short_name": "Mayna"
            },
            {
                "types": [
                    "administrative_area_level_2",
                    "political"
                ],
                "long_name": "Malda",
                "short_name": "Malda"
            },
            {
                "types": [
                    "administrative_area_level_1",
                    "political"
                ],
                "long_name": "West Bengal",
                "short_name": "WB"
            },
            {
                "types": [
                    "country",
                    "political"
                ],
                "long_name": "India",
                "short_name": "IN"
            },
            {
                "types": [
                    "postal_code"
                ],
                "long_name": "732124",
                "short_name": "732124"
            }
        ]
    },
    "Kharo": {
        "formatted_address": "Kharo, West Bengal 743263, India",
        "types": [
            "locality",
            "political"
        ],
        "partial_match": true,
        "geometry": {
            "bounds": {
                "northeast": {
                    "lat": 22.82949,
                    "lng": 88.69837
                },
                "southwest": {
                    "lat": 22.8172399,
                    "lng": 88.67855999999999
                }
            },
            "viewport": {
                "northeast": {
                    "lat": 22.82949,
                    "lng": 88.69837
                },
                "southwest": {
                    "lat": 22.8172399,
                    "lng": 88.67855999999999
                }
            },
            "location_type": "APPROXIMATE",
            "location": {
                "lat": 22.8245441,
                "lng": 88.68801839999999
            }
        },
        "address_components": [
            {
                "types": [
                    "locality",
                    "political"
                ],
                "long_name": "Kharo",
                "short_name": "Kharo"
            },
            {
                "types": [
                    "administrative_area_level_2",
                    "political"
                ],
                "long_name": "North 24 Parganas",
                "short_name": "North 24 Parganas"
            },
            {
                "types": [
                    "administrative_area_level_1",
                    "political"
                ],
                "long_name": "West Bengal",
                "short_name": "WB"
            },
            {
                "types": [
                    "country",
                    "political"
                ],
                "long_name": "India",
                "short_name": "IN"
            },
            {
                "types": [
                    "postal_code"
                ],
                "long_name": "743263",
                "short_name": "743263"
            }
        ],
        "place_id": "ChIJQcKdY8Gx-DkROwgRlypdw0s"
    },
    "Rakta": {
        "geometry": {
            "bounds": {
                "northeast": {
                    "lat": 23.62306,
                    "lng": 86.87671
                },
                "southwest": {
                    "lat": 23.61303,
                    "lng": 86.8609199
                }
            },
            "viewport": {
                "northeast": {
                    "lat": 23.62306,
                    "lng": 86.87671
                },
                "southwest": {
                    "lat": 23.61303,
                    "lng": 86.8609199
                }
            },
            "location_type": "APPROXIMATE",
            "location": {
                "lat": 23.6172886,
                "lng": 86.8684529
            }
        },
        "formatted_address": "Rakta, West Bengal 723161, India",
        "types": [
            "locality",
            "political"
        ],
        "place_id": "ChIJ219Yzzbi9jkRZnBGYqdBTL4",
        "address_components": [
            {
                "types": [
                    "locality",
                    "political"
                ],
                "long_name": "Rakta",
                "short_name": "Rakta"
            },
            {
                "types": [
                    "administrative_area_level_2",
                    "political"
                ],
                "long_name": "Purulia",
                "short_name": "Purulia"
            },
            {
                "types": [
                    "administrative_area_level_1",
                    "political"
                ],
                "long_name": "West Bengal",
                "short_name": "WB"
            },
            {
                "types": [
                    "country",
                    "political"
                ],
                "long_name": "India",
                "short_name": "IN"
            },
            {
                "types": [
                    "postal_code"
                ],
                "long_name": "723161",
                "short_name": "723161"
            }
        ]
    },
    "Krishnapur Madanpur": {
        "geometry": {
            "bounds": {
                "northeast": {
                    "lat": 22.68273,
                    "lng": 88.52924999999999
                },
                "southwest": {
                    "lat": 22.64602,
                    "lng": 88.51545999999999
                }
            },
            "viewport": {
                "northeast": {
                    "lat": 22.68273,
                    "lng": 88.52924999999999
                },
                "southwest": {
                    "lat": 22.64602,
                    "lng": 88.51545999999999
                }
            },
            "location_type": "APPROXIMATE",
            "location": {
                "lat": 22.6682031,
                "lng": 88.5214795
            }
        },
        "formatted_address": "Krishnapur Madanpur, West Bengal, India",
        "types": [
            "locality",
            "political"
        ],
        "place_id": "ChIJ425mewGh-DkR6tMMtT8toJg",
        "address_components": [
            {
                "types": [
                    "locality",
                    "political"
                ],
                "long_name": "Krishnapur Madanpur",
                "short_name": "Krishnapur Madanpur"
            },
            {
                "types": [
                    "administrative_area_level_2",
                    "political"
                ],
                "long_name": "North 24 Parganas",
                "short_name": "North 24 Parganas"
            },
            {
                "types": [
                    "administrative_area_level_1",
                    "political"
                ],
                "long_name": "West Bengal",
                "short_name": "WB"
            },
            {
                "types": [
                    "country",
                    "political"
                ],
                "long_name": "India",
                "short_name": "IN"
            }
        ]
    },
    "Chandpara": {
        "geometry": {
            "bounds": {
                "northeast": {
                    "lat": 22.9788517,
                    "lng": 88.78675779999999
                },
                "southwest": {
                    "lat": 22.9587843,
                    "lng": 88.7780495
                }
            },
            "viewport": {
                "northeast": {
                    "lat": 22.9788517,
                    "lng": 88.78675779999999
                },
                "southwest": {
                    "lat": 22.9587843,
                    "lng": 88.7780495
                }
            },
            "location_type": "APPROXIMATE",
            "location": {
                "lat": 22.9763159,
                "lng": 88.78143250000001
            }
        },
        "formatted_address": "Chandpara, West Bengal 743245, India",
        "types": [
            "locality",
            "political"
        ],
        "place_id": "ChIJiVZWNDe1-DkRx1-Nnjg_4Wo",
        "address_components": [
            {
                "types": [
                    "locality",
                    "political"
                ],
                "long_name": "Chandpara",
                "short_name": "Chandpara"
            },
            {
                "types": [
                    "administrative_area_level_2",
                    "political"
                ],
                "long_name": "North 24 Parganas",
                "short_name": "North 24 Parganas"
            },
            {
                "types": [
                    "administrative_area_level_1",
                    "political"
                ],
                "long_name": "West Bengal",
                "short_name": "WB"
            },
            {
                "types": [
                    "country",
                    "political"
                ],
                "long_name": "India",
                "short_name": "IN"
            },
            {
                "types": [
                    "postal_code"
                ],
                "long_name": "743245",
                "short_name": "743245"
            }
        ]
    },
    "Angnara": {
        "geometry": {
            "bounds": {
                "northeast": {
                    "lat": 22.5692,
                    "lng": 88.91841
                },
                "southwest": {
                    "lat": 22.5608901,
                    "lng": 88.90969
                }
            },
            "viewport": {
                "northeast": {
                    "lat": 22.5692,
                    "lng": 88.91841
                },
                "southwest": {
                    "lat": 22.5608901,
                    "lng": 88.90969
                }
            },
            "location_type": "APPROXIMATE",
            "location": {
                "lat": 22.5683337,
                "lng": 88.9161548
            }
        },
        "formatted_address": "Angnara, West Bengal, India",
        "types": [
            "locality",
            "political"
        ],
        "place_id": "ChIJd-QNGeP8AToRRsQdnt8myfc",
        "address_components": [
            {
                "types": [
                    "locality",
                    "political"
                ],
                "long_name": "Angnara",
                "short_name": "Angnara"
            },
            {
                "types": [
                    "administrative_area_level_2",
                    "political"
                ],
                "long_name": "North 24 Parganas",
                "short_name": "North 24 Parganas"
            },
            {
                "types": [
                    "administrative_area_level_1",
                    "political"
                ],
                "long_name": "West Bengal",
                "short_name": "WB"
            },
            {
                "types": [
                    "country",
                    "political"
                ],
                "long_name": "India",
                "short_name": "IN"
            }
        ]
    },
    "Kadampukur": {
        "geometry": {
            "bounds": {
                "northeast": {
                    "lat": 22.6021401,
                    "lng": 88.48886999999999
                },
                "southwest": {
                    "lat": 22.58805,
                    "lng": 88.47409010000001
                }
            },
            "viewport": {
                "northeast": {
                    "lat": 22.6021401,
                    "lng": 88.48886999999999
                },
                "southwest": {
                    "lat": 22.58805,
                    "lng": 88.47409010000001
                }
            },
            "location_type": "APPROXIMATE",
            "location": {
                "lat": 22.5933465,
                "lng": 88.4803479
            }
        },
        "formatted_address": "Kadampukur, West Bengal, India",
        "types": [
            "locality",
            "political"
        ],
        "place_id": "ChIJbToTf7MKAjoR393x0ngqU5A",
        "address_components": [
            {
                "types": [
                    "locality",
                    "political"
                ],
                "long_name": "Kadampukur",
                "short_name": "Kadampukur"
            },
            {
                "types": [
                    "administrative_area_level_2",
                    "political"
                ],
                "long_name": "North 24 Parganas",
                "short_name": "North 24 Parganas"
            },
            {
                "types": [
                    "administrative_area_level_1",
                    "political"
                ],
                "long_name": "West Bengal",
                "short_name": "WB"
            },
            {
                "types": [
                    "country",
                    "political"
                ],
                "long_name": "India",
                "short_name": "IN"
            }
        ]
    },
    "Nituria": {
        "formatted_address": "Nituria, West Bengal 713324, India",
        "types": [
            "locality",
            "political"
        ],
        "partial_match": true,
        "geometry": {
            "bounds": {
                "northeast": {
                    "lat": 23.6634518,
                    "lng": 86.829747
                },
                "southwest": {
                    "lat": 23.6604252,
                    "lng": 86.8234277
                }
            },
            "viewport": {
                "northeast": {
                    "lat": 23.6634518,
                    "lng": 86.829747
                },
                "southwest": {
                    "lat": 23.6604252,
                    "lng": 86.8234277
                }
            },
            "location_type": "APPROXIMATE",
            "location": {
                "lat": 23.6628891,
                "lng": 86.8267407
            }
        },
        "address_components": [
            {
                "types": [
                    "locality",
                    "political"
                ],
                "long_name": "Nituria",
                "short_name": "Nituria"
            },
            {
                "types": [
                    "administrative_area_level_2",
                    "political"
                ],
                "long_name": "Purulia",
                "short_name": "Purulia"
            },
            {
                "types": [
                    "administrative_area_level_1",
                    "political"
                ],
                "long_name": "West Bengal",
                "short_name": "WB"
            },
            {
                "types": [
                    "country",
                    "political"
                ],
                "long_name": "India",
                "short_name": "IN"
            },
            {
                "types": [
                    "postal_code"
                ],
                "long_name": "713324",
                "short_name": "713324"
            }
        ],
        "place_id": "ChIJB4jS1DXh9jkRFRRagFD1Jko"
    },
    "Chhekathi": {
        "geometry": {
            "bounds": {
                "northeast": {
                    "lat": 22.9818501,
                    "lng": 88.8073
                },
                "southwest": {
                    "lat": 22.9599,
                    "lng": 88.78921989999999
                }
            },
            "viewport": {
                "northeast": {
                    "lat": 22.9818501,
                    "lng": 88.8073
                },
                "southwest": {
                    "lat": 22.9599,
                    "lng": 88.78921989999999
                }
            },
            "location_type": "APPROXIMATE",
            "location": {
                "lat": 22.9713368,
                "lng": 88.796278
            }
        },
        "formatted_address": "Chhekati, West Bengal 743245, India",
        "types": [
            "locality",
            "political"
        ],
        "place_id": "ChIJYwJdxMdK_zkR7hICzFSuxaQ",
        "address_components": [
            {
                "types": [
                    "locality",
                    "political"
                ],
                "long_name": "Chhekati",
                "short_name": "Chhekati"
            },
            {
                "types": [
                    "administrative_area_level_2",
                    "political"
                ],
                "long_name": "North 24 Parganas",
                "short_name": "North 24 Parganas"
            },
            {
                "types": [
                    "administrative_area_level_1",
                    "political"
                ],
                "long_name": "West Bengal",
                "short_name": "WB"
            },
            {
                "types": [
                    "country",
                    "political"
                ],
                "long_name": "India",
                "short_name": "IN"
            },
            {
                "types": [
                    "postal_code"
                ],
                "long_name": "743245",
                "short_name": "743245"
            }
        ]
    },
    "Baykara": {
        "geometry": {
            "bounds": {
                "northeast": {
                    "lat": 23.4247999,
                    "lng": 86.68021
                },
                "southwest": {
                    "lat": 23.39945,
                    "lng": 86.6631
                }
            },
            "viewport": {
                "northeast": {
                    "lat": 23.4247999,
                    "lng": 86.68021
                },
                "southwest": {
                    "lat": 23.39945,
                    "lng": 86.6631
                }
            },
            "location_type": "APPROXIMATE",
            "location": {
                "lat": 23.4120696,
                "lng": 86.67141149999999
            }
        },
        "formatted_address": "Baykara, West Bengal 723132, India",
        "types": [
            "locality",
            "political"
        ],
        "place_id": "ChIJNYFirpD29jkRKNLYVHB0EUU",
        "address_components": [
            {
                "types": [
                    "locality",
                    "political"
                ],
                "long_name": "Baykara",
                "short_name": "Baykara"
            },
            {
                "types": [
                    "administrative_area_level_2",
                    "political"
                ],
                "long_name": "Purulia",
                "short_name": "Purulia"
            },
            {
                "types": [
                    "administrative_area_level_1",
                    "political"
                ],
                "long_name": "West Bengal",
                "short_name": "WB"
            },
            {
                "types": [
                    "country",
                    "political"
                ],
                "long_name": "India",
                "short_name": "IN"
            },
            {
                "types": [
                    "postal_code"
                ],
                "long_name": "723132",
                "short_name": "723132"
            }
        ]
    },
    "Dhulani": {
        "formatted_address": "dhalani, Dhalani, West Bengal 743251, India",
        "types": [
            "establishment",
            "point_of_interest",
            "school"
        ],
        "partial_match": true,
        "geometry": {
            "location": {
                "lat": 23.1579995,
                "lng": 88.8144658
            },
            "viewport": {
                "northeast": {
                    "lat": 23.1593484802915,
                    "lng": 88.81581478029149
                },
                "southwest": {
                    "lat": 23.1566505197085,
                    "lng": 88.81311681970848
                }
            },
            "location_type": "GEOMETRIC_CENTER"
        },
        "address_components": [
            {
                "types": [
                    "locality",
                    "political"
                ],
                "long_name": "Dhalani",
                "short_name": "Dhalani"
            },
            {
                "types": [
                    "administrative_area_level_1",
                    "political"
                ],
                "long_name": "West Bengal",
                "short_name": "WB"
            },
            {
                "types": [
                    "country",
                    "political"
                ],
                "long_name": "India",
                "short_name": "IN"
            },
            {
                "types": [
                    "postal_code"
                ],
                "long_name": "743251",
                "short_name": "743251"
            }
        ],
        "place_id": "ChIJ05CE0-0y_zkRXJbG6lrwU3M"
    },
    "Rongpur": {
        "formatted_address": "Rangpur, West Bengal, India",
        "types": [
            "locality",
            "political"
        ],
        "partial_match": true,
        "geometry": {
            "bounds": {
                "northeast": {
                    "lat": 23.6787501,
                    "lng": 87.45701989999999
                },
                "southwest": {
                    "lat": 23.67044,
                    "lng": 87.44816999999999
                }
            },
            "viewport": {
                "northeast": {
                    "lat": 23.6787501,
                    "lng": 87.45701989999999
                },
                "southwest": {
                    "lat": 23.67044,
                    "lng": 87.44816999999999
                }
            },
            "location_type": "APPROXIMATE",
            "location": {
                "lat": 23.6754873,
                "lng": 87.45172749999999
            }
        },
        "address_components": [
            {
                "types": [
                    "locality",
                    "political"
                ],
                "long_name": "Rangpur",
                "short_name": "Rangpur"
            },
            {
                "types": [
                    "administrative_area_level_2",
                    "political"
                ],
                "long_name": "Birbhum",
                "short_name": "Birbhum"
            },
            {
                "types": [
                    "administrative_area_level_1",
                    "political"
                ],
                "long_name": "West Bengal",
                "short_name": "WB"
            },
            {
                "types": [
                    "country",
                    "political"
                ],
                "long_name": "India",
                "short_name": "IN"
            }
        ],
        "place_id": "ChIJlwl0-8hm9zkRmV13shWiMR4"
    },
    "Kholisadi": null,
    "Gobila": {
        "geometry": {
            "bounds": {
                "northeast": {
                    "lat": 22.6930301,
                    "lng": 88.72131999999999
                },
                "southwest": {
                    "lat": 22.6700999,
                    "lng": 88.70097
                }
            },
            "viewport": {
                "northeast": {
                    "lat": 22.6930301,
                    "lng": 88.72131999999999
                },
                "southwest": {
                    "lat": 22.6700999,
                    "lng": 88.70097
                }
            },
            "location_type": "APPROXIMATE",
            "location": {
                "lat": 22.6772587,
                "lng": 88.7084888
            }
        },
        "formatted_address": "Gobila, West Bengal 743424, India",
        "types": [
            "locality",
            "political"
        ],
        "place_id": "ChIJnw1iXt-r-DkRjZD-jMg-HDE",
        "address_components": [
            {
                "types": [
                    "locality",
                    "political"
                ],
                "long_name": "Gobila",
                "short_name": "Gobila"
            },
            {
                "types": [
                    "administrative_area_level_2",
                    "political"
                ],
                "long_name": "North 24 Parganas",
                "short_name": "North 24 Parganas"
            },
            {
                "types": [
                    "administrative_area_level_1",
                    "political"
                ],
                "long_name": "West Bengal",
                "short_name": "WB"
            },
            {
                "types": [
                    "country",
                    "political"
                ],
                "long_name": "India",
                "short_name": "IN"
            },
            {
                "types": [
                    "postal_code"
                ],
                "long_name": "743424",
                "short_name": "743424"
            }
        ]
    },
    "Pokhariathol": {
        "geometry": {
            "bounds": {
                "northeast": {
                    "lat": 23.3285899,
                    "lng": 86.69462999999999
                },
                "southwest": {
                    "lat": 23.30131,
                    "lng": 86.67634
                }
            },
            "viewport": {
                "northeast": {
                    "lat": 23.3285899,
                    "lng": 86.69462999999999
                },
                "southwest": {
                    "lat": 23.30131,
                    "lng": 86.67634
                }
            },
            "location_type": "APPROXIMATE",
            "location": {
                "lat": 23.3146859,
                "lng": 86.6837705
            }
        },
        "formatted_address": "Pokhariathol, West Bengal 723130, India",
        "types": [
            "locality",
            "political"
        ],
        "place_id": "ChIJHez5JulY9jkRiG21NVK_Ja0",
        "address_components": [
            {
                "types": [
                    "locality",
                    "political"
                ],
                "long_name": "Pokhariathol",
                "short_name": "Pokhariathol"
            },
            {
                "types": [
                    "administrative_area_level_2",
                    "political"
                ],
                "long_name": "Purulia",
                "short_name": "Purulia"
            },
            {
                "types": [
                    "administrative_area_level_1",
                    "political"
                ],
                "long_name": "West Bengal",
                "short_name": "WB"
            },
            {
                "types": [
                    "country",
                    "political"
                ],
                "long_name": "India",
                "short_name": "IN"
            },
            {
                "types": [
                    "postal_code"
                ],
                "long_name": "723130",
                "short_name": "723130"
            }
        ]
    },
    "Subarnapur": {
        "geometry": {
            "bounds": {
                "northeast": {
                    "lat": 22.9623601,
                    "lng": 88.57879009999999
                },
                "southwest": {
                    "lat": 22.94592,
                    "lng": 88.56242990000001
                }
            },
            "viewport": {
                "northeast": {
                    "lat": 22.9623601,
                    "lng": 88.57879009999999
                },
                "southwest": {
                    "lat": 22.94592,
                    "lng": 88.56242990000001
                }
            },
            "location_type": "APPROXIMATE",
            "location": {
                "lat": 22.9545978,
                "lng": 88.5722344
            }
        },
        "formatted_address": "Subarnapur, West Bengal 741249, India",
        "types": [
            "locality",
            "political"
        ],
        "place_id": "ChIJ7QNy8du4-DkRUT8bAjW0xfk",
        "address_components": [
            {
                "types": [
                    "locality",
                    "political"
                ],
                "long_name": "Subarnapur",
                "short_name": "Subarnapur"
            },
            {
                "types": [
                    "administrative_area_level_2",
                    "political"
                ],
                "long_name": "Nadia",
                "short_name": "Nadia"
            },
            {
                "types": [
                    "administrative_area_level_1",
                    "political"
                ],
                "long_name": "West Bengal",
                "short_name": "WB"
            },
            {
                "types": [
                    "country",
                    "political"
                ],
                "long_name": "India",
                "short_name": "IN"
            },
            {
                "types": [
                    "postal_code"
                ],
                "long_name": "741249",
                "short_name": "741249"
            }
        ]
    },
    "Haria": {
        "formatted_address": "Heria, West Bengal, India",
        "types": [
            "locality",
            "political"
        ],
        "partial_match": true,
        "geometry": {
            "bounds": {
                "northeast": {
                    "lat": 22.3253657,
                    "lng": 88.38395829999999
                },
                "southwest": {
                    "lat": 22.3157783,
                    "lng": 88.3701611
                }
            },
            "viewport": {
                "northeast": {
                    "lat": 22.3253657,
                    "lng": 88.38395829999999
                },
                "southwest": {
                    "lat": 22.3157783,
                    "lng": 88.3701611
                }
            },
            "location_type": "APPROXIMATE",
            "location": {
                "lat": 22.3212192,
                "lng": 88.376133
            }
        },
        "address_components": [
            {
                "types": [
                    "locality",
                    "political"
                ],
                "long_name": "Heria",
                "short_name": "Heria"
            },
            {
                "types": [
                    "administrative_area_level_2",
                    "political"
                ],
                "long_name": "South 24 Parganas",
                "short_name": "South 24 Parganas"
            },
            {
                "types": [
                    "administrative_area_level_1",
                    "political"
                ],
                "long_name": "West Bengal",
                "short_name": "WB"
            },
            {
                "types": [
                    "country",
                    "political"
                ],
                "long_name": "India",
                "short_name": "IN"
            }
        ],
        "place_id": "ChIJ6RlK9zNpAjoRCUoIAi3ZO-U"
    },
    "Nima": {
        "geometry": {
            "bounds": {
                "northeast": {
                    "lat": 22.8842101,
                    "lng": 88.49435009999999
                },
                "southwest": {
                    "lat": 22.86839,
                    "lng": 88.47984
                }
            },
            "viewport": {
                "northeast": {
                    "lat": 22.8842101,
                    "lng": 88.49435009999999
                },
                "southwest": {
                    "lat": 22.86839,
                    "lng": 88.47984
                }
            },
            "location_type": "APPROXIMATE",
            "location": {
                "lat": 22.8778651,
                "lng": 88.4863991
            }
        },
        "formatted_address": "Nima, West Bengal, India",
        "types": [
            "locality",
            "political"
        ],
        "place_id": "ChIJ64uUwvK9-DkRwmp9Lo3POWE",
        "address_components": [
            {
                "types": [
                    "locality",
                    "political"
                ],
                "long_name": "Nima",
                "short_name": "Nima"
            },
            {
                "types": [
                    "administrative_area_level_2",
                    "political"
                ],
                "long_name": "North 24 Parganas",
                "short_name": "North 24 Parganas"
            },
            {
                "types": [
                    "administrative_area_level_1",
                    "political"
                ],
                "long_name": "West Bengal",
                "short_name": "WB"
            },
            {
                "types": [
                    "country",
                    "political"
                ],
                "long_name": "India",
                "short_name": "IN"
            }
        ]
    },
    "Parui": {
        "geometry": {
            "bounds": {
                "northeast": {
                    "lat": 22.8827901,
                    "lng": 88.80606999999999
                },
                "southwest": {
                    "lat": 22.8699,
                    "lng": 88.76749
                }
            },
            "viewport": {
                "northeast": {
                    "lat": 22.8827901,
                    "lng": 88.80606999999999
                },
                "southwest": {
                    "lat": 22.8699,
                    "lng": 88.76749
                }
            },
            "location_type": "APPROXIMATE",
            "location": {
                "lat": 22.8745678,
                "lng": 88.7998819
            }
        },
        "formatted_address": "Parui, West Bengal 743247, India",
        "types": [
            "locality",
            "political"
        ],
        "place_id": "ChIJVYMoQjWz-DkRi75Is3m_3ZA",
        "address_components": [
            {
                "types": [
                    "locality",
                    "political"
                ],
                "long_name": "Parui",
                "short_name": "Parui"
            },
            {
                "types": [
                    "administrative_area_level_2",
                    "political"
                ],
                "long_name": "North 24 Parganas",
                "short_name": "North 24 Parganas"
            },
            {
                "types": [
                    "administrative_area_level_1",
                    "political"
                ],
                "long_name": "West Bengal",
                "short_name": "WB"
            },
            {
                "types": [
                    "country",
                    "political"
                ],
                "long_name": "India",
                "short_name": "IN"
            },
            {
                "types": [
                    "postal_code"
                ],
                "long_name": "743247",
                "short_name": "743247"
            }
        ]
    },
    "Debhog": {
        "geometry": {
            "bounds": {
                "northeast": {
                    "lat": 22.22614,
                    "lng": 87.5377199
                },
                "southwest": {
                    "lat": 22.2035399,
                    "lng": 87.5142901
                }
            },
            "viewport": {
                "northeast": {
                    "lat": 22.22614,
                    "lng": 87.5377199
                },
                "southwest": {
                    "lat": 22.2035399,
                    "lng": 87.5142901
                }
            },
            "location_type": "APPROXIMATE",
            "location": {
                "lat": 22.2106989,
                "lng": 87.52227460000002
            }
        },
        "formatted_address": "Debhog, West Bengal, India",
        "types": [
            "locality",
            "political"
        ],
        "place_id": "ChIJM9T4aVk1HToRwk22x3kF2JA",
        "address_components": [
            {
                "types": [
                    "locality",
                    "political"
                ],
                "long_name": "Debhog",
                "short_name": "Debhog"
            },
            {
                "types": [
                    "administrative_area_level_2",
                    "political"
                ],
                "long_name": "West Medinipur",
                "short_name": "West Medinipur"
            },
            {
                "types": [
                    "administrative_area_level_1",
                    "political"
                ],
                "long_name": "West Bengal",
                "short_name": "WB"
            },
            {
                "types": [
                    "country",
                    "political"
                ],
                "long_name": "India",
                "short_name": "IN"
            }
        ]
    },
    "Mollikpur": {
        "geometry": {
            "bounds": {
                "northeast": {
                    "lat": 22.32898,
                    "lng": 88.13359
                },
                "southwest": {
                    "lat": 22.31976,
                    "lng": 88.12160999999999
                }
            },
            "viewport": {
                "northeast": {
                    "lat": 22.32898,
                    "lng": 88.13359
                },
                "southwest": {
                    "lat": 22.31976,
                    "lng": 88.12160999999999
                }
            },
            "location_type": "APPROXIMATE",
            "location": {
                "lat": 22.3245165,
                "lng": 88.12791849999999
            }
        },
        "formatted_address": "Mallikpur, West Bengal 743504, India",
        "types": [
            "locality",
            "political"
        ],
        "place_id": "ChIJb5Itx3-JAjoRbtsXtA6Qns8",
        "address_components": [
            {
                "types": [
                    "locality",
                    "political"
                ],
                "long_name": "Mallikpur",
                "short_name": "Mallikpur"
            },
            {
                "types": [
                    "administrative_area_level_2",
                    "political"
                ],
                "long_name": "South 24 Parganas",
                "short_name": "South 24 Parganas"
            },
            {
                "types": [
                    "administrative_area_level_1",
                    "political"
                ],
                "long_name": "West Bengal",
                "short_name": "WB"
            },
            {
                "types": [
                    "country",
                    "political"
                ],
                "long_name": "India",
                "short_name": "IN"
            },
            {
                "types": [
                    "postal_code"
                ],
                "long_name": "743504",
                "short_name": "743504"
            }
        ]
    },
    "Parnaihati": {
        "formatted_address": "Par Naihati, West Bengal, India",
        "types": [
            "locality",
            "political"
        ],
        "partial_match": true,
        "geometry": {
            "bounds": {
                "northeast": {
                    "lat": 22.68143,
                    "lng": 88.8701401
                },
                "southwest": {
                    "lat": 22.67435,
                    "lng": 88.85696
                }
            },
            "viewport": {
                "northeast": {
                    "lat": 22.68143,
                    "lng": 88.8701401
                },
                "southwest": {
                    "lat": 22.67435,
                    "lng": 88.85696
                }
            },
            "location_type": "APPROXIMATE",
            "location": {
                "lat": 22.6769377,
                "lng": 88.8634986
            }
        },
        "address_components": [
            {
                "types": [
                    "locality",
                    "political"
                ],
                "long_name": "Par Naihati",
                "short_name": "Par Naihati"
            },
            {
                "types": [
                    "administrative_area_level_2",
                    "political"
                ],
                "long_name": "North 24 Parganas",
                "short_name": "North 24 Parganas"
            },
            {
                "types": [
                    "administrative_area_level_1",
                    "political"
                ],
                "long_name": "West Bengal",
                "short_name": "WB"
            },
            {
                "types": [
                    "country",
                    "political"
                ],
                "long_name": "India",
                "short_name": "IN"
            }
        ],
        "place_id": "ChIJ0TeJmCdU_zkRMZAnBaDp-zA"
    },
    "Dubrajpur": {
        "geometry": {
            "bounds": {
                "northeast": {
                    "lat": 23.8134589,
                    "lng": 87.39571070000001
                },
                "southwest": {
                    "lat": 23.7796098,
                    "lng": 87.3596658
                }
            },
            "viewport": {
                "northeast": {
                    "lat": 23.8134589,
                    "lng": 87.39571070000001
                },
                "southwest": {
                    "lat": 23.7796098,
                    "lng": 87.3596658
                }
            },
            "location_type": "APPROXIMATE",
            "location": {
                "lat": 23.7946344,
                "lng": 87.3761105
            }
        },
        "formatted_address": "Dubrajpur, West Bengal 731123, India",
        "types": [
            "locality",
            "political"
        ],
        "place_id": "ChIJw8BVgytd9zkRQHLvLxGP3hk",
        "address_components": [
            {
                "types": [
                    "locality",
                    "political"
                ],
                "long_name": "Dubrajpur",
                "short_name": "Dubrajpur"
            },
            {
                "types": [
                    "administrative_area_level_2",
                    "political"
                ],
                "long_name": "Birbhum",
                "short_name": "Birbhum"
            },
            {
                "types": [
                    "administrative_area_level_1",
                    "political"
                ],
                "long_name": "West Bengal",
                "short_name": "WB"
            },
            {
                "types": [
                    "country",
                    "political"
                ],
                "long_name": "India",
                "short_name": "IN"
            },
            {
                "types": [
                    "postal_code"
                ],
                "long_name": "731123",
                "short_name": "731123"
            }
        ]
    },
    "Saibana": {
        "formatted_address": "Saibana, West Bengal 700121, India",
        "types": [
            "locality",
            "political"
        ],
        "partial_match": true,
        "geometry": {
            "bounds": {
                "northeast": {
                    "lat": 22.74851,
                    "lng": 88.43145
                },
                "southwest": {
                    "lat": 22.74173,
                    "lng": 88.4214401
                }
            },
            "viewport": {
                "northeast": {
                    "lat": 22.74851,
                    "lng": 88.43145
                },
                "southwest": {
                    "lat": 22.74173,
                    "lng": 88.4214401
                }
            },
            "location_type": "APPROXIMATE",
            "location": {
                "lat": 22.7447548,
                "lng": 88.42706020000001
            }
        },
        "address_components": [
            {
                "types": [
                    "locality",
                    "political"
                ],
                "long_name": "Saibana",
                "short_name": "Saibana"
            },
            {
                "types": [
                    "administrative_area_level_2",
                    "political"
                ],
                "long_name": "North 24 Parganas",
                "short_name": "North 24 Parganas"
            },
            {
                "types": [
                    "administrative_area_level_1",
                    "political"
                ],
                "long_name": "West Bengal",
                "short_name": "WB"
            },
            {
                "types": [
                    "country",
                    "political"
                ],
                "long_name": "India",
                "short_name": "IN"
            },
            {
                "types": [
                    "postal_code"
                ],
                "long_name": "700121",
                "short_name": "700121"
            }
        ],
        "place_id": "ChIJOSsAcg6Z-DkRRYB3_lxgEk0"
    },
    "Nolkura": {
        "formatted_address": "Bankura, West Bengal, India",
        "types": [
            "locality",
            "political"
        ],
        "partial_match": true,
        "geometry": {
            "bounds": {
                "northeast": {
                    "lat": 23.2530632,
                    "lng": 87.1011668
                },
                "southwest": {
                    "lat": 23.2052589,
                    "lng": 87.024925
                }
            },
            "viewport": {
                "northeast": {
                    "lat": 23.2530632,
                    "lng": 87.1011668
                },
                "southwest": {
                    "lat": 23.2052589,
                    "lng": 87.024925
                }
            },
            "location_type": "APPROXIMATE",
            "location": {
                "lat": 23.2324146,
                "lng": 87.0786044
            }
        },
        "address_components": [
            {
                "types": [
                    "locality",
                    "political"
                ],
                "long_name": "Bankura",
                "short_name": "Bankura"
            },
            {
                "types": [
                    "administrative_area_level_2",
                    "political"
                ],
                "long_name": "Bankura",
                "short_name": "Bankura"
            },
            {
                "types": [
                    "administrative_area_level_1",
                    "political"
                ],
                "long_name": "West Bengal",
                "short_name": "WB"
            },
            {
                "types": [
                    "country",
                    "political"
                ],
                "long_name": "India",
                "short_name": "IN"
            }
        ],
        "place_id": "ChIJEbTCX4yl9zkRcKq0wEULvf0"
    },
    "Adityapur": {
        "geometry": {
            "bounds": {
                "northeast": {
                    "lat": 23.13609,
                    "lng": 88.72366
                },
                "southwest": {
                    "lat": 23.1216399,
                    "lng": 88.7011601
                }
            },
            "viewport": {
                "northeast": {
                    "lat": 23.13609,
                    "lng": 88.72366
                },
                "southwest": {
                    "lat": 23.1216399,
                    "lng": 88.7011601
                }
            },
            "location_type": "APPROXIMATE",
            "location": {
                "lat": 23.1300017,
                "lng": 88.7133039
            }
        },
        "formatted_address": "Adityapur, West Bengal, India",
        "types": [
            "locality",
            "political"
        ],
        "place_id": "ChIJ01X-QyjM-DkRhecw4Z8Codo",
        "address_components": [
            {
                "types": [
                    "locality",
                    "political"
                ],
                "long_name": "Adityapur",
                "short_name": "Adityapur"
            },
            {
                "types": [
                    "administrative_area_level_2",
                    "political"
                ],
                "long_name": "North 24 Parganas",
                "short_name": "North 24 Parganas"
            },
            {
                "types": [
                    "administrative_area_level_1",
                    "political"
                ],
                "long_name": "West Bengal",
                "short_name": "WB"
            },
            {
                "types": [
                    "country",
                    "political"
                ],
                "long_name": "India",
                "short_name": "IN"
            }
        ]
    },
    "Komarabad": null,
    "Tepul": {
        "formatted_address": "Tepul, Gobardanga, West Bengal 743247, India",
        "types": [
            "political",
            "sublocality",
            "sublocality_level_1"
        ],
        "partial_match": true,
        "geometry": {
            "bounds": {
                "northeast": {
                    "lat": 22.890634,
                    "lng": 88.793982
                },
                "southwest": {
                    "lat": 22.872464,
                    "lng": 88.77849909999999
                }
            },
            "viewport": {
                "northeast": {
                    "lat": 22.890634,
                    "lng": 88.793982
                },
                "southwest": {
                    "lat": 22.872464,
                    "lng": 88.77849909999999
                }
            },
            "location_type": "APPROXIMATE",
            "location": {
                "lat": 22.8819143,
                "lng": 88.7866662
            }
        },
        "address_components": [
            {
                "types": [
                    "political",
                    "sublocality",
                    "sublocality_level_1"
                ],
                "long_name": "Tepul",
                "short_name": "Tepul"
            },
            {
                "types": [
                    "locality",
                    "political"
                ],
                "long_name": "Gobardanga",
                "short_name": "Gobardanga"
            },
            {
                "types": [
                    "administrative_area_level_2",
                    "political"
                ],
                "long_name": "North 24 Parganas",
                "short_name": "North 24 Parganas"
            },
            {
                "types": [
                    "administrative_area_level_1",
                    "political"
                ],
                "long_name": "West Bengal",
                "short_name": "WB"
            },
            {
                "types": [
                    "country",
                    "political"
                ],
                "long_name": "India",
                "short_name": "IN"
            },
            {
                "types": [
                    "postal_code"
                ],
                "long_name": "743247",
                "short_name": "743247"
            }
        ],
        "place_id": "ChIJtY8Pd06z-DkR1-hge9-4X38"
    },
    "Jhaburdi": {
        "formatted_address": "Jhaburdi, West Bengal 723142, India",
        "types": [
            "locality",
            "political"
        ],
        "partial_match": true,
        "geometry": {
            "bounds": {
                "northeast": {
                    "lat": 23.62194,
                    "lng": 86.73284
                },
                "southwest": {
                    "lat": 23.61746,
                    "lng": 86.72726
                }
            },
            "viewport": {
                "northeast": {
                    "lat": 23.62194,
                    "lng": 86.73284
                },
                "southwest": {
                    "lat": 23.61746,
                    "lng": 86.72726
                }
            },
            "location_type": "APPROXIMATE",
            "location": {
                "lat": 23.6196417,
                "lng": 86.7296922
            }
        },
        "address_components": [
            {
                "types": [
                    "locality",
                    "political"
                ],
                "long_name": "Jhaburdi",
                "short_name": "Jhaburdi"
            },
            {
                "types": [
                    "administrative_area_level_2",
                    "political"
                ],
                "long_name": "Purulia",
                "short_name": "Purulia"
            },
            {
                "types": [
                    "administrative_area_level_1",
                    "political"
                ],
                "long_name": "West Bengal",
                "short_name": "WB"
            },
            {
                "types": [
                    "country",
                    "political"
                ],
                "long_name": "India",
                "short_name": "IN"
            },
            {
                "types": [
                    "postal_code"
                ],
                "long_name": "723142",
                "short_name": "723142"
            }
        ],
        "place_id": "ChIJzUZFF0Xv9jkRmRVq-0iAKro"
    },
    "Mohanpur": {
        "geometry": {
            "bounds": {
                "northeast": {
                    "lat": 21.8579937,
                    "lng": 87.43855479999999
                },
                "southwest": {
                    "lat": 21.825369,
                    "lng": 87.40662569999999
                }
            },
            "viewport": {
                "northeast": {
                    "lat": 21.8579937,
                    "lng": 87.43855479999999
                },
                "southwest": {
                    "lat": 21.825369,
                    "lng": 87.40662569999999
                }
            },
            "location_type": "APPROXIMATE",
            "location": {
                "lat": 21.8398171,
                "lng": 87.4232306
            }
        },
        "formatted_address": "Mohanpur, West Bengal, India",
        "types": [
            "locality",
            "political"
        ],
        "place_id": "ChIJA-WbPdgpHToRPRCkel1PMaQ",
        "address_components": [
            {
                "types": [
                    "locality",
                    "political"
                ],
                "long_name": "Mohanpur",
                "short_name": "Mohanpur"
            },
            {
                "types": [
                    "administrative_area_level_2",
                    "political"
                ],
                "long_name": "West Medinipur",
                "short_name": "West Medinipur"
            },
            {
                "types": [
                    "administrative_area_level_1",
                    "political"
                ],
                "long_name": "West Bengal",
                "short_name": "WB"
            },
            {
                "types": [
                    "country",
                    "political"
                ],
                "long_name": "India",
                "short_name": "IN"
            }
        ]
    },
    "Batagachhi": {
        "formatted_address": "Batagachhi, West Bengal 743445, India",
        "types": [
            "locality",
            "political"
        ],
        "partial_match": true,
        "geometry": {
            "bounds": {
                "northeast": {
                    "lat": 22.60701,
                    "lng": 88.7904399
                },
                "southwest": {
                    "lat": 22.5799099,
                    "lng": 88.7698601
                }
            },
            "viewport": {
                "northeast": {
                    "lat": 22.60701,
                    "lng": 88.7904399
                },
                "southwest": {
                    "lat": 22.5799099,
                    "lng": 88.7698601
                }
            },
            "location_type": "APPROXIMATE",
            "location": {
                "lat": 22.589889,
                "lng": 88.77464839999999
            }
        },
        "address_components": [
            {
                "types": [
                    "locality",
                    "political"
                ],
                "long_name": "Batagachhi",
                "short_name": "Batagachhi"
            },
            {
                "types": [
                    "administrative_area_level_2",
                    "political"
                ],
                "long_name": "North 24 Parganas",
                "short_name": "North 24 Parganas"
            },
            {
                "types": [
                    "administrative_area_level_1",
                    "political"
                ],
                "long_name": "West Bengal",
                "short_name": "WB"
            },
            {
                "types": [
                    "country",
                    "political"
                ],
                "long_name": "India",
                "short_name": "IN"
            },
            {
                "types": [
                    "postal_code"
                ],
                "long_name": "743445",
                "short_name": "743445"
            }
        ],
        "place_id": "ChIJZXceWxgAAjoR2IsVV4Hchvo"
    },
    "Malancha": {
        "geometry": {
            "bounds": {
                "northeast": {
                    "lat": 22.50416,
                    "lng": 88.77202
                },
                "southwest": {
                    "lat": 22.49199,
                    "lng": 88.76089999999999
                }
            },
            "viewport": {
                "northeast": {
                    "lat": 22.50416,
                    "lng": 88.77202
                },
                "southwest": {
                    "lat": 22.49199,
                    "lng": 88.76089999999999
                }
            },
            "location_type": "APPROXIMATE",
            "location": {
                "lat": 22.5004512,
                "lng": 88.7674361
            }
        },
        "formatted_address": "Malancha, West Bengal 743425, India",
        "types": [
            "locality",
            "political"
        ],
        "place_id": "ChIJcR9opj8CAjoRhMeSUNb0UhU",
        "address_components": [
            {
                "types": [
                    "locality",
                    "political"
                ],
                "long_name": "Malancha",
                "short_name": "Malancha"
            },
            {
                "types": [
                    "administrative_area_level_2",
                    "political"
                ],
                "long_name": "North 24 Parganas",
                "short_name": "North 24 Parganas"
            },
            {
                "types": [
                    "administrative_area_level_1",
                    "political"
                ],
                "long_name": "West Bengal",
                "short_name": "WB"
            },
            {
                "types": [
                    "country",
                    "political"
                ],
                "long_name": "India",
                "short_name": "IN"
            },
            {
                "types": [
                    "postal_code"
                ],
                "long_name": "743425",
                "short_name": "743425"
            }
        ]
    },
    "Sadiknagar": {
        "formatted_address": "Sadiknagar, West Bengal, India",
        "types": [
            "locality",
            "political"
        ],
        "partial_match": true,
        "geometry": {
            "bounds": {
                "northeast": {
                    "lat": 22.6744,
                    "lng": 88.7646899
                },
                "southwest": {
                    "lat": 22.6455301,
                    "lng": 88.7417799
                }
            },
            "viewport": {
                "northeast": {
                    "lat": 22.6744,
                    "lng": 88.7646899
                },
                "southwest": {
                    "lat": 22.6455301,
                    "lng": 88.7417799
                }
            },
            "location_type": "APPROXIMATE",
            "location": {
                "lat": 22.6597629,
                "lng": 88.7566152
            }
        },
        "address_components": [
            {
                "types": [
                    "locality",
                    "political"
                ],
                "long_name": "Sadiknagar",
                "short_name": "Sadiknagar"
            },
            {
                "types": [
                    "administrative_area_level_2",
                    "political"
                ],
                "long_name": "North 24 Parganas",
                "short_name": "North 24 Parganas"
            },
            {
                "types": [
                    "administrative_area_level_1",
                    "political"
                ],
                "long_name": "West Bengal",
                "short_name": "WB"
            },