{
    "Maheshpur (174)": {
        "address_components": [
            {
                "long_name": "Maheshpur Road",
                "short_name": "Maheshpur Road",
                "types": [
                    "route"
                ]
            },
            {
                "long_name": "West Medinipur",
                "short_name": "West Medinipur",
                "types": [
                    "administrative_area_level_2",
                    "political"
                ]
            },
            {
                "long_name": "West Bengal",
                "short_name": "WB",
                "types": [
                    "administrative_area_level_1",
                    "political"
                ]
            },
            {
                "long_name": "India",
                "short_name": "IN",
                "types": [
                    "country",
                    "political"
                ]
            },
            {
                "long_name": "721301",
                "short_name": "721301",
                "types": [
                    "postal_code"
                ]
            }
        ],
        "place_id": "ChIJO__h9UZDHToR4asdeo5vf04",
        "formatted_address": "Maheshpur Road, West Bengal 721301, India",
        "partial_match": true,
        "geometry": {
            "location_type": "GEOMETRIC_CENTER",
            "location": {
                "lng": 87.2863077,
                "lat": 22.3929979
            },
            "viewport": {
                "northeast": {
                    "lng": 87.2925514,
                    "lat": 22.4017445
                },
                "southwest": {
                    "lng": 87.28153859999999,
                    "lat": 22.3832589
                }
            },
            "bounds": {
                "northeast": {
                    "lng": 87.2925514,
                    "lat": 22.4017445
                },
                "southwest": {
                    "lng": 87.28153859999999,
                    "lat": 22.3832589
                }
            }
        },
        "types": [
            "route"
        ]
    },
    "Sarigari": {
        "address_components": [
            {
                "long_name": "Sarigari",
                "short_name": "Sarigari",
                "types": [
                    "locality",
                    "political"
                ]
            },
            {
                "long_name": "Bankura",
                "short_name": "Bankura",
                "types": [
                    "administrative_area_level_2",
                    "political"
                ]
            },
            {
                "long_name": "West Bengal",
                "short_name": "WB",
                "types": [
                    "administrative_area_level_1",
                    "political"
                ]
            },
            {
                "long_name": "India",
                "short_name": "IN",
                "types": [
                    "country",
                    "political"
                ]
            },
            {
                "long_name": "722134",
                "short_name": "722134",
                "types": [
                    "postal_code"
                ]
            }
        ],
        "formatted_address": "Sarigari, West Bengal 722134, India",
        "place_id": "ChIJV-OT_cnS9zkRRTB7QbIg8VI",
        "geometry": {
            "location_type": "APPROXIMATE",
            "location": {
                "lng": 86.90605710000001,
                "lat": 22.7554016
            },
            "viewport": {
                "northeast": {
                    "lng": 86.92026,
                    "lat": 22.76719
                },
                "southwest": {
                    "lng": 86.89518,
                    "lat": 22.74652
                }
            },
            "bounds": {
                "northeast": {
                    "lng": 86.92026,
                    "lat": 22.76719
                },
                "southwest": {
                    "lng": 86.89518,
                    "lat": 22.74652
                }
            }
        },
        "types": [
            "locality",
            "political"
        ]
    },
    "Adilpur": {
        "address_components": [
            {
                "long_name": "Adilpur",
                "short_name": "Adilpur",
                "types": [
                    "locality",
                    "political"
                ]
            },
            {
                "long_name": "Bardhaman",
                "short_name": "Bardhaman",
                "types": [
                    "administrative_area_level_2",
                    "political"
                ]
            },
            {
                "long_name": "West Bengal",
                "short_name": "WB",
                "types": [
                    "administrative_area_level_1",
                    "political"
                ]
            },
            {
                "long_name": "India",
                "short_name": "IN",
                "types": [
                    "country",
                    "political"
                ]
            }
        ],
        "formatted_address": "Adilpur, West Bengal, India",
        "place_id": "ChIJ5ScCGj07-DkRHpR872GOwVU",
        "geometry": {
            "location_type": "APPROXIMATE",
            "location": {
                "lng": 87.7160302,
                "lat": 23.1143097
            },
            "viewport": {
                "northeast": {
                    "lng": 87.72399999999999,
                    "lat": 23.11923
                },
                "southwest": {
                    "lng": 87.70679009999999,
                    "lat": 23.1086099
                }
            },
            "bounds": {
                "northeast": {
                    "lng": 87.72399999999999,
                    "lat": 23.11923
                },
                "southwest": {
                    "lng": 87.70679009999999,
                    "lat": 23.1086099
                }
            }
        },
        "types": [
            "locality",
            "political"
        ]
    },
    "Jamar": {
        "address_components": [
            {
                "long_name": "Jamar",
                "short_name": "Jamar",
                "types": [
                    "locality",
                    "political"
                ]
            },
            {
                "long_name": "Bardhaman",
                "short_name": "Bardhaman",
                "types": [
                    "administrative_area_level_2",
                    "political"
                ]
            },
            {
                "long_name": "West Bengal",
                "short_name": "WB",
                "types": [
                    "administrative_area_level_1",
                    "political"
                ]
            },
            {
                "long_name": "India",
                "short_name": "IN",
                "types": [
                    "country",
                    "political"
                ]
            },
            {
                "long_name": "713104",
                "short_name": "713104",
                "types": [
                    "postal_code"
                ]
            }
        ],
        "formatted_address": "Jamar, West Bengal 713104, India",
        "place_id": "ChIJl3XF7OFL-DkREYMWiRHee70",
        "geometry": {
            "location_type": "APPROXIMATE",
            "location": {
                "lng": 87.92490049999999,
                "lat": 23.2749276
            },
            "viewport": {
                "northeast": {
                    "lng": 87.9298496,
                    "lat": 23.2815615
                },
                "southwest": {
                    "lng": 87.9180049,
                    "lat": 23.2685125
                }
            },
            "bounds": {
                "northeast": {
                    "lng": 87.9298496,
                    "lat": 23.2815615
                },
                "southwest": {
                    "lng": 87.9180049,
                    "lat": 23.2685125
                }
            }
        },
        "types": [
            "locality",
            "political"
        ]
    },
    "Tungcharar": {
        "address_components": [
            {
                "long_name": "Tung Charar",
                "short_name": "Tung Charar",
                "types": [
                    "locality",
                    "political"
                ]
            },
            {
                "long_name": "Bankura",
                "short_name": "Bankura",
                "types": [
                    "administrative_area_level_2",
                    "political"
                ]
            },
            {
                "long_name": "West Bengal",
                "short_name": "WB",
                "types": [
                    "administrative_area_level_1",
                    "political"
                ]
            },
            {
                "long_name": "India",
                "short_name": "IN",
                "types": [
                    "country",
                    "political"
                ]
            },
            {
                "long_name": "722134",
                "short_name": "722134",
                "types": [
                    "postal_code"
                ]
            }
        ],
        "formatted_address": "Tung Charar, West Bengal 722134, India",
        "place_id": "ChIJDT6Uw4kz9jkRiN7LSbE9Yt0",
        "geometry": {
            "location_type": "APPROXIMATE",
            "location": {
                "lng": 86.84963979999999,
                "lat": 22.8718532
            },
            "viewport": {
                "northeast": {
                    "lng": 86.86376,
                    "lat": 22.88285
                },
                "southwest": {
                    "lng": 86.8335101,
                    "lat": 22.8647601
                }
            },
            "bounds": {
                "northeast": {
                    "lng": 86.86376,
                    "lat": 22.88285
                },
                "southwest": {
                    "lng": 86.8335101,
                    "lat": 22.8647601
                }
            }
        },
        "types": [
            "locality",
            "political"
        ]
    },
    "Rajudi": {
        "address_components": [
            {
                "long_name": "Rajudi",
                "short_name": "Rajudi",
                "types": [
                    "locality",
                    "political"
                ]
            },
            {
                "long_name": "Bankura",
                "short_name": "Bankura",
                "types": [
                    "administrative_area_level_2",
                    "political"
                ]
            },
            {
                "long_name": "West Bengal",
                "short_name": "WB",
                "types": [
                    "administrative_area_level_1",
                    "political"
                ]
            },
            {
                "long_name": "India",
                "short_name": "IN",
                "types": [
                    "country",
                    "political"
                ]
            }
        ],
        "formatted_address": "Rajudi, West Bengal, India",
        "place_id": "ChIJ13B0_Y9N9jkREPmJQqvAAeM",
        "geometry": {
            "location_type": "APPROXIMATE",
            "location": {
                "lng": 86.853403,
                "lat": 23.1471395
            },
            "viewport": {
                "northeast": {
                    "lng": 86.8596,
                    "lat": 23.1568601
                },
                "southwest": {
                    "lng": 86.8437199,
                    "lat": 23.1404799
                }
            },
            "bounds": {
                "northeast": {
                    "lng": 86.8596,
                    "lat": 23.1568601
                },
                "southwest": {
                    "lng": 86.8437199,
                    "lat": 23.1404799
                }
            }
        },
        "types": [
            "locality",
            "political"
        ]
    },
    "Bajar": {
        "address_components": [
            {
                "long_name": "Baranagar Bajar",
                "short_name": "Baranagar Bajar",
                "types": [
                    "locality",
                    "political"
                ]
            },
            {
                "long_name": "Purba Medinipur",
                "short_name": "Purba Medinipur",
                "types": [
                    "administrative_area_level_2",
                    "political"
                ]
            },
            {
                "long_name": "West Bengal",
                "short_name": "WB",
                "types": [
                    "administrative_area_level_1",
                    "political"
                ]
            },
            {
                "long_name": "India",
                "short_name": "IN",
                "types": [
                    "country",
                    "political"
                ]
            },
            {
                "long_name": "721634",
                "short_name": "721634",
                "types": [
                    "postal_code"
                ]
            }
        ],
        "place_id": "ChIJa1-mgw-7AjoRNsmzrtBNfN4",
        "formatted_address": "Baranagar Bajar, West Bengal 721634, India",
        "partial_match": true,
        "geometry": {
            "location_type": "APPROXIMATE",
            "location": {
                "lng": 87.7480377,
                "lat": 22.3763061
            },
            "viewport": {
                "northeast": {
                    "lng": 87.75178,
                    "lat": 22.37912
                },
                "southwest": {
                    "lng": 87.74273,
                    "lat": 22.3709801
                }
            },
            "bounds": {
                "northeast": {
                    "lng": 87.75178,
                    "lat": 22.37912
                },
                "southwest": {
                    "lng": 87.74273,
                    "lat": 22.3709801
                }
            }
        },
        "types": [
            "locality",
            "political"
        ]
    },
    "Salanpur": {
        "address_components": [
            {
                "long_name": "Salanpur",
                "short_name": "Salanpur",
                "types": [
                    "locality",
                    "political"
                ]
            },
            {
                "long_name": "Bardhaman",
                "short_name": "Bardhaman",
                "types": [
                    "administrative_area_level_2",
                    "political"
                ]
            },
            {
                "long_name": "West Bengal",
                "short_name": "WB",
                "types": [
                    "administrative_area_level_1",
                    "political"
                ]
            },
            {
                "long_name": "India",
                "short_name": "IN",
                "types": [
                    "country",
                    "political"
                ]
            }
        ],
        "formatted_address": "Salanpur, West Bengal, India",
        "place_id": "ChIJmwV4qKTf9jkRykMAMUBDi8w",
        "geometry": {
            "location_type": "APPROXIMATE",
            "location": {
                "lng": 86.8772298,
                "lat": 23.7735051
            },
            "viewport": {
                "northeast": {
                    "lng": 86.8882799,
                    "lat": 23.78353
                },
                "southwest": {
                    "lng": 86.8659401,
                    "lat": 23.75307
                }
            },
            "bounds": {
                "northeast": {
                    "lng": 86.8882799,
                    "lat": 23.78353
                },
                "southwest": {
                    "lng": 86.8659401,
                    "lat": 23.75307
                }
            }
        },
        "types": [
            "locality",
            "political"
        ]
    },
    "Bhelaidiha": {
        "address_components": [
            {
                "long_name": "Bhelaidiha",
                "short_name": "Bhelaidiha",
                "types": [
                    "locality",
                    "political"
                ]
            },
            {
                "long_name": "West Medinipur",
                "short_name": "West Medinipur",
                "types": [
                    "administrative_area_level_2",
                    "political"
                ]
            },
            {
                "long_name": "West Bengal",
                "short_name": "WB",
                "types": [
                    "administrative_area_level_1",
                    "political"
                ]
            },
            {
                "long_name": "India",
                "short_name": "IN",
                "types": [
                    "country",
                    "political"
                ]
            },
            {
                "long_name": "721515",
                "short_name": "721515",
                "types": [
                    "postal_code"
                ]
            }
        ],
        "formatted_address": "Bhelaidiha, West Bengal 721515, India",
        "place_id": "ChIJOdP3VKWAHToRrnK32hO5cjQ",
        "geometry": {
            "location_type": "APPROXIMATE",
            "location": {
                "lng": 86.8327018,
                "lat": 22.5776232
            },
            "viewport": {
                "northeast": {
                    "lng": 86.83537,
                    "lat": 22.5795299
                },
                "southwest": {
                    "lng": 86.82919,
                    "lat": 22.5745799
                }
            },
            "bounds": {
                "northeast": {
                    "lng": 86.83537,
                    "lat": 22.5795299
                },
                "southwest": {
                    "lng": 86.82919,
                    "lat": 22.5745799
                }
            }
        },
        "types": [
            "locality",
            "political"
        ]
    },
    "Jugibaid": {
        "address_components": [
            {
                "long_name": "Jugibaid",
                "short_name": "Jugibaid",
                "types": [
                    "locality",
                    "political"
                ]
            },
            {
                "long_name": "Bankura",
                "short_name": "Bankura",
                "types": [
                    "administrative_area_level_2",
                    "political"
                ]
            },
            {
                "long_name": "West Bengal",
                "short_name": "WB",
                "types": [
                    "administrative_area_level_1",
                    "political"
                ]
            },
            {
                "long_name": "India",
                "short_name": "IN",
                "types": [
                    "country",
                    "political"
                ]
            },
            {
                "long_name": "722121",
                "short_name": "722121",
                "types": [
                    "postal_code"
                ]
            }
        ],
        "formatted_address": "Jugibaid, West Bengal 722121, India",
        "place_id": "ChIJs0OGKY-z9zkR88yD52KV5VQ",
        "geometry": {
            "location_type": "APPROXIMATE",
            "location": {
                "lng": 86.9561506,
                "lat": 23.0688199
            },
            "viewport": {
                "northeast": {
                    "lng": 86.96177329999999,
                    "lat": 23.0745004
                },
                "southwest": {
                    "lng": 86.9485474,
                    "lat": 23.0663275
                }
            },
            "bounds": {
                "northeast": {
                    "lng": 86.96177329999999,
                    "lat": 23.0745004
                },
                "southwest": {
                    "lng": 86.9485474,
                    "lat": 23.0663275
                }
            }
        },
        "types": [
            "locality",
            "political"
        ]
    },
    "Belkash": {
        "address_components": [
            {
                "long_name": "Belkash",
                "short_name": "Belkash",
                "types": [
                    "locality",
                    "political"
                ]
            },
            {
                "long_name": "Bardhaman",
                "short_name": "Bardhaman",
                "types": [
                    "administrative_area_level_2",
                    "political"
                ]
            },
            {
                "long_name": "West Bengal",
                "short_name": "WB",
                "types": [
                    "administrative_area_level_1",
                    "political"
                ]
            },
            {
                "long_name": "India",
                "short_name": "IN",
                "types": [
                    "country",
                    "political"
                ]
            },
            {
                "long_name": "713102",
                "short_name": "713102",
                "types": [
                    "postal_code"
                ]
            }
        ],
        "formatted_address": "Belkash, West Bengal 713102, India",
        "place_id": "ChIJg2KlyKM2-DkRQMOU8Ic5Ceg",
        "geometry": {
            "location_type": "APPROXIMATE",
            "location": {
                "lng": 87.793548,
                "lat": 23.2627297
            },
            "viewport": {
                "northeast": {
                    "lng": 87.80391999999999,
                    "lat": 23.27386
                },
                "southwest": {
                    "lng": 87.78201,
                    "lat": 23.25521
                }
            },
            "bounds": {
                "northeast": {
                    "lng": 87.80391999999999,
                    "lat": 23.27386
                },
                "southwest": {
                    "lng": 87.78201,
                    "lat": 23.25521
                }
            }
        },
        "types": [
            "locality",
            "political"
        ]
    },
    "Aswinkota": {
        "address_components": [
            {
                "long_name": "Aswinkota",
                "short_name": "Aswinkota",
                "types": [
                    "locality",
                    "political"
                ]
            },
            {
                "long_name": "Bankura",
                "short_name": "Bankura",
                "types": [
                    "administrative_area_level_2",
                    "political"
                ]
            },
            {
                "long_name": "West Bengal",
                "short_name": "WB",
                "types": [
                    "administrative_area_level_1",
                    "political"
                ]
            },
            {
                "long_name": "India",
                "short_name": "IN",
                "types": [
                    "country",
                    "political"
                ]
            },
            {
                "long_name": "722161",
                "short_name": "722161",
                "types": [
                    "postal_code"
                ]
            }
        ],
        "formatted_address": "Aswinkota, West Bengal 722161, India",
        "place_id": "ChIJ40oFYmH19zkRgm84B8PYBFU",
        "geometry": {
            "location_type": "APPROXIMATE",
            "location": {
                "lng": 87.5371129,
                "lat": 22.9553695
            },
            "viewport": {
                "northeast": {
                    "lng": 87.55009,
                    "lat": 22.9658599
                },
                "southwest": {
                    "lng": 87.52235,
                    "lat": 22.93899
                }
            },
            "bounds": {
                "northeast": {
                    "lng": 87.55009,
                    "lat": 22.9658599
                },
                "southwest": {
                    "lng": 87.52235,
                    "lat": 22.93899
                }
            }
        },
        "types": [
            "locality",
            "political"
        ]
    },
    "Banamalipur": {
        "address_components": [
            {
                "long_name": "Banamalipur",
                "short_name": "Banamalipur",
                "types": [
                    "locality",
                    "political"
                ]
            },
            {
                "long_name": "Hooghly",
                "short_name": "Hooghly",
                "types": [
                    "administrative_area_level_2",
                    "political"
                ]
            },
            {
                "long_name": "West Bengal",
                "short_name": "WB",
                "types": [
                    "administrative_area_level_1",
                    "political"
                ]
            },
            {
                "long_name": "India",
                "short_name": "IN",
                "types": [
                    "country",
                    "political"
                ]
            }
        ],
        "formatted_address": "Banamalipur, West Bengal, India",
        "place_id": "ChIJI-7cAq-H-DkRVBBAmTDmefU",
        "geometry": {
            "location_type": "APPROXIMATE",
            "location": {
                "lng": 88.1949782,
                "lat": 22.7616738
            },
            "viewport": {
                "northeast": {
                    "lng": 88.20987,
                    "lat": 22.77083
                },
                "southwest": {
                    "lng": 88.18959,
                    "lat": 22.7512899
                }
            },
            "bounds": {
                "northeast": {
                    "lng": 88.20987,
                    "lat": 22.77083
                },
                "southwest": {
                    "lng": 88.18959,
                    "lat": 22.7512899
                }
            }
        },
        "types": [
            "locality",
            "political"
        ]
    },
    "Maheshnandi": {
        "address_components": [
            {
                "long_name": "Mahesnandi",
                "short_name": "Mahesnandi",
                "types": [
                    "locality",
                    "political"
                ]
            },
            {
                "long_name": "Bankura",
                "short_name": "Bankura",
                "types": [
                    "administrative_area_level_2",
                    "political"
                ]
            },
            {
                "long_name": "West Bengal",
                "short_name": "WB",
                "types": [
                    "administrative_area_level_1",
                    "political"
                ]
            },
            {
                "long_name": "India",
                "short_name": "IN",
                "types": [
                    "country",
                    "political"
                ]
            },
            {
                "long_name": "722206",
                "short_name": "722206",
                "types": [
                    "postal_code"
                ]
            }
        ],
        "place_id": "ChIJxQ9-AieI9zkRcM6Ftg20jOU",
        "formatted_address": "Mahesnandi, West Bengal 722206, India",
        "partial_match": true,
        "geometry": {
            "location_type": "APPROXIMATE",
            "location": {
                "lng": 87.5334038,
                "lat": 23.1413355
            },
            "viewport": {
                "northeast": {
                    "lng": 87.54673,
                    "lat": 23.1524301
                },
                "southwest": {
                    "lng": 87.52753,
                    "lat": 23.12849
                }
            },
            "bounds": {
                "northeast": {
                    "lng": 87.54673,
                    "lat": 23.1524301
                },
                "southwest": {
                    "lng": 87.52753,
                    "lat": 23.12849
                }
            }
        },
        "types": [
            "locality",
            "political"
        ]
    },
    "Tiura": {
        "address_components": [
            {
                "long_name": "Tiura",
                "short_name": "Tiura",
                "types": [
                    "locality",
                    "political"
                ]
            },
            {
                "long_name": "Bankura",
                "short_name": "Bankura",
                "types": [
                    "administrative_area_level_2",
                    "political"
                ]
            },
            {
                "long_name": "West Bengal",
                "short_name": "WB",
                "types": [
                    "administrative_area_level_1",
                    "political"
                ]
            },
            {
                "long_name": "India",
                "short_name": "IN",
                "types": [
                    "country",
                    "political"
                ]
            },
            {
                "long_name": "722207",
                "short_name": "722207",
                "types": [
                    "postal_code"
                ]
            }
        ],
        "formatted_address": "Tiura, West Bengal 722207, India",
        "place_id": "ChIJcXEEtqmc9zkRT6T0WPFh3cg",
        "geometry": {
            "location_type": "APPROXIMATE",
            "location": {
                "lng": 87.3736292,
                "lat": 23.2682018
            },
            "viewport": {
                "northeast": {
                    "lng": 87.38712,
                    "lat": 23.27788
                },
                "southwest": {
                    "lng": 87.3608101,
                    "lat": 23.25561
                }
            },
            "bounds": {
                "northeast": {
                    "lng": 87.38712,
                    "lat": 23.27788
                },
                "southwest": {
                    "lng": 87.3608101,
                    "lat": 23.25561
                }
            }
        },
        "types": [
            "locality",
            "political"
        ]
    },
    "Chakdaha": {
        "address_components": [
            {
                "long_name": "Chakdaha",
                "short_name": "Chakdaha",
                "types": [
                    "locality",
                    "political"
                ]
            },
            {
                "long_name": "Nadia",
                "short_name": "Nadia",
                "types": [
                    "administrative_area_level_2",
                    "political"
                ]
            },
            {
                "long_name": "West Bengal",
                "short_name": "WB",
                "types": [
                    "administrative_area_level_1",
                    "political"
                ]
            },
            {
                "long_name": "India",
                "short_name": "IN",
                "types": [
                    "country",
                    "political"
                ]
            }
        ],
        "formatted_address": "Chakdaha, West Bengal, India",
        "place_id": "ChIJRdyYKFHB-DkRGIEV2JTc3oI",
        "geometry": {
            "location_type": "APPROXIMATE",
            "location": {
                "lng": 88.5130144,
                "lat": 23.047858
            },
            "viewport": {
                "northeast": {
                    "lng": 88.5450219,
                    "lat": 23.0999436
                },
                "southwest": {
                    "lng": 88.49774029999999,
                    "lat": 23.0263409
                }
            },
            "bounds": {
                "northeast": {
                    "lng": 88.5450219,
                    "lat": 23.0999436
                },
                "southwest": {
                    "lng": 88.49774029999999,
                    "lat": 23.0263409
                }
            }
        },
        "types": [
            "locality",
            "political"
        ]
    },
    "Ela": {
        "address_components": [
            {
                "long_name": "Ela",
                "short_name": "Ela",
                "types": [
                    "locality",
                    "political"
                ]
            },
            {
                "long_name": "West Medinipur",
                "short_name": "West Medinipur",
                "types": [
                    "administrative_area_level_2",
                    "political"
                ]
            },
            {
                "long_name": "West Bengal",
                "short_name": "WB",
                "types": [
                    "administrative_area_level_1",
                    "political"
                ]
            },
            {
                "long_name": "India",
                "short_name": "IN",
                "types": [
                    "country",
                    "political"
                ]
            },
            {
                "long_name": "721301",
                "short_name": "721301",
                "types": [
                    "postal_code"
                ]
            }
        ],
        "formatted_address": "Ela, West Bengal 721301, India",
        "place_id": "ChIJtSarxT1IHToROV1Vn7tDjY4",
        "geometry": {
            "location_type": "APPROXIMATE",
            "location": {
                "lng": 87.4027764,
                "lat": 22.2349063
            },
            "viewport": {
                "northeast": {
                    "lng": 87.40548,
                    "lat": 22.2388201
                },
                "southwest": {
                    "lng": 87.39976999999999,
                    "lat": 22.23059
                }
            },
            "bounds": {
                "northeast": {
                    "lng": 87.40548,
                    "lat": 22.2388201
                },
                "southwest": {
                    "lng": 87.39976999999999,
                    "lat": 22.23059
                }
            }
        },
        "types": [
            "locality",
            "political"
        ]
    },
    "Baktarpur": {
        "address_components": [
            {
                "long_name": "Baktarpur",
                "short_name": "Baktarpur",
                "types": [
                    "locality",
                    "political"
                ]
            },
            {
                "long_name": "Bankura",
                "short_name": "Bankura",
                "types": [
                    "administrative_area_level_2",
                    "political"
                ]
            },
            {
                "long_name": "West Bengal",
                "short_name": "WB",
                "types": [
                    "administrative_area_level_1",
                    "political"
                ]
            },
            {
                "long_name": "India",
                "short_name": "IN",
                "types": [
                    "country",
                    "political"
                ]
            },
            {
                "long_name": "722201",
                "short_name": "722201",
                "types": [
                    "postal_code"
                ]
            }
        ],
        "formatted_address": "Baktarpur, West Bengal 722201, India",
        "place_id": "ChIJ-9WmhFAj-DkRioU-KzDTOG8",
        "geometry": {
            "location_type": "APPROXIMATE",
            "location": {
                "lng": 87.68892919999999,
                "lat": 23.0722469
            },
            "viewport": {
                "northeast": {
                    "lng": 87.69098269999999,
                    "lat": 23.076218
                },
                "southwest": {
                    "lng": 87.68536089999999,
                    "lat": 23.0668209
                }
            },
            "bounds": {
                "northeast": {
                    "lng": 87.69098269999999,
                    "lat": 23.076218
                },
                "southwest": {
                    "lng": 87.68536089999999,
                    "lat": 23.0668209
                }
            }
        },
        "types": [
            "locality",
            "political"
        ]
    },
    "Satgechhe": {
        "address_components": [
            {
                "long_name": "Satgechhe",
                "short_name": "Satgechhe",
                "types": [
                    "locality",
                    "political"
                ]
            },
            {
                "long_name": "Bankura",
                "short_name": "Bankura",
                "types": [
                    "administrative_area_level_2",
                    "political"
                ]
            },
            {
                "long_name": "West Bengal",
                "short_name": "WB",
                "types": [
                    "administrative_area_level_1",
                    "political"
                ]
            },
            {
                "long_name": "India",
                "short_name": "IN",
                "types": [
                    "country",
                    "political"
                ]
            }
        ],
        "place_id": "ChIJkXE73JeF9zkRoXVAeT1CA_o",
        "formatted_address": "Satgechhe, West Bengal, India",
        "partial_match": true,
        "geometry": {
            "location_type": "APPROXIMATE",
            "location": {
                "lng": 87.4356227,
                "lat": 23.1888832
            },
            "viewport": {
                "northeast": {
                    "lng": 87.45202990000001,
                    "lat": 23.22663
                },
                "southwest": {
                    "lng": 87.4122,
                    "lat": 23.1620699
                }
            },
            "bounds": {
                "northeast": {
                    "lng": 87.45202990000001,
                    "lat": 23.22663
                },
                "southwest": {
                    "lng": 87.4122,
                    "lat": 23.1620699
                }
            }
        },
        "types": [
            "locality",
            "political"
        ]
    },
    "Khejurbedia": {
        "address_components": [
            {
                "long_name": "Khejurbedia",
                "short_name": "Khejurbedia",
                "types": [
                    "locality",
                    "political"
                ]
            },
            {
                "long_name": "Bankura",
                "short_name": "Bankura",
                "types": [
                    "administrative_area_level_2",
                    "political"
                ]
            },
            {
                "long_name": "West Bengal",
                "short_name": "WB",
                "types": [
                    "administrative_area_level_1",
                    "political"
                ]
            },
            {
                "long_name": "India",
                "short_name": "IN",
                "types": [
                    "country",
                    "political"
                ]
            },
            {
                "long_name": "722134",
                "short_name": "722134",
                "types": [
                    "postal_code"
                ]
            }
        ],
        "place_id": "ChIJS1wMam4z9jkRMCps76c4J-g",
        "formatted_address": "Khejurbedia, West Bengal 722134, India",
        "partial_match": true,
        "geometry": {
            "location_type": "APPROXIMATE",
            "location": {
                "lng": 86.8734685,
                "lat": 22.85893
            },
            "viewport": {
                "northeast": {
                    "lng": 86.87872010000001,
                    "lat": 22.8689499
                },
                "southwest": {
                    "lng": 86.86871,
                    "lat": 22.8488599
                }
            },
            "bounds": {
                "northeast": {
                    "lng": 86.87872010000001,
                    "lat": 22.8689499
                },
                "southwest": {
                    "lng": 86.86871,
                    "lat": 22.8488599
                }
            }
        },
        "types": [
            "locality",
            "political"
        ]
    },
    "Madhabbati": {
        "address_components": [
            {
                "long_name": "Madhabbati",
                "short_name": "Madhabbati",
                "types": [
                    "locality",
                    "political"
                ]
            },
            {
                "long_name": "Malda",
                "short_name": "Malda",
                "types": [
                    "administrative_area_level_2",
                    "political"
                ]
            },
            {
                "long_name": "West Bengal",
                "short_name": "WB",
                "types": [
                    "administrative_area_level_1",
                    "political"
                ]
            },
            {
                "long_name": "India",
                "short_name": "IN",
                "types": [
                    "country",
                    "political"
                ]
            }
        ],
        "place_id": "ChIJi94kBjM--zkRJg2NbaVft-E",
        "formatted_address": "Madhabbati, West Bengal, India",
        "partial_match": true,
        "geometry": {
            "location_type": "APPROXIMATE",
            "location": {
                "lng": 88.4391768,
                "lat": 25.2918426
            },
            "viewport": {
                "northeast": {
                    "lng": 88.44736999999999,
                    "lat": 25.2960701
                },
                "southwest": {
                    "lng": 88.4289599,
                    "lat": 25.28603
                }
            },
            "bounds": {
                "northeast": {
                    "lng": 88.44736999999999,
                    "lat": 25.2960701
                },
                "southwest": {
                    "lng": 88.4289599,
                    "lat": 25.28603
                }
            }
        },
        "types": [
            "locality",
            "political"
        ]
    },
    "Chaltha": {
        "address_components": [
            {
                "long_name": "Chaltha",
                "short_name": "Chaltha",
                "types": [
                    "locality",
                    "political"
                ]
            },
            {
                "long_name": "Bankura",
                "short_name": "Bankura",
                "types": [
                    "administrative_area_level_2",
                    "political"
                ]
            },
            {
                "long_name": "West Bengal",
                "short_name": "WB",
                "types": [
                    "administrative_area_level_1",
                    "political"
                ]
            },
            {
                "long_name": "India",
                "short_name": "IN",
                "types": [
                    "country",
                    "political"
                ]
            },
            {
                "long_name": "722148",
                "short_name": "722148",
                "types": [
                    "postal_code"
                ]
            }
        ],
        "formatted_address": "Chaltha, West Bengal 722148, India",
        "place_id": "ChIJN_RpB6cw9jkR074HH4IY2R8",
        "geometry": {
            "location_type": "APPROXIMATE",
            "location": {
                "lng": 86.7391229,
                "lat": 22.8577345
            },
            "viewport": {
                "northeast": {
                    "lng": 86.75574000000002,
                    "lat": 22.8644701
                },
                "southwest": {
                    "lng": 86.73177,
                    "lat": 22.85105
                }
            },
            "bounds": {
                "northeast": {
                    "lng": 86.75574000000002,
                    "lat": 22.8644701
                },
                "southwest": {
                    "lng": 86.73177,
                    "lat": 22.85105
                }
            }
        },
        "types": [
            "locality",
            "political"
        ]
    },
    "Chhendapathar": {
        "address_components": [
            {
                "long_name": "Chhenda Pathar",
                "short_name": "Chhenda Pathar",
                "types": [
                    "locality",
                    "political"
                ]
            },
            {
                "long_name": "Bankura",
                "short_name": "Bankura",
                "types": [
                    "administrative_area_level_2",
                    "political"
                ]
            },
            {
                "long_name": "West Bengal",
                "short_name": "WB",
                "types": [
                    "administrative_area_level_1",
                    "political"
                ]
            },
            {
                "long_name": "India",
                "short_name": "IN",
                "types": [
                    "country",
                    "political"
                ]
            },
            {
                "long_name": "722148",
                "short_name": "722148",
                "types": [
                    "postal_code"
                ]
            }
        ],
        "formatted_address": "Chhenda Pathar, West Bengal 722148, India",
        "place_id": "ChIJPyJUM-kv9jkReN7frE1wQmI",
        "geometry": {
            "location_type": "APPROXIMATE",
            "location": {
                "lng": 86.7542081,
                "lat": 22.7628178
            },
            "viewport": {
                "northeast": {
                    "lng": 86.76478,
                    "lat": 22.7688701
                },
                "southwest": {
                    "lng": 86.7487,
                    "lat": 22.75467
                }
            },
            "bounds": {
                "northeast": {
                    "lng": 86.76478,
                    "lat": 22.7688701
                },
                "southwest": {
                    "lng": 86.7487,
                    "lat": 22.75467
                }
            }
        },
        "types": [
            "locality",
            "political"
        ]
    },
    "Nandipara": {
        "address_components": [
            {
                "long_name": "Nandi Para",
                "short_name": "Nandi Para",
                "types": [
                    "locality",
                    "political"
                ]
            },
            {
                "long_name": "Bankura",
                "short_name": "Bankura",
                "types": [
                    "administrative_area_level_2",
                    "political"
                ]
            },
            {
                "long_name": "West Bengal",
                "short_name": "WB",
                "types": [
                    "administrative_area_level_1",
                    "political"
                ]
            },
            {
                "long_name": "India",
                "short_name": "IN",
                "types": [
                    "country",
                    "political"
                ]
            },
            {
                "long_name": "722205",
                "short_name": "722205",
                "types": [
                    "postal_code"
                ]
            }
        ],
        "formatted_address": "Nandi Para, West Bengal 722205, India",
        "place_id": "ChIJFw7_atYl-DkRl0J1vPYEEpI",
        "geometry": {
            "location_type": "APPROXIMATE",
            "location": {
                "lng": 87.6223402,
                "lat": 23.1337665
            },
            "viewport": {
                "northeast": {
                    "lng": 87.62612999999999,
                    "lat": 23.14404
                },
                "southwest": {
                    "lng": 87.61390999999999,
                    "lat": 23.12308
                }
            },
            "bounds": {
                "northeast": {
                    "lng": 87.62612999999999,
                    "lat": 23.14404
                },
                "southwest": {
                    "lng": 87.61390999999999,
                    "lat": 23.12308
                }
            }
        },
        "types": [
            "locality",
            "political"
        ]
    },
    "Nagatentul": {
        "address_components": [
            {
                "long_name": "Naga Tentul",
                "short_name": "Naga Tentul",
                "types": [
                    "locality",
                    "political"
                ]
            },
            {
                "long_name": "Hooghly",
                "short_name": "Hooghly",
                "types": [
                    "administrative_area_level_2",
                    "political"
                ]
            },
            {
                "long_name": "West Bengal",
                "short_name": "WB",
                "types": [
                    "administrative_area_level_1",
                    "political"
                ]
            },
            {
                "long_name": "India",
                "short_name": "IN",
                "types": [
                    "country",
                    "political"
                ]
            }
        ],
        "formatted_address": "Naga Tentul, West Bengal, India",
        "place_id": "ChIJfQj6oSM9-DkRHjmF4yakx58",
        "geometry": {
            "location_type": "APPROXIMATE",
            "location": {
                "lng": 87.7147986,
                "lat": 23.0235063
            },
            "viewport": {
                "northeast": {
                    "lng": 87.72492,
                    "lat": 23.03657
                },
                "southwest": {
                    "lng": 87.70228999999999,
                    "lat": 23.0111001
                }
            },
            "bounds": {
                "northeast": {
                    "lng": 87.72492,
                    "lat": 23.03657
                },
                "southwest": {
                    "lng": 87.70228999999999,
                    "lat": 23.0111001
                }
            }
        },
        "types": [
            "locality",
            "political"
        ]
    },
    "Tentral": {
        "address_components": [
            {
                "long_name": "Tentral",
                "short_name": "Tentral",
                "types": [
                    "locality",
                    "political"
                ]
            },
            {
                "long_name": "Bardhaman",
                "short_name": "Bardhaman",
                "types": [
                    "administrative_area_level_2",
                    "political"
                ]
            },
            {
                "long_name": "West Bengal",
                "short_name": "WB",
                "types": [
                    "administrative_area_level_1",
                    "political"
                ]
            },
            {
                "long_name": "India",
                "short_name": "IN",
                "types": [
                    "country",
                    "political"
                ]
            },
            {
                "long_name": "713104",
                "short_name": "713104",
                "types": [
                    "postal_code"
                ]
            }
        ],
        "formatted_address": "Tentral, West Bengal 713104, India",
        "place_id": "ChIJL64O-ltK-DkRfe0yvdwM82g",
        "geometry": {
            "location_type": "APPROXIMATE",
            "location": {
                "lng": 87.88074999999999,
                "lat": 23.3160032
            },
            "viewport": {
                "northeast": {
                    "lng": 87.88766,
                    "lat": 23.3193201
                },
                "southwest": {
                    "lng": 87.87210999999999,
                    "lat": 23.3082499
                }
            },
            "bounds": {
                "northeast": {
                    "lng": 87.88766,
                    "lat": 23.3193201
                },
                "southwest": {
                    "lng": 87.87210999999999,
                    "lat": 23.3082499
                }
            }
        },
        "types": [
            "locality",
            "political"
        ]
    },
    "Kadamdahara": {
        "address_components": [
            {
                "long_name": "Kadamdahara",
                "short_name": "Kadamdahara",
                "types": [
                    "locality",
                    "political"
                ]
            },
            {
                "long_name": "Bankura",
                "short_name": "Bankura",
                "types": [
                    "administrative_area_level_2",
                    "political"
                ]
            },
            {
                "long_name": "West Bengal",
                "short_name": "WB",
                "types": [
                    "administrative_area_level_1",
                    "political"
                ]
            },
            {
                "long_name": "India",
                "short_name": "IN",
                "types": [
                    "country",
                    "political"
                ]
            },
            {
                "long_name": "722150",
                "short_name": "722150",
                "types": [
                    "postal_code"
                ]
            }
        ],
        "formatted_address": "Kadamdahara, West Bengal 722150, India",
        "place_id": "ChIJHbMHQVnM9zkR3J6VNCj1e48",
        "geometry": {
            "location_type": "APPROXIMATE",
            "location": {
                "lng": 86.9461361,
                "lat": 22.8454543
            },
            "viewport": {
                "northeast": {
                    "lng": 86.95051,
                    "lat": 22.8498299
                },
                "southwest": {
                    "lng": 86.94214010000002,
                    "lat": 22.84148
                }
            },
            "bounds": {
                "northeast": {
                    "lng": 86.95051,
                    "lat": 22.8498299
                },
                "southwest": {
                    "lng": 86.94214010000002,
                    "lat": 22.84148
                }
            }
        },
        "types": [
            "locality",
            "political"
        ]
    },
    "Jagatpur": {
        "address_components": [
            {
                "long_name": "Jagatpur",
                "short_name": "Jagatpur",
                "types": [
                    "locality",
                    "political"
                ]
            },
            {
                "long_name": "Hooghly",
                "short_name": "Hooghly",
                "types": [
                    "administrative_area_level_2",
                    "political"
                ]
            },
            {
                "long_name": "West Bengal",
                "short_name": "WB",
                "types": [
                    "administrative_area_level_1",
                    "political"
                ]
            },
            {
                "long_name": "India",
                "short_name": "IN",
                "types": [
                    "country",
                    "political"
                ]
            },
            {
                "long_name": "712417",
                "short_name": "712417",
                "types": [
                    "postal_code"
                ]
            }
        ],
        "formatted_address": "Jagatpur, West Bengal 712417, India",
        "place_id": "ChIJR4tglpIK-DkRJoXJmKDPHzQ",
        "geometry": {
            "location_type": "APPROXIMATE",
            "location": {
                "lng": 87.8205864,
                "lat": 22.6230183
            },
            "viewport": {
                "northeast": {
                    "lng": 87.8413999,
                    "lat": 22.6431701
                },
                "southwest": {
                    "lng": 87.8113,
                    "lat": 22.61161
                }
            },
            "bounds": {
                "northeast": {
                    "lng": 87.8413999,
                    "lat": 22.6431701
                },
                "southwest": {
                    "lng": 87.8113,
                    "lat": 22.61161
                }
            }
        },
        "types": [
            "locality",
            "political"
        ]
    },
    "Gopinathpur": {
        "address_components": [
            {
                "long_name": "Paschim Gopinathpur",
                "short_name": "Paschim Gopinathpur",
                "types": [
                    "locality",
                    "political"
                ]
            },
            {
                "long_name": "Hooghly",
                "short_name": "Hooghly",
                "types": [
                    "administrative_area_level_2",
                    "political"
                ]
            },
            {
                "long_name": "West Bengal",
                "short_name": "WB",
                "types": [
                    "administrative_area_level_1",
                    "political"
                ]
            },
            {
                "long_name": "India",
                "short_name": "IN",
                "types": [
                    "country",
                    "political"
                ]
            },
            {
                "long_name": "712403",
                "short_name": "712403",
                "types": [
                    "postal_code"
                ]
            }
        ],
        "formatted_address": "Paschim Gopinathpur, West Bengal 712403, India",
        "place_id": "ChIJsdefLNZk-DkRDO-UcbJVz18",
        "geometry": {
            "location_type": "APPROXIMATE",
            "location": {
                "lng": 88.0534236,
                "lat": 22.8076683
            },
            "viewport": {
                "northeast": {
                    "lng": 88.05904,
                    "lat": 22.8187799
                },
                "southwest": {
                    "lng": 88.04352999999999,
                    "lat": 22.7963001
                }
            },
            "bounds": {
                "northeast": {
                    "lng": 88.05904,
                    "lat": 22.8187799
                },
                "southwest": {
                    "lng": 88.04352999999999,
                    "lat": 22.7963001
                }
            }
        },
        "types": [
            "locality",
            "political"
        ]
    },
    "Rangamati": {
        "address_components": [
            {
                "long_name": "Rangamati",
                "short_name": "Rangamati",
                "types": [
                    "locality",
                    "political"
                ]
            },
            {
                "long_name": "Purulia",
                "short_name": "Purulia",
                "types": [
                    "administrative_area_level_2",
                    "political"
                ]
            },
            {
                "long_name": "West Bengal",
                "short_name": "WB",
                "types": [
                    "administrative_area_level_1",
                    "political"
                ]
            },
            {
                "long_name": "India",
                "short_name": "IN",
                "types": [
                    "country",
                    "political"
                ]
            },
            {
                "long_name": "723201",
                "short_name": "723201",
                "types": [
                    "postal_code"
                ]
            }
        ],
        "formatted_address": "Rangamati, West Bengal 723201, India",
        "place_id": "ChIJs6sE7kwr9DkRxX12_jzfouQ",
        "geometry": {
            "location_type": "APPROXIMATE",
            "location": {
                "lng": 86.1929747,
                "lat": 23.33331
            },
            "viewport": {
                "northeast": {
                    "lng": 86.20361880000002,
                    "lat": 23.3429488
                },
                "southwest": {
                    "lng": 86.1776785,
                    "lat": 23.3189055
                }
            },
            "bounds": {
                "northeast": {
                    "lng": 86.20361880000002,
                    "lat": 23.3429488
                },
                "southwest": {
                    "lng": 86.1776785,
                    "lat": 23.3189055
                }
            }
        },
        "types": [
            "locality",
            "political"
        ]
    },
    "Hariharganj": {
        "address_components": [
            {
                "long_name": "Hariharganj",
                "short_name": "Hariharganj",
                "types": [
                    "locality",
                    "political"
                ]
            },
            {
                "long_name": "Bankura",
                "short_name": "Bankura",
                "types": [
                    "administrative_area_level_2",
                    "political"
                ]
            },
            {
                "long_name": "West Bengal",
                "short_name": "WB",
                "types": [
                    "administrative_area_level_1",
                    "political"
                ]
            },
            {
                "long_name": "India",
                "short_name": "IN",
                "types": [
                    "country",
                    "political"
                ]
            },
            {
                "long_name": "722134",
                "short_name": "722134",
                "types": [
                    "postal_code"
                ]
            }
        ],
        "formatted_address": "Hariharganj, West Bengal 722134, India",
        "place_id": "ChIJRbsoQhbN9zkRoLA6qz9gzu8",
        "geometry": {
            "location_type": "APPROXIMATE",
            "location": {
                "lng": 86.9235958,
                "lat": 22.812286
            },
            "viewport": {
                "northeast": {
                    "lng": 86.93275,
                    "lat": 22.8196999
                },
                "southwest": {
                    "lng": 86.9151,
                    "lat": 22.80517
                }
            },
            "bounds": {
                "northeast": {
                    "lng": 86.93275,
                    "lat": 22.8196999
                },
                "southwest": {
                    "lng": 86.9151,
                    "lat": 22.80517
                }
            }
        },
        "types": [
            "locality",
            "political"
        ]
    },
    "Masiara": {
        "address_components": [
            {
                "long_name": "Masiara",
                "short_name": "Masiara",
                "types": [
                    "locality",
                    "political"
                ]
            },
            {
                "long_name": "Howrah",
                "short_name": "Howrah",
                "types": [
                    "administrative_area_level_2",
                    "political"
                ]
            },
            {
                "long_name": "West Bengal",
                "short_name": "WB",
                "types": [
                    "administrative_area_level_1",
                    "political"
                ]
            },
            {
                "long_name": "India",
                "short_name": "IN",
                "types": [
                    "country",
                    "political"
                ]
            },
            {
                "long_name": "711303",
                "short_name": "711303",
                "types": [
                    "postal_code"
                ]
            }
        ],
        "formatted_address": "Masiara, West Bengal 711303, India",
        "place_id": "ChIJ5de9fmOZAjoRGk3RFQosaL8",
        "geometry": {
            "location_type": "APPROXIMATE",
            "location": {
                "lng": 87.9291906,
                "lat": 22.4807364
            },
            "viewport": {
                "northeast": {
                    "lng": 87.9362699,
                    "lat": 22.4834299
                },
                "southwest": {
                    "lng": 87.92135999999999,
                    "lat": 22.47296
                }
            },
            "bounds": {
                "northeast": {
                    "lng": 87.9362699,
                    "lat": 22.4834299
                },
                "southwest": {
                    "lng": 87.92135999999999,
                    "lat": 22.47296
                }
            }
        },
        "types": [
            "locality",
            "political"
        ]
    },
    "Indkata": {
        "address_components": [
            {
                "long_name": "Kolkata",
                "short_name": "Kolkata",
                "types": [
                    "locality",
                    "political"
                ]
            },
            {
                "long_name": "Kolkata",
                "short_name": "Kolkata",
                "types": [
                    "administrative_area_level_2",
                    "political"
                ]
            },
            {
                "long_name": "West Bengal",
                "short_name": "WB",
                "types": [
                    "administrative_area_level_1",
                    "political"
                ]
            },
            {
                "long_name": "India",
                "short_name": "IN",
                "types": [
                    "country",
                    "political"
                ]
            }
        ],
        "place_id": "ChIJZ_YISduC-DkRvCxsj-Yw40M",
        "formatted_address": "Kolkata, West Bengal, India",
        "partial_match": true,
        "geometry": {
            "location_type": "APPROXIMATE",
            "location": {
                "lng": 88.36389500000001,
                "lat": 22.572646
            },
            "viewport": {
                "northeast": {
                    "lng": 88.5428696,
                    "lat": 23.0083628
                },
                "southwest": {
                    "lng": 88.1165879,
                    "lat": 22.3436288
                }
            },
            "bounds": {
                "northeast": {
                    "lng": 88.5428696,
                    "lat": 23.0083628
                },
                "southwest": {
                    "lng": 88.1165879,
                    "lat": 22.3436288
                }
            }
        },
        "types": [
            "locality",
            "political"
        ]
    },
    "Bamria": {
        "address_components": [
            {
                "long_name": "Bamria",
                "short_name": "Bamria",
                "types": [
                    "locality",
                    "political"
                ]
            },
            {
                "long_name": "Bankura",
                "short_name": "Bankura",
                "types": [
                    "administrative_area_level_2",
                    "political"
                ]
            },
            {
                "long_name": "West Bengal",
                "short_name": "WB",
                "types": [
                    "administrative_area_level_1",
                    "political"
                ]
            },
            {
                "long_name": "India",
                "short_name": "IN",
                "types": [
                    "country",
                    "political"
                ]
            },
            {
                "long_name": "722206",
                "short_name": "722206",
                "types": [
                    "postal_code"
                ]
            }
        ],
        "place_id": "ChIJTXPE8wAo-DkRcFWUYC1zyYQ",
        "formatted_address": "Bamria, West Bengal 722206, India",
        "partial_match": true,
        "geometry": {
            "location_type": "APPROXIMATE",
            "location": {
                "lng": 87.5371129,
                "lat": 23.1756166
            },
            "viewport": {
                "northeast": {
                    "lng": 87.5564299,
                    "lat": 23.1820699
                },
                "southwest": {
                    "lng": 87.52849979999999,
                    "lat": 23.16697
                }
            },
            "bounds": {
                "northeast": {
                    "lng": 87.5564299,
                    "lat": 23.1820699
                },
                "southwest": {
                    "lng": 87.52849979999999,
                    "lat": 23.16697
                }
            }
        },
        "types": [
            "locality",
            "political"
        ]
    },
    "Algutina": {
        "address_components": [
            {
                "long_name": "Algutina",
                "short_name": "Algutina",
                "types": [
                    "locality",
                    "political"
                ]
            },
            {
                "long_name": "Bankura",
                "short_name": "Bankura",
                "types": [
                    "administrative_area_level_2",
                    "political"
                ]
            },
            {
                "long_name": "West Bengal",
                "short_name": "WB",
                "types": [
                    "administrative_area_level_1",
                    "political"
                ]
            },
            {
                "long_name": "India",
                "short_name": "IN",
                "types": [
                    "country",
                    "political"
                ]
            },
            {
                "long_name": "722161",
                "short_name": "722161",
                "types": [
                    "postal_code"
                ]
            }
        ],
        "formatted_address": "Algutina, West Bengal 722161, India",
        "place_id": "ChIJW-FkQN0f-DkRAnFYJylx1uQ",
        "geometry": {
            "location_type": "APPROXIMATE",
            "location": {
                "lng": 87.5482385,
                "lat": 22.9570293
            },
            "viewport": {
                "northeast": {
                    "lng": 87.55369,
                    "lat": 22.9604398
                },
                "southwest": {
                    "lng": 87.54303999999999,
                    "lat": 22.9537301
                }
            },
            "bounds": {
                "northeast": {
                    "lng": 87.55369,
                    "lat": 22.9604398
                },
                "southwest": {
                    "lng": 87.54303999999999,
                    "lat": 22.9537301
                }
            }
        },
        "types": [
            "locality",
            "political"
        ]
    },
    "Halud Kanali": {
        "address_components": [
            {
                "long_name": "Halud Kanali",
                "short_name": "Halud Kanali",
                "types": [
                    "locality",
                    "political"
                ]
            },
            {
                "long_name": "Bankura",
                "short_name": "Bankura",
                "types": [
                    "administrative_area_level_2",
                    "political"
                ]
            },
            {
                "long_name": "West Bengal",
                "short_name": "WB",
                "types": [
                    "administrative_area_level_1",
                    "political"
                ]
            },
            {
                "long_name": "India",
                "short_name": "IN",
                "types": [
                    "country",
                    "political"
                ]
            },
            {
                "long_name": "722148",
                "short_name": "722148",
                "types": [
                    "postal_code"
                ]
            }
        ],
        "formatted_address": "Halud Kanali, West Bengal 722148, India",
        "place_id": "ChIJA5WDSfIz9jkRKF60vXCdow0",
        "geometry": {
            "location_type": "APPROXIMATE",
            "location": {
                "lng": 86.79943589999999,
                "lat": 22.8530018
            },
            "viewport": {
                "northeast": {
                    "lng": 86.81036999999999,
                    "lat": 22.8633299
                },
                "southwest": {
                    "lng": 86.78841000000001,
                    "lat": 22.8389001
                }
            },
            "bounds": {
                "northeast": {
                    "lng": 86.81036999999999,
                    "lat": 22.8633299
                },
                "southwest": {
                    "lng": 86.78841000000001,
                    "lat": 22.8389001
                }
            }
        },
        "types": [
            "locality",
            "political"
        ]
    },
    "Indpur": {
        "address_components": [
            {
                "long_name": "Indpur",
                "short_name": "Indpur",
                "types": [
                    "locality",
                    "political"
                ]
            },
            {
                "long_name": "Bankura",
                "short_name": "Bankura",
                "types": [
                    "administrative_area_level_2",
                    "political"
                ]
            },
            {
                "long_name": "West Bengal",
                "short_name": "WB",
                "types": [
                    "administrative_area_level_1",
                    "political"
                ]
            },
            {
                "long_name": "India",
                "short_name": "IN",
                "types": [
                    "country",
                    "political"
                ]
            },
            {
                "long_name": "722136",
                "short_name": "722136",
                "types": [
                    "postal_code"
                ]
            }
        ],
        "formatted_address": "Indpur, West Bengal 722136, India",
        "place_id": "ChIJhRg3v3yt9zkRS5ZvFZh7RmU",
        "geometry": {
            "location_type": "APPROXIMATE",
            "location": {
                "lng": 86.93611949999999,
                "lat": 23.1636359
            },
            "viewport": {
                "northeast": {
                    "lng": 86.9454289,
                    "lat": 23.1692871
                },
                "southwest": {
                    "lng": 86.92961439999999,
                    "lat": 23.1605856
                }
            },
            "bounds": {
                "northeast": {
                    "lng": 86.9454289,
                    "lat": 23.1692871
                },
                "southwest": {
                    "lng": 86.92961439999999,
                    "lat": 23.1605856
                }
            }
        },
        "types": [
            "locality",
            "political"
        ]
    },
    "Dangarpara": {
        "address_components": [
            {
                "long_name": "Dangar Para",
                "short_name": "Dangar Para",
                "types": [
                    "locality",
                    "political"
                ]
            },
            {
                "long_name": "West Medinipur",
                "short_name": "West Medinipur",
                "types": [
                    "administrative_area_level_2",
                    "political"
                ]
            },
            {
                "long_name": "West Bengal",
                "short_name": "WB",
                "types": [
                    "administrative_area_level_1",
                    "political"
                ]
            },
            {
                "long_name": "India",
                "short_name": "IN",
                "types": [
                    "country",
                    "political"
                ]
            },
            {
                "long_name": "721301",
                "short_name": "721301",
                "types": [
                    "postal_code"
                ]
            }
        ],
        "place_id": "ChIJJfnoT4NEHToRX0Mgrk2t8Os",
        "formatted_address": "Dangar Para, West Bengal 721301, India",
        "partial_match": true,
        "geometry": {
            "location_type": "APPROXIMATE",
            "location": {
                "lng": 87.3047196,
                "lat": 22.3703097
            },
            "viewport": {
                "northeast": {
                    "lng": 87.3110599,
                    "lat": 22.3739101
                },
                "southwest": {
                    "lng": 87.30077,
                    "lat": 22.36691
                }
            },
            "bounds": {
                "northeast": {
                    "lng": 87.3110599,
                    "lat": 22.3739101
                },
                "southwest": {
                    "lng": 87.30077,
                    "lat": 22.36691
                }
            }
        },
        "types": [
            "locality",
            "political"
        ]
    },
    "Uttar Piyarbera": null,
    "Pashchim Nabasan": {
        "address_components": [
            {
                "long_name": "Paschim Nabasan",
                "short_name": "Paschim Nabasan",
                "types": [
                    "locality",
                    "political"
                ]
            },
            {
                "long_name": "Bankura",
                "short_name": "Bankura",
                "types": [
                    "administrative_area_level_2",
                    "political"
                ]
            },
            {
                "long_name": "West Bengal",
                "short_name": "WB",
                "types": [
                    "administrative_area_level_1",
                    "political"
                ]
            },
            {
                "long_name": "India",
                "short_name": "IN",
                "types": [
                    "country",
                    "political"
                ]
            },
            {
                "long_name": "722207",
                "short_name": "722207",
                "types": [
                    "postal_code"
                ]
            }
        ],
        "formatted_address": "Paschim Nabasan, West Bengal 722207, India",
        "place_id": "ChIJlXqdzBKd9zkRbnSgLuOGdBU",
        "geometry": {
            "location_type": "APPROXIMATE",
            "location": {
                "lng": 87.3525325,
                "lat": 23.3347875
            },
            "viewport": {
                "northeast": {
                    "lng": 87.35858999999999,
                    "lat": 23.3402401
                },
                "southwest": {
                    "lng": 87.3471,
                    "lat": 23.3320598
                }
            },
            "bounds": {
                "northeast": {
                    "lng": 87.35858999999999,
                    "lat": 23.3402401
                },
                "southwest": {
                    "lng": 87.3471,
                    "lat": 23.3320598
                }
            }
        },
        "types": [
            "locality",
            "political"
        ]
    },
    "Andur": {
        "address_components": [
            {
                "long_name": "Andur",
                "short_name": "Andur",
                "types": [
                    "locality",
                    "political"
                ]
            },
            {
                "long_name": "Bardhaman",
                "short_name": "Bardhaman",
                "types": [
                    "administrative_area_level_2",
                    "political"
                ]
            },
            {
                "long_name": "West Bengal",
                "short_name": "WB",
                "types": [
                    "administrative_area_level_1",
                    "political"
                ]
            },
            {
                "long_name": "India",
                "short_name": "IN",
                "types": [
                    "country",
                    "political"
                ]
            },
            {
                "long_name": "713146",
                "short_name": "713146",
                "types": [
                    "postal_code"
                ]
            }
        ],
        "formatted_address": "Andur, West Bengal 713146, India",
        "place_id": "ChIJ4wmGz4VX-DkRRv-G6jzRS_Q",
        "geometry": {
            "location_type": "APPROXIMATE",
            "location": {
                "lng": 88.1364591,
                "lat": 23.1897619
            },
            "viewport": {
                "northeast": {
                    "lng": 88.1448999,
                    "lat": 23.1968901
                },
                "southwest": {
                    "lng": 88.1292,
                    "lat": 23.1784701
                }
            },
            "bounds": {
                "northeast": {
                    "lng": 88.1448999,
                    "lat": 23.1968901
                },
                "southwest": {
                    "lng": 88.1292,
                    "lat": 23.1784701
                }
            }
        },
        "types": [
            "locality",
            "political"
        ]
    },
    "Kankrijharna": {
        "address_components": [
            {
                "long_name": "Kankrijharna",
                "short_name": "Kankrijharna",
                "types": [
                    "locality",
                    "political"
                ]
            },
            {
                "long_name": "East Singhbhum",
                "short_name": "East Singhbhum",
                "types": [
                    "administrative_area_level_2",
                    "political"
                ]
            },
            {
                "long_name": "West Bengal",
                "short_name": "WB",
                "types": [
                    "administrative_area_level_1",
                    "political"
                ]
            },
            {
                "long_name": "India",
                "short_name": "IN",
                "types": [
                    "country",
                    "political"
                ]
            },
            {
                "long_name": "721501",
                "short_name": "721501",
                "types": [
                    "postal_code"
                ]
            }
        ],
        "place_id": "ChIJ1QV1do8n9jkRJtDIMPqC9KY",
        "formatted_address": "Kankrijharna, West Bengal 721501, India",
        "partial_match": true,
        "geometry": {
            "location_type": "APPROXIMATE",
            "location": {
                "lng": 86.7139704,
                "lat": 22.5953403
            },
            "viewport": {
                "northeast": {
                    "lng": 86.7197,
                    "lat": 22.60358
                },
                "southwest": {
                    "lng": 86.70508,
                    "lat": 22.58683
                }
            },
            "bounds": {
                "northeast": {
                    "lng": 86.7197,
                    "lat": 22.60358
                },
                "southwest": {
                    "lng": 86.70508,
                    "lat": 22.58683
                }
            }
        },
        "types": [
            "locality",
            "political"
        ]
    },
    "Topabari": {
        "address_components": [
            {
                "long_name": "Topabari",
                "short_name": "Topabari",
                "types": [
                    "locality",
                    "political"
                ]
            },
            {
                "long_name": "Bankura",
                "short_name": "Bankura",
                "types": [
                    "administrative_area_level_2",
                    "political"
                ]
            },
            {
                "long_name": "West Bengal",
                "short_name": "WB",
                "types": [
                    "administrative_area_level_1",
                    "political"
                ]
            },
            {
                "long_name": "India",
                "short_name": "IN",
                "types": [
                    "country",
                    "political"
                ]
            },
            {
                "long_name": "722173",
                "short_name": "722173",
                "types": [
                    "postal_code"
                ]
            }
        ],
        "place_id": "ChIJvX7zao9M9jkRrbHWIAW_mGQ",
        "formatted_address": "Topabari, West Bengal 722173, India",
        "partial_match": true,
        "geometry": {
            "location_type": "APPROXIMATE",
            "location": {
                "lng": 86.8709607,
                "lat": 23.0790643
            },
            "viewport": {
                "northeast": {
                    "lng": 86.87550999999999,
                    "lat": 23.0866501
                },
                "southwest": {
                    "lng": 86.8615701,
                    "lat": 23.0710601
                }
            },
            "bounds": {
                "northeast": {
                    "lng": 86.87550999999999,
                    "lat": 23.0866501
                },
                "southwest": {
                    "lng": 86.8615701,
                    "lat": 23.0710601
                }
            }
        },
        "types": [
            "locality",
            "political"
        ]
    },
    "Hakim Sinan": {
        "address_components": [
            {
                "long_name": "Hakim Sinan",
                "short_name": "Hakim Sinan",
                "types": [
                    "locality",
                    "political"
                ]
            },
            {
                "long_name": "Bankura",
                "short_name": "Bankura",
                "types": [
                    "administrative_area_level_2",
                    "political"
                ]
            },
            {
                "long_name": "West Bengal",
                "short_name": "WB",
                "types": [
                    "administrative_area_level_1",
                    "political"
                ]
            },
            {
                "long_name": "India",
                "short_name": "IN",
                "types": [
                    "country",
                    "political"
                ]
            }
        ],
        "formatted_address": "Hakim Sinan, West Bengal, India",
        "place_id": "ChIJywgn5pAz9jkRU81D9QsHTdY",
        "geometry": {
            "location_type": "APPROXIMATE",
            "location": {
                "lng": 86.84963979999999,
                "lat": 22.8599502
            },
            "viewport": {
                "northeast": {
                    "lng": 86.8607799,
                    "lat": 22.8667199
                },
                "southwest": {
                    "lng": 86.83973999999999,
                    "lat": 22.8507199
                }
            },
            "bounds": {
                "northeast": {
                    "lng": 86.8607799,
                    "lat": 22.8667199
                },
                "southwest": {
                    "lng": 86.83973999999999,
                    "lat": 22.8507199
                }
            }
        },
        "types": [
            "locality",
            "political"
        ]
    },
    "Tasuli": {
        "address_components": [
            {
                "long_name": "Tashuli",
                "short_name": "Tashuli",
                "types": [
                    "locality",
                    "political"
                ]
            },
            {
                "long_name": "Bankura",
                "short_name": "Bankura",
                "types": [
                    "administrative_area_level_2",
                    "political"
                ]
            },
            {
                "long_name": "West Bengal",
                "short_name": "WB",
                "types": [
                    "administrative_area_level_1",
                    "political"
                ]
            },
            {
                "long_name": "India",
                "short_name": "IN",
                "types": [
                    "country",
                    "political"
                ]
            }
        ],
        "place_id": "ChIJtYOEFSYq-DkRZScIkgCfwQI",
        "formatted_address": "Tashuli, West Bengal, India",
        "partial_match": true,
        "geometry": {
            "location_type": "APPROXIMATE",
            "location": {
                "lng": 87.5618327,
                "lat": 23.2652714
            },
            "viewport": {
                "northeast": {
                    "lng": 87.58034990000002,
                    "lat": 23.28926
                },
                "southwest": {
                    "lng": 87.5560201,
                    "lat": 23.25643
                }
            },
            "bounds": {
                "northeast": {
                    "lng": 87.58034990000002,
                    "lat": 23.28926
                },
                "southwest": {
                    "lng": 87.5560201,
                    "lat": 23.25643
                }
            }
        },
        "types": [
            "locality",
            "political"
        ]
    },
    "Kundu Puskarini": {
        "address_components": [
            {
                "long_name": "Bamunarirmore",
                "short_name": "Bamunarirmore",
                "types": [
                    "political",
                    "sublocality",
                    "sublocality_level_1"
                ]
            },
            {
                "long_name": "Mirjapur",
                "short_name": "Mirjapur",
                "types": [
                    "locality",
                    "political"
                ]
            },
            {
                "long_name": "Bankura",
                "short_name": "Bankura",
                "types": [
                    "administrative_area_level_2",
                    "political"
                ]
            },
            {
                "long_name": "West Bengal",
                "short_name": "WB",
                "types": [
                    "administrative_area_level_1",
                    "political"
                ]
            },
            {
                "long_name": "India",
                "short_name": "IN",
                "types": [
                    "country",
                    "political"
                ]
            },
            {
                "long_name": "722154",
                "short_name": "722154",
                "types": [
                    "postal_code"
                ]
            }
        ],
        "place_id": "ChIJzWaDAI0g-DkRZzeba1XIEnc",
        "formatted_address": "Bamunarirmore, Mirjapur, West Bengal 722154, India",
        "partial_match": true,
        "geometry": {
            "location_type": "GEOMETRIC_CENTER",
            "location": {
                "lng": 87.5569146,
                "lat": 23.0392447
            },
            "viewport": {
                "northeast": {
                    "lng": 87.55826358029151,
                    "lat": 23.0405936802915
                },
                "southwest": {
                    "lng": 87.55556561970849,
                    "lat": 23.0378957197085
                }
            }
        },
        "types": [
            "establishment",
            "home_goods_store",
            "point_of_interest",
            "store"
        ]
    },
    "Chorkul": {
        "address_components": [
            {
                "long_name": "Chorkul",
                "short_name": "Chorkul",
                "types": [
                    "locality",
                    "political"
                ]
            },
            {
                "long_name": "Bankura",
                "short_name": "Bankura",
                "types": [
                    "administrative_area_level_2",
                    "political"
                ]
            },
            {
                "long_name": "West Bengal",
                "short_name": "WB",
                "types": [
                    "administrative_area_level_1",
                    "political"
                ]
            },
            {
                "long_name": "India",
                "short_name": "IN",
                "types": [
                    "country",
                    "political"
                ]
            },
            {
                "long_name": "722162",
                "short_name": "722162",
                "types": [
                    "postal_code"
                ]
            }
        ],
        "formatted_address": "Chorkul, West Bengal 722162, India",
        "place_id": "ChIJC9bvHubU9zkRclcO5FhL_XA",
        "geometry": {
            "location_type": "APPROXIMATE",
            "location": {
                "lng": 86.9248483,
                "lat": 22.6530766
            },
            "viewport": {
                "northeast": {
                    "lng": 86.934,
                    "lat": 22.6598901
                },
                "southwest": {
                    "lng": 86.9186101,
                    "lat": 22.6399
                }
            },
            "bounds": {
                "northeast": {
                    "lng": 86.934,
                    "lat": 22.6598901
                },
                "southwest": {
                    "lng": 86.9186101,
                    "lat": 22.6399
                }
            }
        },
        "types": [
            "locality",
            "political"
        ]
    },
    "Paduya": {
        "address_components": [
            {
                "long_name": "Padua",
                "short_name": "Padua",
                "types": [
                    "locality",
                    "political"
                ]
            },
            {
                "long_name": "Bardhaman",
                "short_name": "Bardhaman",
                "types": [
                    "administrative_area_level_2",
                    "political"
                ]
            },
            {
                "long_name": "West Bengal",
                "short_name": "WB",
                "types": [
                    "administrative_area_level_1",
                    "political"
                ]
            },
            {
                "long_name": "India",
                "short_name": "IN",
                "types": [
                    "country",
                    "political"
                ]
            },
            {
                "long_name": "713103",
                "short_name": "713103",
                "types": [
                    "postal_code"
                ]
            }
        ],
        "formatted_address": "Padua, West Bengal 713103, India",
        "place_id": "ChIJc8M5iS83-DkRG3M9ZZQ8c5Q",
        "geometry": {
            "location_type": "APPROXIMATE",
            "location": {
                "lng": 87.7849414,
                "lat": 23.2135052
            },
            "viewport": {
                "northeast": {
                    "lng": 87.79553,
                    "lat": 23.2181599
                },
                "southwest": {
                    "lng": 87.7762801,
                    "lat": 23.2098399
                }
            },
            "bounds": {
                "northeast": {
                    "lng": 87.79553,
                    "lat": 23.2181599
                },
                "southwest": {
                    "lng": 87.7762801,
                    "lat": 23.2098399
                }
            }
        },
        "types": [
            "locality",
            "political"
        ]
    },
    "Raghudihi": {
        "address_components": [
            {
                "long_name": "Raghudihi",
                "short_name": "Raghudihi",
                "types": [
                    "locality",
                    "political"
                ]
            },
            {
                "long_name": "Purulia",
                "short_name": "Purulia",
                "types": [
                    "administrative_area_level_2",
                    "political"
                ]
            },
            {
                "long_name": "West Bengal",
                "short_name": "WB",
                "types": [
                    "administrative_area_level_1",
                    "political"
                ]
            },
            {
                "long_name": "India",
                "short_name": "IN",
                "types": [
                    "country",
                    "political"
                ]
            },