id,name,jl_number,block_id,latitude,longitude
40584,Piprakhali,13,332.0,21.9872887,88.3567163
40585,Kaorakhali,14,332.0,21.9861926,88.3967536
40586,Dakshin Raypur,15,332.0,22.40373,88.1510962
40587,Digambarpur,16,332.0,21.9384172,88.387051
40588,Gurudaspur,17,332.0,21.9292625,88.3652122
40589,Pashchim Shridharpur,18,332.0,22.5640163,87.75296
40590,Uttar Mahendrapur,19,332.0,21.912932,88.3712796
40591,Parbatipur,20,332.0,22.6548287,88.2290783
40592,Indranarayanpur,21,332.0,21.9115728,88.384625
40593,Ramnagar Abad,22,332.0,21.8817718,88.384625
40594,Raj Rajeshwarpur,23,332.0,22.5673295,88.34733039999999
40595,Bishwanathpur,24,332.0,22.7004533,88.631372
40596,Gayadham,25,332.0,21.8639383,88.38947689999999
40597,Indraprastha,26,332.0,22.7113193,88.47338789999999
40598,Jogindrapur,27,332.0,26.5558381,89.2062985
40599,Dakshin Mahendrapur,28,332.0,21.8162089,88.384625
40600,Ramganga,29,332.0,21.7996877,88.3712796
40601,Dakshin Gobindapur,30,332.0,21.8279393,88.3652122
40602,Debichak,31,332.0,21.8354493,88.3712796
40603,Sagar Madhabpur,32,332.0,21.844342,88.3664257
40604,Dakshin Shibpur,33,332.0,22.7302841,88.72714429999999
40605,Uttar Gopalnagar,34,332.0,21.8306542,88.3385053
40606,Kamdebnagar,35,332.0,21.845579,88.3409338
40607,Chintamanipur,36,332.0,23.1330081,87.77510339999999
40608,Radhakrishna Nagar,37,332.0,21.8394233,88.3215014
40609,Krishnapur,38,332.0,22.6627899,88.2765304
40610,Durbachati,39,332.0,21.8153352,88.2971985
40611,Paschim Surendranagar,41,332.0,21.7973549,88.2874736
40612,Harekrishnapur,42,332.0,22.5780307,87.7474017
40613,Mahendranagar,43,332.0,21.791742,88.3215014
40614,Dakshin Gopalnagar,44,332.0,21.8066178,88.3190717
40615,Durgagobindapur,45,332.0,22.5542454,88.8228566
40616,Madhabnagar,46,332.0,21.7860253,88.3457906
40617,Pashchim Dwarakapur,47,332.0,21.7738123,88.3166419
40618,Baradapur,48,332.0,21.7499222,88.3117819
40619,Bhagbatpur,49,332.0,21.7320908,88.3166419
40620,Kishorinagar,51,332.0,21.7322375,88.3312187
40621,Dakshin Lakshminarayanpur,52,332.0,24.0174982,88.07908359999999
40622,Dakshin Shibganj,53,332.0,21.7832612,88.3676393
40623,Chhoto Banshyamnagar,54,332.0,-1.0,-1.0
40624,Shibnagar,55,332.0,24.0038916,88.24672679999999
40625,Banshyamnagar,56,332.0,22.8204816,88.3769705
40626,Lakshmipur,57,332.0,24.801475,87.96778280000001
40627,Bishnupur,58,332.0,23.0678795,87.3165222
40628,Kamdebpur,59,332.0,22.7826934,88.50091859999999
40629,Achintyanagar,60,332.0,21.8167193,88.4379653
40630,Lakshmi Janardanpur,61,332.0,21.8347818,88.4573454
40631,Purba Chintamanipur,62,332.0,22.1156773,87.8611136
40632,Kumarpur,63,332.0,23.6959678,86.9386238
40633,Maheshpur,64,332.0,22.2816125,88.3633918
40634,Kedarpur,65,332.0,21.8760463,88.4088788
40635,Purba Dwarakapur,66,332.0,21.8855997,88.4241888
40636,Kuyemuri,67,332.0,21.951919,88.4852646
40637,Purba Surendranagar,69,332.0,21.8706789,88.4718747
40638,Heramba Gopalpur,70,332.0,21.878689,88.4518957
40639,Dakshin Kashinagar,71,332.0,21.855889,88.4839788
40640,Purba Shripatinagar,72,332.0,21.8171679,88.4863991
40641,Pashchim Shripatinagar,73,332.0,22.5762149,88.3639752
40642,Upendranagar,74,332.0,21.7722642,88.4646107
40643,Rakhalpur,75,332.0,21.7721744,88.4549234
40644,Shridharnagar,76,332.0,21.727267,88.4331189
40645,Gangapur,77,332.0,22.7830503,88.5396131
40646,Krishnadaspur,78,332.0,21.732858,88.39432819999999
40647,Rakshaskhali,79,332.0,21.7475942,88.37734619999999
40648,Kshetramohanpur,80,332.0,21.75036,88.3555025
40649,Brajaballavpur,81,332.0,21.9623617,87.650714
40650,Gobindapur Abad,82,332.0,21.7088283,88.37491969999999
40651,Satyadaspur,83,332.0,21.7151626,88.4137279
40652,Daspur,84,332.0,22.6068031,87.7246498
40653,Uttar Surendraganj,85,332.0,21.6912283,88.40402910000002
40654,Dakshin Surendraganj,86,332.0,21.676164,88.387051
40655,Indrapur,87,332.0,21.6554193,88.3991789
40656,Buraburirtat,88,332.0,21.6315776,88.3991789
40657,Sitarampur,89,332.0,23.7233343,86.89477889999999
40658,Gobardhanpur,90,332.0,22.3198976,87.6556468
40659,Baidyakhali,1,333.0,22.3555016,88.1022869
40660,Pakurtala,2,333.0,24.4687639,88.0635824
40661,Shriballavpur,3,333.0,24.326989,87.890565
40662,Bakultala,4,333.0,22.4854403,88.3017564
40663,Khorda Bakultala,5,333.0,-1.0,-1.0
40664,Paikan,6,333.0,22.5283183,88.53598699999999
40665,Bar Asta,7,333.0,22.7228159,88.480552
40666,Krishnapur,8,333.0,22.6627899,88.2765304
40667,Mamudpur,9,333.0,22.8894533,88.4525012
40668,Dakshinala,10,333.0,23.3736804,88.5764612
40669,Guthari,11,333.0,22.3423638,88.1254781
40670,Pashchim Daulatpur,12,333.0,22.3452868,88.1205967
40671,Mahadebpur,13,333.0,25.6324091,88.3117819
40672,Padmapur,14,333.0,22.3480679,88.1035078
40673,Abad Shimulganj,15,333.0,-1.0,-1.0
40674,Ahammadpur,16,333.0,23.830864,87.6913936
40675,Rajarampur,17,333.0,24.3573495,88.1860087
40676,Chak Dhanumondal Krishnaram Basu,18,333.0,22.3139626,88.1169354
40677,Shyamsundarpur,19,333.0,22.7298885,88.1498766
40678,Basulat,20,333.0,22.3019325,88.10717029999999
40679,Falta,21,333.0,22.3019986,88.1284383
40680,Chandideul,22,333.0,22.2946113,88.11815589999999
40681,Sahara,23,333.0,21.7494776,87.45668169999999
40682,Bhatuali,24,333.0,-1.0,-1.0
40683,Ishwaripur,25,333.0,22.3022139,88.131579
40684,Sujapur,26,333.0,25.0690815,88.13767899999999
40685,Jagannathpur,27,333.0,22.7462731,88.4467528
40686,Belsingha,28,333.0,22.3009328,88.1498766
40687,Punya,29,333.0,21.9117686,87.4529661
40688,Neoda,30,333.0,22.2866908,88.14194859999999
40689,Chandpala Anantarampur,31,333.0,22.2832641,88.15408599999999
40690,Barhaibatpur,32,333.0,23.8837878,88.0839695
40691,Shrirampur,33,333.0,22.748331,88.3385053
40692,Nityanandapur,34,333.0,23.4670639,87.940833
40693,Paschim Durgapur,35,333.0,23.8191919,87.70617709999999
40694,Dakshin Sargaria,36,333.0,22.2982008,88.17182369999999
40695,Sahapur Kamalpur,37,333.0,22.3042413,88.179137
40696,Shwetkalla,38,333.0,22.3131521,88.1766993
40697,Taragadi,39,333.0,22.3130154,88.1645092
40698,Budhagram,40,333.0,22.3129329,88.15719349999999
40699,Banki,41,333.0,22.3587411,88.7445888
40700,Dona,42,333.0,22.3188086,88.1498766
40701,Rasulpur,43,333.0,23.1840099,88.0301946
40702,Mahirampur,44,333.0,22.318558,88.12791849999999
40703,Narayanbere,45,333.0,22.3216211,88.13523909999999
40704,Mallikpur,46,333.0,22.3245165,88.12791849999999
40705,Kalagachhia,47,333.0,21.8050327,87.9163191
40706,Pakurdigra,48,333.0,22.3217047,88.14255849999999
40707,Gopalpur,49,333.0,23.4976267,87.3959564
40708,Chaka,50,333.0,22.9685413,86.9248483
40709,Asta,51,333.0,22.3365174,88.13523909999999
40710,Jamira,52,333.0,22.591891,87.619872
40711,Uttar Sargaria,53,333.0,22.3486842,88.15719349999999
40712,Daluipur,54,333.0,23.3435992,88.1840118
40713,Paikpara,55,333.0,22.613223,88.3804976
40714,Krishnapur Madhabpur,56,333.0,22.3398839,88.16938569999999
40715,Tripurapur,57,333.0,22.6310897,88.1059495
40716,Sujagalpur,58,333.0,22.3309734,88.17182369999999
40717,Narayantala,59,333.0,22.6084463,88.4240305
40718,Badeghara,60,333.0,-1.0,-1.0
40719,Rukhia,61,333.0,22.318919,88.15963219999999
40720,Goaberia,62,333.0,22.3249601,88.16694749999999
40721,Ramlakha,63,333.0,22.3160769,88.17182369999999
40722,Kalsa,64,333.0,22.3250421,88.1742616
40723,Shatal,65,333.0,22.3310553,88.179137
40724,Nilambarpur,66,333.0,22.3370139,88.179137
40725,Ponkamara,67,333.0,-1.0,-1.0
40726,Naopukuria,68,333.0,23.3115028,88.5311517
40727,Kathalfuli,69,333.0,-1.0,-1.0
40728,Dholtikari,70,333.0,22.3221717,88.1840118
40729,Laskarpur,71,333.0,22.3609568,88.18888609999999
40730,Jangalia,72,333.0,22.3103626,88.1937598
40731,Baldanri,73,333.0,-1.0,-1.0
40732,Harindanga,74,333.0,22.0353766,88.3233235
40733,Ghurulia,75,333.0,23.7833111,87.07398859999999
40734,Basudebpur,76,333.0,21.8248993,87.62110609999999
40735,Majlispur,77,333.0,23.9686062,88.65548609999999
40736,Jaglaballavpur,78,333.0,22.6980903,88.1047287
40737,Hogla,79,333.0,22.3664914,87.9052834
40738,Brihaspatipur,80,333.0,22.2802973,88.16938569999999
40739,Talanda,81,333.0,23.3140295,87.26929419999999
40740,Mulpunja,82,333.0,22.28344,88.1840118
40741,Narayani,83,333.0,22.2775624,88.191323
40742,Keyatkhanda,84,333.0,22.2747442,88.2059418
40743,Dostipur,85,333.0,22.274851,88.215685
40744,Aldadpur,86,333.0,22.2836825,88.2059418
40745,Kodalia,87,333.0,22.9139844,88.37370639999999
40746,Purba Daulatpur,88,333.0,22.2911177,88.20472380000001
40747,Bayaria,89,333.0,22.2889566,88.21142259999999
40748,Alambibi Ramnagar,90,333.0,22.2949821,88.2175116
40749,Digra,91,333.0,23.1585363,88.4125157
40750,Bhagabanpur,92,333.0,22.097831,87.7517295
40751,Bainchberia,93,333.0,23.2225238,88.6051183
40752,Kaikhali,94,333.0,22.6271532,88.4331189
40753,Shridharhat,95,333.0,22.599898,88.3689989
40754,Gobindapur,96,333.0,22.3781175,88.4052416
40755,Jadabbati,97,333.0,22.6248803,88.08942859999999
40756,Hangarghata Harishpur,98,333.0,22.3224413,88.2083778
40757,Debipur,99,333.0,23.1421728,88.1585029
40758,Achanda,100,333.0,22.3164022,88.2010694
40759,Jhumunia,101,333.0,-1.0,-1.0
40760,Lakhna Gangadharpur,102,333.0,22.3261052,88.20289660000002
40761,Malaya Harishpur,103,333.0,22.3343587,88.2083778
40762,Amarpur,104,333.0,22.9838792,87.9763543
40763,Kashirampur,105,333.0,22.3227072,88.23273030000001
40764,Ghanashyampur,106,333.0,22.3166425,88.2229909
40765,Garkhali,107,333.0,22.3077838,88.23029559999999
40766,Rameshwarbati,108,333.0,22.3017721,88.22542589999999
40767,Kantakhali,109,333.0,24.4463254,88.1620708
40768,Barbere,110,333.0,22.3720444,86.78562079999999
40769,Purba Durgapur,111,333.0,22.2808365,88.21812039999999
40770,Gazipur,112,333.0,23.1364148,88.7710424
40771,Tajpur,113,333.0,21.658136,87.62604209999999
40772,Shasan,114,333.0,22.6642885,88.58310259999999
40773,Pikhira,115,333.0,22.2750363,88.23273030000001
40774,Purba Gopalpur,116,333.0,22.2661505,88.2375991
40775,Ranthan,117,333.0,22.266203,88.2424674
40776,Chaluari,118,333.0,22.2692609,88.24976889999999
40777,Niyogirat,119,333.0,22.2781732,88.2473352
40778,Durbarat,120,333.0,22.2753757,88.2643681
40779,Kotaldanga,121,333.0,22.2841844,88.2522024
40780,Benapur,122,333.0,22.2916118,87.3637025
40781,Fatepur,123,333.0,22.2846143,88.232467
40782,Banganagar,124,333.0,22.3034594,88.24368439999999
40783,Jafarpur,125,333.0,22.3213882,88.2485521
40784,Hasimnagar,126,333.0,22.3095228,88.2534192
40785,Baneshwarpur,127,333.0,22.3096267,88.2631517
40786,Gotra,128,333.0,22.6189682,88.8814857
40787,Ausberia,129,333.0,22.9633531,88.3967536
40788,Shibpur,130,333.0,22.5723094,88.3117819
40789,Ramrampur,131,333.0,24.1901836,87.7738735
40790,Mayna,132,333.0,25.2930953,88.16085149999999
40791,Kalaria,133,333.0,22.3836736,88.52027029999999
40792,Ghoramara,2,334.0,21.9148682,88.131579
40793,Kashtala,4,334.0,21.8671912,88.131579
40794,Sapkhali,5,334.0,21.8431868,88.1169354
40795,Kachuberia,6,334.0,21.8587258,88.14506159999999
40796,Muriganga,7,334.0,21.8301754,88.1523157
40797,Shikarpur,8,334.0,23.1864083,87.7628028
40798,Ramkrishnapur,9,334.0,25.2757475,88.9713045
40799,Companirchar,10,334.0,21.813718,88.14621770000001
40800,Dhaspara,11,334.0,21.8046418,88.13401909999999
40801,Bamankhali,12,334.0,21.8253632,88.12181710000002
40802,Mandirtala,13,334.0,22.4543166,88.42827199999999
40803,Fuldubi,14,334.0,-1.0,-1.0
40804,Mahendraganj,15,334.0,21.7896601,88.1266983
40805,Nagendraganj,16,334.0,21.7809121,88.1437782
40806,Gobindapur,17,334.0,22.3781175,88.4052416
40807,Debimathurapur,18,334.0,21.7721621,88.16085149999999
40808,Kaylapara,19,334.0,21.7602424,88.16085149999999
40809,Haradhanpur,20,334.0,21.7421462,88.14133869999999
40810,Mrityunjaynagar,21,334.0,22.59626,88.37104
40811,Sumatinagar,22,334.0,21.7422548,88.1510962
40812,Bankimnagar,23,334.0,23.2063863,88.5927608
40813,Manasadwip,24,334.0,21.6742593,88.11569279999999
40814,Kamalpur,25,334.0,23.3009283,86.84650359999999
40815,Rudranagar,26,334.0,21.7428911,88.0946799
40816,Khansahebabad,27,334.0,21.7443774,88.1244103
40817,Khasramkarchar,28,334.0,-1.0,-1.0
40818,Krishnanagar,29,334.0,23.4008744,88.5013962
40819,Naraharipur,30,334.0,23.0477628,88.8622992
40820,Harinbari,31,334.0,21.7415379,88.08763359999999
40821,Radhakrishnapur,32,334.0,22.4560915,87.50124550000001
40822,Chandipur,33,334.0,22.1022227,87.8574308
40823,Bishnupur,34,334.0,23.0678795,87.3165222
40824,Mahisamari,35,334.0,21.6815453,88.0534236
40825,Beguakhali,36,334.0,21.6607152,88.05586799999999
40826,Gangasagar,38,334.0,21.7268896,88.1096118
40827,Natendrapur,39,334.0,22.4391117,88.3967536
40828,Narayani Abad,40,334.0,21.6759252,88.08274809999999
40829,Kirtankhali,41,334.0,21.6999319,88.097403
40830,Purushottampur,42,334.0,22.3043909,88.48518899999999
40831,Chemaguri,43,334.0,21.7428911,88.0946799
40832,Shibpur,44,334.0,22.5723094,88.3117819
40833,Bishalakshmipur,45,334.0,21.8295484,88.23151299999999
40834,Dhablat,46,334.0,21.6405559,88.1169354
40835,Baul,1,335.0,25.3296815,88.6852136
40836,Shibpur,2,335.0,22.5723094,88.3117819
40837,Gorahar,3,335.0,25.5461615,88.038754
40838,Mashakpur,4,335.0,25.3088075,88.6591021
40839,Paschim  Maheshpur,5,335.0,22.3930679,87.2854565
40840,Chiknaikuri,6,335.0,25.300785,88.6729603
40841,Bora,7,335.0,22.8986465,87.8340995
40842,Mallikpur,8,335.0,22.3245165,88.12791849999999
40843,Jagannathbati,9,335.0,22.708335,88.2193381
40844,Narayanbati,10,335.0,24.292,87.7794078
40845,Baidyapur,11,335.0,23.1597449,88.24490139999999
40846,Sarangaon,12,335.0,22.4002431,88.22098559999999
40847,Rajuha,13,335.0,25.27509,88.69885690000001
40848,Bhatra,14,335.0,23.8309301,87.9052834
40849,Osail,15,335.0,25.2855338,88.70728489999999
40850,Uttar Shibrampur,16,335.0,25.4714296,88.2290386
40851,Paschim  Jagannathpur,17,335.0,25.3062308,88.7024691
40852,Badolpur,18,335.0,25.439065,88.35914389999999
40853,Taksail,19,335.0,25.3121771,88.70487709999999
40854,Damai,20,335.0,25.318186,88.71450759999999
40855,Bikuch,21,335.0,25.3210436,88.7024691
40856,Bolla,22,335.0,25.3285023,88.7084888
40857,Chak Juar,23,335.0,22.5058175,88.3639987
40858,Kashilabati,24,335.0,25.3388601,88.70728489999999
40859,Chakpara,25,335.0,22.6259797,88.3166419
40860,Malikura,26,335.0,25.3390269,88.72654270000001
40861,Bahicha,27,335.0,25.3384149,88.74158159999999
40862,Parpatiram,28,335.0,25.3347984,88.75180499999999
40863,Dhulatair,29,335.0,25.333246,88.74338589999999
40864,Raypur,30,335.0,23.631129,87.65687989999999
40865,Bonhat,31,335.0,24.1569137,87.743017
40866,Hariharpur,32,335.0,22.2475818,87.92490049999999
40867,Purba  Maheshpur,33,335.0,25.8660021,88.0680883
40868,Anantapur,34,335.0,24.1233506,88.10717029999999
40869,Jotjagat,35,335.0,24.8063449,87.7874006
40870,Kastagar,36,335.0,25.3094435,88.7313557
40871,Kashipukur,37,335.0,25.3035593,88.7361682
40872,Begunbari,38,335.0,23.9187582,88.2765304
40873,Rajapur,39,335.0,23.5965449,88.36496939999999
40874,Chandipur,40,335.0,22.1022227,87.8574308
40875,Debipur,41,335.0,23.1421728,88.1585029
40876,Khaspur,42,335.0,24.1805687,87.9359313
40877,Uttar Chakbhabani,43,335.0,25.2858032,88.7385743
40878,Chak  Gobinda,44,335.0,22.8411231,88.2424674
40879,Sayeedpur,45,335.0,22.5338731,87.6747563
40880,Kajialasi,46,335.0,-1.0,-1.0
40881,Paschim  Krishnapur,47,335.0,25.2692901,88.7133039
40882,Rahotaila,48,335.0,22.6635519,88.37544319999999
40883,Dharmapur,49,335.0,23.1430189,87.45172749999999
40884,Baodhara,50,335.0,25.2618512,88.7096926
40885,Narayanpur,51,335.0,22.6453065,88.46218909999999
40886,Ashoir,52,335.0,23.0758176,88.5275035
40887,Barokashipur,53,335.0,22.5789977,88.35114010000001
40888,Shibrambati,54,335.0,23.8854546,87.9812516
40889,Bharenda,55,335.0,22.6222588,88.44865759999999
40890,Lakshinarayanpur,56,335.0,24.0873976,88.17517579999999
40891,Doroil,57,335.0,-1.0,-1.0
40892,Durlabhpur,58,335.0,24.0646197,88.10411820000002
40893,Madanganj,59,335.0,21.749371,88.2582857
40894,Parbatipur,60,335.0,22.6548287,88.2290783
40895,Nihinagar,61,335.0,25.3309255,88.56921489999999
40896,Fulghara,62,335.0,-1.0,-1.0
40897,Paschim  Kalikapur,63,335.0,22.9318219,87.9800273
40898,Boaldar,64,335.0,25.2577667,88.75180499999999
40899,Mohanpur,65,335.0,21.8398171,87.4232306
40900,Dogachhi,66,335.0,24.3673169,88.1364591
40901,Kashiadanga,67,335.0,23.5492211,88.3457906
40902,Dharail,68,335.0,25.2359495,88.71270200000001
40903,Jiapur,69,335.0,23.4168707,86.1459216
40904,Palashdanga,70,335.0,23.3993469,87.38851509999999
40905,Santosh  Palashdanga,71,335.0,25.241004,88.69765269999999
40906,Jalghar,72,335.0,25.2277218,88.7036731
40907,Majhina,73,335.0,23.8264344,88.0155173
40908,Talmandira,74,335.0,25.2157837,88.6940401
40909,Trikul,75,335.0,25.2114543,88.70728489999999
40910,Ashurakrishnabati,76,335.0,25.2203865,88.7121002
40911,Krishnanagar,77,335.0,23.4008744,88.5013962
40912,Radhanagar,78,335.0,22.7263702,87.8660235
40913,Nabipur,79,335.0,24.2743327,88.6096575
40914,Gopinagar,80,335.0,22.8382069,88.1169354
40915,Radhanagarbharatta,81,335.0,22.6427486,88.42580439999999
40916,Badmuluk  Kismat,82,335.0,25.1939412,88.7385743
40917,Fatepur,83,335.0,22.2846143,88.232467
40918,Chakbhatshala,84,335.0,25.1851515,88.75060239999999
40919,Meriya,85,335.0,22.5335554,86.45495149999999
40920,Kalaibari,86,335.0,22.4569037,88.1120531
40921,Dangi,87,335.0,26.5886378,89.6780947
40922,Chak  Harina,88,335.0,25.1999297,88.74579159999999
40923,Khidirpur,89,335.0,22.54206,88.3189579
40924,Chakbhrigu,90,335.0,25.2267827,88.7674361
40925,Mayamari,91,335.0,25.2237593,88.7602225
40926,Chakkashi,92,335.0,25.214732,88.747816
40927,Gangasagar,93,335.0,21.7268896,88.1096118
40928,Chak Ramanath,94,335.0,25.2198574,88.7367697
40929,Chak Chandan,95,335.0,23.0487043,87.8132139
40930,Kuaran,96,335.0,25.2295243,88.7409802
40931,Paschim  Mustafapur,97,335.0,25.2324263,88.733762
40932,Mamna,98,335.0,25.2384144,88.7409802
40933,Katna,99,335.0,23.9559208,87.9708442
40934,Chamta,100,335.0,26.7609467,88.3700662
40935,Gobindapur,101,335.0,22.3781175,88.4052416
40936,Belain,102,335.0,25.238536,88.7554127
40937,Dhaul,103,335.0,25.2444827,88.75781769999999
40938,Chandra  Daulla,104,335.0,22.5069855,88.37061560000001
40939,Dakra,105,335.0,25.2364387,88.7704414
40940,Dakshin  Chakbhabani,106,335.0,25.2298256,88.7770522
40941,Mongalpur,107,335.0,23.0706329,87.68030279999999
40942,Bongi,108,335.0,25.2179817,88.7838019
40943,Balurghat,109,335.0,25.2372834,88.7830612
40944,Khadimpur,110,335.0,25.0191727,87.06117720000002
40945,Baidyanathpara,111,335.0,23.7186496,87.27924089999999
40946,Badbongi,112,335.0,25.2210516,88.790537
40947,Shuknapara,113,335.0,25.2182062,88.80588759999999
40948,Bannapara,114,335.0,25.2130441,88.8088901
40949,Noksa,115,335.0,25.2048216,88.7998819
40950,Bhushila,116,335.0,25.2046652,88.7806578
40951,Bhatpara,117,335.0,22.8562412,88.406454
40952,Chakghatak,118,335.0,25.1928104,88.7806578
40953,Dakshin  Shibrampur,119,335.0,25.948023,87.907736
40954,Chakvikan,120,335.0,-1.0,-1.0
40955,Gazipur,121,335.0,23.1364148,88.7710424
40956,Chak  Durga,122,335.0,25.1847725,88.794476
40957,Chak  Ramprasad,123,335.0,24.1998977,88.67657469999999
40958,Chakshyam,124,335.0,25.1811114,88.7998819
40959,Mollapara,125,335.0,24.973658,88.0937397
40960,Chak Ismail,126,335.0,22.9245494,87.5655396
40961,Chakram,127,335.0,25.1944969,88.80588759999999
40962,Sarangabari,128,335.0,-1.0,-1.0
40963,Majhigram,129,335.0,24.2084376,88.1401188
40964,Satrai,130,335.0,25.2101476,88.8172961
40965,Kasimbi,131,335.0,25.2064859,88.82269900000001
40966,Kholapara,132,335.0,25.2087418,88.82690079999999
40967,Shalgaon,133,335.0,25.2255185,88.4718747
40968,Hasoil,134,335.0,23.211337,88.363001
40969,Ajodhya,135,335.0,23.2220229,86.1395598
40970,Dakshin  Khanpur,136,335.0,25.4579038,88.77464839999999
40971,Hosenpur,137,335.0,23.2366203,88.6458421
40972,Chakbakhar,138,335.0,25.2418166,88.7938753
40973,Baro  Raghunathpur,139,335.0,22.6578578,88.3343081
40974,Hazipur,140,335.0,22.9858436,88.0748079
40975,Danga,141,335.0,23.1758217,86.8747223
40976,Paschim  Raynagar,142,335.0,25.2448577,88.8034854
40977,Chak  Sridhar,143,335.0,25.2389696,88.8082896
40978,Malancha,144,335.0,22.5004512,88.7674361
40979,Eakmail,145,335.0,-1.0,-1.0
40980,Jangolpur,146,335.0,22.5936985,88.2229909
40981,Hatishala,147,335.0,23.6415625,88.50454769999999
40982,Hatiyapara,148,335.0,-1.0,-1.0
40983,Madhabpara,149,335.0,25.2685048,88.796278
40984,Mahinagar,150,335.0,23.3580209,87.79846529999999
40985,Paranpur,151,335.0,25.1576548,87.997164
40986,Atoir,152,335.0,25.2931238,88.7597174
40987,Krishnapur,153,335.0,22.6627899,88.2765304
40988,Haldidanga,154,335.0,22.7720913,87.725881
40989,Pulinda,155,335.0,24.0064708,88.2777465
40990,Dhaltara,156,335.0,25.2773156,88.7866662
40991,Chak Bijaysri,157,335.0,22.485447,88.36596639999999
40992,Bijaysri,158,335.0,22.5602862,88.3554058
40993,Satihar,159,335.0,25.2774715,88.80588759999999
40994,Sankoir,160,335.0,23.0323856,88.3057061
40995,Kamalpukur,161,335.0,25.2775677,88.8178964
40996,Rishtara,162,335.0,22.7244023,88.3287896
40997,Sirohi,163,335.0,25.0356949,72.9273564
40998,Keshabpur,164,335.0,22.8861165,87.8991514
40999,Gutin,165,335.0,25.6078216,88.2339475
41000,Badmoshahar,166,335.0,-1.0,-1.0
41001,Belgharia,167,335.0,22.6655601,88.37924
41002,Chaourapara,168,335.0,22.9763159,88.78143250000001
41003,Debrabari,169,335.0,25.2878708,88.80949059999999
41004,Keoutsar,170,335.0,-1.0,-1.0
41005,Jantigram,171,335.0,25.2981924,88.8034854
41006,Ramprasad,172,335.0,22.7324513,87.79262589999999
41007,Chandpukuria,173,335.0,23.7259523,88.4646107
41008,Senpur,174,335.0,23.6637697,88.3470047
41009,Taraganj,175,335.0,26.3118395,89.72640659999999
41010,Mathurapur,176,335.0,22.1202674,88.39432819999999
41011,Faridpur,177,335.0,22.5618146,87.80952719999999
41012,Bidoipur,178,335.0,22.3596751,88.4317758
41013,Pollapara,179,335.0,25.3007997,88.7602225
41014,Chakmonipur,180,335.0,-1.0,-1.0
41015,Majhiyan,181,335.0,-1.0,-1.0
41016,Parmonipur,182,335.0,-1.0,-1.0
41017,Motra,183,335.0,24.0516921,88.1407287
41018,Kadmathail,184,335.0,25.321658,88.77464839999999
41019,Chakhay,185,335.0,25.3215982,88.7674361
41020,Lakshmipur,186,335.0,24.801475,87.96778280000001
41021,Patiram,187,335.0,25.316667,88.75
41022,Uttar Raypur,188,335.0,22.4698178,88.1998512
41023,Jhaparshi,189,335.0,-1.0,-1.0
41024,Manoil,190,335.0,-1.0,-1.0
41025,Idrakpur,191,335.0,24.0865632,87.8519061
41026,Chak Ramkrishnapur,192,335.0,25.3455348,88.796278
41027,Mahislathi,193,335.0,-1.0,-1.0
41028,Dashul,194,335.0,25.3411594,88.8046865
41029,Dasul Chandipur,195,335.0,25.4322066,88.4088788
41030,Malakarpara,196,335.0,25.3226489,88.805287
41031,Chak Ramnarayan,197,335.0,25.3277799,88.7986806
41032,Mahasani,198,335.0,25.3336657,88.7938753
41033,Rampurkismat,199,335.0,25.3350387,88.7806578
41034,Badkhorna,200,335.0,25.3232677,88.79027090000001
41035,Boidul,201,335.0,-1.0,-1.0
41036,Nazirpur,202,335.0,23.8674762,88.5388277
41037,Kashipur,203,335.0,23.4341206,86.6678714
41038,Kismat Jasahar,204,335.0,25.3042526,88.82029779999999
41039,Piakhan,205,335.0,25.310082,88.8082896
41040,Mahala,206,335.0,25.3175367,88.8142941
41041,Uttar Khapur,207,335.0,22.59307,88.3356185
41042,Dash Arai,208,335.0,-1.0,-1.0
41043,Gopinathpur,209,335.0,22.8076683,88.0534236
41044,Indraa,210,335.0,22.9867569,87.8549755
41045,Kamalpur,211,335.0,23.3009283,86.84650359999999
41046,Harirampur,212,335.0,25.3773195,88.26801720000002
41047,Belpukuria,213,335.0,23.478513,88.4137279
41048,Dangbirol,214,335.0,-1.0,-1.0
41049,Ankhira,215,335.0,24.1977353,87.7824821
41050,Barkail,216,335.0,-1.0,-1.0
41051,Jamraiil,217,335.0,22.0642501,88.3057061
41052,Kumargram,218,335.0,26.611012,89.8294313
41053,Chak Janardan,219,335.0,22.599015,87.91999700000001
41054,Chakalam,220,335.0,23.2746594,87.6913936
41055,Bamonahar,221,335.0,26.0718287,89.5863038
41056,Chak Bajit,222,335.0,22.4219181,87.6050605
41057,Taherchak,223,335.0,25.3004261,88.9006634
41058,Chaksridal,224,335.0,22.4739909,88.31710509999999
41059,Thakurpura,225,335.0,25.311583,88.8932669
41060,Jotgopal,226,335.0,25.3062443,88.8862809
41061,Karimgutin,227,335.0,25.301755,88.8802868
41062,Harigram,228,335.0,23.2654138,87.9947163
41063,Chalk Basanta,229,335.0,-1.0,-1.0
41064,Seoai,230,335.0,22.5075163,88.18154969999999
41065,Baniakuri,231,335.0,25.3074789,88.8539023
41066,Chak Taher,232,335.0,25.3074417,88.8491033
41067,Chak Daulat,233,335.0,22.4288286,87.471541
41068,Kaigram,234,335.0,23.4105712,88.1852304
41069,Kuchila,235,335.0,26.2738225,88.3190717
41070,Mobarakpur,236,335.0,23.8429827,88.5734421
41071,Maanoil,237,335.0,-1.0,-1.0
41072,Gopalbati,238,335.0,23.1582914,88.38826399999999
41073,Kusumbar,239,335.0,25.2839777,88.8802868
41074,Chak Binod,240,335.0,25.278842,88.8868803
41075,Chiyail,241,335.0,-1.0,-1.0
41076,Chak Mathura,242,335.0,25.28385,88.8634986
41077,Chhoto Raghunathpur,243,335.0,25.2837947,88.8563016
41078,Uchakapur,244,335.0,22.8081981,88.3676393
41079,Satoish,245,335.0,23.0826009,88.5470155
41080,Monipur,246,335.0,22.2766043,88.92701819999999
41081,Tursail,247,335.0,25.2800492,88.850903
41082,Maargram,248,335.0,24.1495747,87.84269669999999
41083,Rajarampur,249,335.0,24.3573495,88.1860087
41084,Gunjarpur,250,335.0,25.2728073,88.8724931
41085,Chingra,251,335.0,23.2076716,86.90605710000001
41086,Panditpur,252,335.0,23.819669,87.3624615
41087,Chakmadhab,253,335.0,22.1851499,87.7111039
41088,Kutubpur,254,335.0,24.1079959,87.7406534
41089,Tulsipur,255,335.0,25.2600716,88.8539023
41090,Nunail,256,335.0,25.2659421,88.8467036
41091,Barokhail,257,335.0,25.3116463,88.8931911
41092,Gopisahar,258,335.0,25.2687926,88.8323025
41093,Kodla,259,335.0,24.0009074,88.1815744
41094,Digra,260,335.0,23.1585363,88.4125157
41095,Sankarpur,261,335.0,21.6491352,87.5698638
41096,Barghopa,262,335.0,-1.0,-1.0
41097,Doulla,263,335.0,25.2481629,88.8467036
41098,Chiyashi,264,335.0,-1.0,-1.0
41099,Kamarpara,265,335.0,25.248274,88.8610997
41100,Badamail,266,335.0,25.2514193,88.88508220000001
41101,Haripur,267,335.0,23.6773318,87.1934619
41102,Kalikapur,268,335.0,22.5009134,88.39493449999999
41103,Kurmaiil,269,335.0,25.2393471,88.8563016
41104,Chakamed,270,335.0,-1.0,-1.0
41105,Dumoir,271,335.0,-1.0,-1.0
41106,Amritakhanda,272,335.0,25.2465403,88.8287014
41107,Sankinipara,273,335.0,-1.0,-1.0
41108,Satakhanda,274,335.0,25.2272878,88.8299018
41109,Chakbhriguram,275,335.0,25.2391415,88.8299018
41110,Shaanihara,276,335.0,25.2325632,88.84130379999999
41111,Birohini,277,335.0,-1.0,-1.0
41112,Jhinaipota,278,335.0,25.2170932,88.8527026
41113,Bhulkipur,279,335.0,25.2067297,88.8539023
41114,Damua Ghugudanga,280,335.0,25.2127123,88.8610997
41115,Mahadipur,281,335.0,24.852468,88.1254781
41116,Chakkhetab,282,335.0,25.2297849,88.86529759999999
41117,Chak Ismaiil,283,335.0,22.9245494,87.5655396
41118,Kaliha,284,335.0,25.2306576,88.88268459999999
41119,Chileembad,285,335.0,25.2247844,88.889877
41120,Purba Hariharpur,286,335.0,25.2307472,88.8946713
41121,Chakfarid,287,335.0,21.9837463,87.53402200000001
41122,Gopalpur,288,335.0,23.4976267,87.3959564
41123,Amraail,289,335.0,25.2144346,88.8955629
41124,Alipur,290,335.0,26.4918891,89.52710259999999
41125,Bhabanipur,291,335.0,22.4224226,88.4422055
41126,Ghugudanga,292,335.0,25.2127855,88.87069439999999
41127,Shialdanga,293,335.0,23.0808028,88.70487709999999
41128,Dakshin Chakalam,294,335.0,25.2076581,88.8784884
41129,Shobra,295,335.0,25.203967,88.8802868
41130,Naopara,296,335.0,22.8128009,88.38098579999999
41131,Chak Lakshmi Narayan,297,335.0,22.4679486,88.37552629999999
41132,Sobra Shyampur,298,335.0,-1.0,-1.0
41133,Chakhosen,299,335.0,25.1862201,88.88508220000001
41134,Chak Andaru,300,335.0,25.1877825,88.8958698
41135,Bamanhati,301,335.0,25.2069847,88.8874797
41136,Sontara,302,335.0,-1.0,-1.0
41137,Bangalipur,303,335.0,25.2011465,88.89946499999999
41138,Dakshin Nagar,304,335.0,25.2011819,88.9042582
41139,Purba Chakvikan,305,335.0,-1.0,-1.0
41140,Sanapara,306,335.0,25.1878534,88.90545639999999
41141,Pirijpur,307,335.0,25.1820306,88.9198322
41142,Majatpur,308,335.0,25.1938514,88.9150408
41143,Jabaripur,309,335.0,25.2056715,88.9102489
41144,Singhal,310,335.0,25.2592848,88.3069213
41145,Durgapur,311,335.0,23.5204443,87.3119227
41146,Chingispur,312,335.0,25.1998486,88.924623
41147,Kismat Ramkrisnapur,313,335.0,25.1896039,88.9425836
41148,Shiala,314,335.0,25.459683,88.3494328
41149,Naoyapara,1,336.0,22.5611026,87.9837
41150,Chak  Balaram,2,336.0,25.268951,88.6747675
41151,Purba  Krishnapur,3,336.0,24.8773879,88.1022869
41152,Kamarghat,4,336.0,22.6846668,88.3706491
41153,Jagadishpur,5,336.0,22.652507,88.289905
41154,Brahmakhanda,6,336.0,25.2901179,88.9090508
41155,Dabra,7,336.0,23.2020776,87.0811561
41156,Ishwarpara,8,336.0,25.3050373,88.9234254
41157,Bhimpur,9,336.0,23.431471,88.632578
41158,Srirampur,10,336.0,22.748331,88.3385053
41159,Lalpur,11,336.0,22.1332081,88.4228186
41160,Uttar  Jamalpur,12,336.0,25.2963207,88.9473718
41161,Srikrishnapur,13,336.0,22.8977074,88.5384045
41162,Purba  Gobindapur,14,336.0,22.2032629,88.2083778
41163,Purba  Kalikapur,15,336.0,22.9584713,88.0888549
41164,Chakurpai,16,336.0,25.293459,88.96173309999999
41165,Balpara,17,336.0,25.2972169,88.96951
41166,Agra,18,336.0,22.876975,87.33577249999999
41167,Baigram,19,336.0,25.2906452,88.9832656
41168,Mera  Aptair,20,336.0,25.2870027,88.99223409999999
41169,Aptair,21,336.0,25.2892856,89.0012007
41170,Dharanda,22,336.0,25.5002568,88.1510962
41171,Basudebpur,23,336.0,21.8248993,87.62110609999999
41172,Ujal,24,336.0,25.2729806,89.0000053
41173,Hili,25,336.0,25.2774334,89.0012007
41174,Baikunthapur,26,336.0,22.378963,88.4155462
41175,Purba  Rainagar,27,336.0,22.1617719,88.1423932
41176,Nafar,28,336.0,25.2817562,88.9832656
41177,Banara,29,336.0,25.2905628,88.9713045
41178,Bilaspara,30,336.0,25.2816903,88.973697
41179,Kharun,31,336.0,24.130765,87.7738735
41180,Panjul,32,336.0,25.2875498,88.9641261
41181,Dhalpara,33,336.0,25.2778232,88.9503642
41182,Purbathakurpur,34,336.0,22.4616267,88.3061645
41183,Kismatdapat,35,336.0,25.2784745,88.9377949
41184,Chakdapat,36,336.0,25.2844177,88.9401893
41185,Chapahat,37,336.0,25.2894866,88.92402419999999
41186,Rupbati,38,336.0,25.2819034,88.9000642
41187,Jotghatak,39,336.0,25.2721616,88.88508220000001
41188,Kunjadungi,40,336.0,25.2782306,88.9042582
41189,Chakmohan,41,336.0,23.047858,88.5130144
41190,Basnta,42,336.0,24.3394747,87.8279577
41191,Muraripur,43,336.0,23.3967859,88.02897159999999
41192,Mulahat,44,336.0,25.2710065,88.9294133
41193,Mahishnota,45,336.0,25.2725483,88.9377949
41194,Jontipur,46,336.0,23.2645399,88.4380966
41195,Purba Jagannathpur,47,336.0,22.1859336,87.99838779999999
41196,Laskarpur,48,336.0,22.3609568,88.18888609999999
41197,Ramkrishnapur,49,336.0,25.2757475,88.9713045
41198,Bagurafatepur,50,336.0,25.2728504,88.9808736
41199,Dumran,51,336.0,24.0226327,87.6950899
41200,Gosaipur,52,336.0,25.2638449,88.9641261
41201,Chakgopal,53,336.0,24.2230065,87.9996115
41202,Sidai,54,336.0,25.2600357,88.9491673
41203,Garna,55,336.0,25.2518909,88.9497657
41204,Bahadurpur,56,336.0,23.6924569,87.1447831
41205,Ramjibanpur,57,336.0,22.8225661,87.6137011
41206,Sarengbari,58,336.0,25.26199,88.9189062
41207,Ferusha,59,336.0,25.263415,88.9042582
41208,Baddungi,60,336.0,25.2723222,88.9066546
41209,Chak Subid,61,336.0,25.2685429,88.896469
41210,Teor,62,336.0,25.2655797,88.896469
41211,Jottior,63,336.0,25.260345,88.889877
41212,Sahapur,64,336.0,22.5171539,88.17060470000001
41213,Ismailpur,65,336.0,25.4512448,88.0240796
41214,Shyampur,66,336.0,22.299502,88.02774869999999
41215,Mataish,67,336.0,25.2472312,88.9198322
41216,Binshira,68,336.0,25.2470549,88.8958698
41217,Jontigari,69,336.0,-1.0,-1.0
41218,Shalas,70,336.0,21.6678087,87.5228929
41219,Makhatoir,71,336.0,-1.0,-1.0
41220,Purba  Mostafapur,72,336.0,22.6499454,87.8593298
41221,Pourahar,73,336.0,-1.0,-1.0
41222,Fajullapur,74,336.0,25.2220329,88.9186344
41223,Maniko,75,336.0,25.2354469,88.9294133
41224,Chak  Maniko,76,336.0,25.2458447,88.9330056
41225,Hobibpur,77,336.0,23.1697666,88.5159743
41226,Goeshpur,78,336.0,22.955387,88.49607929999999
41227,Jamalpur,79,336.0,23.061089,87.9925839
41228,Purba  Mathurapur,80,336.0,22.238976,87.725881
41229,Lakma,81,336.0,25.2118749,88.94856879999999
41230,Naldanga,82,336.0,25.2126707,88.9563482
41231,Elendari,1,337.0,25.4645298,88.68440489999999
41232,Chakra  Shail,2,337.0,22.592148,88.340408
41233,Shibpur,3,337.0,22.5723094,88.3117819
41234,Azadpur,4,337.0,25.4573503,88.7096926
41235,Tara,5,337.0,24.1140439,87.7990799
41236,Amulia,6,337.0,22.7483586,88.6603073
41237,Harishchandrapur,7,337.0,25.4068073,87.8669374
41238,Kusumtara,8,337.0,25.5005234,88.73737129999999
41239,Kamdebpur,9,337.0,22.7826934,88.50091859999999
41240,Kulhari,10,337.0,-1.0,-1.0
41241,Uttar  Ramkrishnapur,11,337.0,22.1468359,88.22542589999999
41242,Kanura,12,337.0,25.4694854,88.74338589999999
41243,Subarna  Sahid,13,337.0,25.4725077,88.75060239999999
41244,Majhina,14,337.0,25.4791852,88.75240629999999
41245,Daudpur,15,337.0,22.275946,88.83110219999999
41246,Uttar  Rasulpur,16,337.0,22.9424601,87.88197699999999
41247,Barait,17,337.0,25.4890445,88.7806578
41248,Krishnapur,18,337.0,22.6627899,88.2765304
41249,Rainanda,19,337.0,-1.0,-1.0
41250,Samjiya,20,337.0,-1.0,-1.0
41251,Nabagram,21,337.0,23.111247,88.04364439999999
41252,Bhomor,22,337.0,23.9997727,87.68818019999999
41253,Katnapara,23,337.0,25.5210153,88.79808
41254,Chandipur,24,337.0,22.1022227,87.8574308
41255,Basanti,25,337.0,22.1983297,88.71390579999999
41256,Thalsama,26,337.0,25.5055159,88.8034854
41257,Deun,27,337.0,-1.0,-1.0
41258,Kutubpur,28,337.0,24.1079959,87.7406534
41259,Chak  Jayanti,29,337.0,25.4965553,88.7938753
41260,Palashi,30,337.0,23.7832868,88.26071879999999
41261,Panitara,31,337.0,25.487751,88.8034854
41262,Balta,32,337.0,23.7252862,87.3190065
41263,Sahabajpur,33,337.0,24.8264967,88.06564449999999
41264,Jakhirpur,34,337.0,25.4716679,88.8287014
41265,Ulipur,35,337.0,25.4494302,88.82510010000001
41266,Chakmohan,36,337.0,23.047858,88.5130144
41267,Kakoti,37,337.0,25.4655919,88.80949059999999
41268,Kalna,38,337.0,23.2248593,88.3482188
41269,Rajdhara,39,337.0,25.4765642,88.79327459999999
41270,Neona,40,337.0,25.4816322,88.779456
41271,Angina,41,337.0,25.4652366,88.7662339
41272,Sundarpur,42,337.0,23.8730463,87.9420584
41273,Katla,43,337.0,25.4591522,88.7469943
41274,Buribar,44,337.0,25.4604578,88.72654270000001
41275,Aichara,45,337.0,25.4553017,88.72955089999999
41276,Brahmapur,46,337.0,22.4602448,88.364436
41277,Safanagar,47,337.0,25.4470176,88.7133039
41278,Sahajadpur,48,337.0,24.0085658,88.47671679999999
41279,Parsahajadpur,49,337.0,24.018112,88.4810047
41280,Walitara,50,337.0,25.451657,88.7361682
41281,Tilna,51,337.0,25.4713754,88.2095958
41282,Agachha,52,337.0,22.4264216,88.0534236
41283,Khanpur,53,337.0,22.6729089,88.2598404
41284,Badangina,54,337.0,25.4697483,88.77464839999999
41285,Charkhanda,55,337.0,25.460984,88.7890694
41286,Brahmanpara,56,337.0,23.7978238,87.8758417
41287,Bholanathpur,57,337.0,25.4581209,88.8010831
41288,Tulat,58,337.0,25.4535909,88.79027090000001
41289,Shibrampur,59,337.0,22.4888364,88.2707538
41290,Doraha,60,337.0,25.4522762,88.81069149999999
41291,Menapur,61,337.0,25.4434501,88.8178964
41292,Munsipur,62,337.0,25.4435075,88.82510010000001
41293,Debipur,63,337.0,23.1421728,88.1585029
41294,Setore,64,337.0,22.509029,88.366404
41295,Pyarapur,65,337.0,-1.0,-1.0
41296,Siptabad,66,337.0,25.4234937,88.8220987
41297,Inatullyapur,67,337.0,-1.0,-1.0
41298,Badkanai,68,337.0,25.4363561,88.8115514
41299,Pratapkhanda,69,337.0,25.4396856,88.8100911
41300,Haripur,70,337.0,23.6773318,87.1934619
41301,Kashiyara,71,337.0,22.5240441,87.88074999999999
41302,Bijalipara,72,337.0,25.4431572,88.7818595
41303,Mamudpur,73,337.0,22.8894533,88.4525012
41304,Bairapara,74,337.0,26.7057814,89.13725269999999
41305,Latmirjapur,75,337.0,22.466977,88.375299
41306,Uchhana,76,337.0,25.4400761,88.7674361
41307,Gouripur,77,337.0,22.0756355,88.2546358
41308,Bafra,78,337.0,25.4372146,88.779456
41309,Purba  Gobindapur,79,337.0,22.2032629,88.2083778
41310,Uthrail,80,337.0,25.4314298,88.796278
41311,Raikhan,81,337.0,25.4255458,88.8010831
41312,Bhagabanpur,82,337.0,22.097831,87.7517295
41313,Darajpur,83,337.0,24.975621,88.2546358
41314,Uchait,84,337.0,-1.0,-1.0
41315,Enatulyapur   Manjurichak,85,337.0,-1.0,-1.0
41316,Dattamati,86,337.0,25.4254479,88.7890694
41317,Madanpur,87,337.0,23.0089428,88.49123949999999
41318,Uttar  Keshabpur,88,337.0,25.4223674,88.77464839999999
41319,Gobarta,89,337.0,25.4237782,88.7662339
41320,Sulantapara,90,337.0,-1.0,-1.0
41321,Madhya  Ramkrishnapur,91,337.0,25.4340728,88.75781769999999
41322,Keshurail,92,337.0,25.4354621,88.7469943
41323,Jantihar,93,337.0,-1.0,-1.0
41324,Nijamtara,94,337.0,23.4324145,87.5964182
41325,Dailapara,95,337.0,-1.0,-1.0
41326,Barail,96,337.0,25.3898175,88.3912962
41327,Chak  Gopal,97,337.0,22.4831199,87.71849309999999
41328,Chak  Ram Roy,98,337.0,22.4874901,88.31551979999999
41329,Balupara,99,337.0,25.4131586,88.7361682
41330,Kumarganj,100,337.0,25.4249429,88.7289492
41331,Paschim  Gobindapur,101,337.0,24.3049096,88.2595023
41332,Mirjapur,102,337.0,23.2817971,87.88197699999999
41333,Churailkrishnapur,103,337.0,-1.0,-1.0
41334,Harishpur,104,337.0,23.6039022,87.17967929999999
41335,Udaypur,105,337.0,23.5452784,86.9098159
41336,Bhour,106,337.0,25.4144631,88.7157113
41337,Chak Gangaprasad,107,337.0,25.4101351,88.7289492
41338,Majian,108,337.0,22.508263,88.324274
41339,Dishnagar,109,337.0,25.3995497,88.7036731
41340,Paik  Mulgram,110,337.0,25.4012778,88.6857354
41341,Sitahar,111,337.0,25.4037252,88.67356269999999
41342,Jhara,112,337.0,25.3903433,88.667538
41343,Paikjhara,113,337.0,22.613223,88.3804976
41344,Mulgram,114,337.0,23.3559089,88.0925186
41345,Patitpukur,115,337.0,25.3935415,88.6940401
41346,Puntair,116,337.0,25.3921559,88.70487709999999
41347,Narayanpur,117,337.0,22.6453065,88.46218909999999
41348,Dhadalpara,118,337.0,25.4057648,88.73737129999999
41349,Khorda  Mohana,119,337.0,25.4043964,88.75060239999999
41350,Mahipur,120,337.0,25.760321,88.1266983
41351,Gramtala,121,337.0,25.4045176,88.7650317
41352,Khamarbodra,122,337.0,23.432256,88.55411459999999
41353,Bodra,123,337.0,22.4499923,88.6072441
41354,Kajaltair,124,337.0,-1.0,-1.0
41355,Khamarmotijapur,125,337.0,-1.0,-1.0
41356,Gholdara,126,337.0,25.4018331,88.7986806
41357,Jamirbari,127,337.0,25.4055889,88.805287
41358,Anarpur,128,337.0,22.171436,88.09435030000002
41359,Radhakrishnapur,129,337.0,22.6618335,87.8279577
41360,Telain,130,337.0,25.3989878,88.81309329999999
41361,Madhabpur,131,337.0,21.8742725,87.5846868
41362,Banshra,132,337.0,23.6388536,87.1397958
41363,Khandara,133,337.0,25.3753882,88.82510010000001
41364,Nahera,134,337.0,21.8394015,87.69878589999999
41365,Ajhair,135,337.0,25.3767444,88.80949059999999
41366,Ujirpur,136,337.0,24.2644676,87.9898205
41367,Kuraldanga,137,337.0,25.3930061,88.80588759999999
41368,Chak  Ajhair,138,337.0,25.3870629,88.8034854
41369,Jigakuri,139,337.0,-1.0,-1.0
41370,Mominpur,140,337.0,22.5286521,88.319903
41371,Motijapur,141,337.0,-1.0,-1.0
41372,Bishnupur,142,337.0,23.0678795,87.3165222
41373,Bhagabatipur,143,337.0,22.6916409,88.191323
41374,Gayeshpur,144,337.0,22.955387,88.49607929999999
41375,Chak  Bhagaban,145,337.0,25.3978084,88.75962129999999
41376,Bishwanathpur,146,337.0,22.7004533,88.631372
41377,Chak  Mamudi,147,337.0,25.392529,88.7481971
41378,Chandpur,148,337.0,22.6851815,88.42706020000001
41379,Kuraha,149,337.0,25.387953,88.73255890000002
41380,Lakshankuri,150,337.0,-1.0,-1.0
41381,Gourangapur,151,337.0,23.607136,87.4542046
41382,Batrishpara,152,337.0,25.3862954,88.7121002
41383,Saidpur.,153,337.0,22.8426204,87.9316419
41384,Tirali,154,337.0,25.3803085,88.70487709999999
41385,Dior,155,337.0,25.3816088,88.68440489999999
41386,Biprabhag,156,337.0,25.3771123,88.6783818
41387,Chhatma,157,337.0,23.3084589,86.9649116
41388,Kharail  Chandpur,158,337.0,25.3563567,88.6759723
41389,Kharail,159,337.0,25.3460642,88.68440489999999
41390,Dakshin  Ramkrishnapur,160,337.0,22.0532223,88.2485521
41391,Dilpachhand,161,337.0,-1.0,-1.0
41392,Mahadebpur,162,337.0,25.6324091,88.3117819
41393,Rasulpur,163,337.0,23.1840099,88.0301946
41394,Baradurgapur,164,337.0,25.3594473,88.69042720000002
41395,Chausha,165,337.0,25.3595323,88.70006099999999
41396,Barail,166,337.0,25.3898175,88.3912962
41397,Jarlai,167,337.0,25.3699311,88.7036731
41398,Shyamnagar,168,337.0,22.8323184,88.3967536
41399,Pirgaon,169,337.0,25.3812319,88.72594099999999
41400,Behatair,170,337.0,25.3775967,88.733762
41401,Prasadpur,171,337.0,22.7246926,88.08763359999999
41402,Netradanga,172,337.0,25.3701401,88.727746
41403,Jhaubari,173,337.0,26.0232423,88.11449429999999
41404,Porajhar,174,337.0,25.3626623,88.71932199999999
41405,Chhatintair,175,337.0,25.3567796,88.7241359
41406,Nadipur,176,337.0,24.3195752,88.37734619999999
41407,Dharmapur,177,337.0,-1.0,-1.0
41408,Amrulbari,178,337.0,25.3463599,88.7181185
41409,Pariyal,179,337.0,22.2809674,87.5858412
41410,Chakbaram,180,337.0,22.3657505,86.88287129999999
41411,Radhanagar,181,337.0,22.7263702,87.8660235
41412,Pirojpur,182,337.0,24.5183641,88.1047287
41413,Baram,183,337.0,23.3673621,86.12683369999999
41414,Beltara,184,337.0,25.3615632,88.7415178
41415,Chak Behatair,185,337.0,25.3747372,88.74579159999999
41416,Tajpur,186,337.0,21.658136,87.62604209999999
41417,Chhoto Haripur,187,337.0,25.9979534,88.101066
41418,Mohana,188,337.0,23.566957,87.0311931
41419,Chak  Bhabani,189,337.0,21.9513149,87.60752939999999
41420,Udail,190,337.0,25.3718968,88.7602225
41421,Jagannathpur,191,337.0,22.7462731,88.4467528
41422,Damodarpur,192,337.0,22.7796573,87.7344988
41423,Sundartala,193,337.0,25.380883,88.77224439999999
41424,Amritapur,194,337.0,25.3824336,88.7806578
41425,Gobindapur,195,337.0,22.3781175,88.4052416
41426,Kantakol,196,337.0,22.0402709,87.20334419999999
41427,Badalpur,197,337.0,25.439065,88.35914389999999
41428,Islampur,198,337.0,26.2546438,88.19741479999999
41429,Kanpara,199,337.0,23.1140231,88.42706020000001
41430,Munglishpur,200,337.0,-1.0,-1.0
41431,Pashoa,201,337.0,23.8242882,87.64948079999999
41432,Batun,202,337.0,25.3590487,88.8190971
41433,Banshipur,203,337.0,23.0117396,88.06197859999999
41434,Chak  Banshi,204,337.0,25.3606912,88.8395037
41435,Chandmoa,205,337.0,22.4621842,87.1485232
41436,Gopalpur,206,337.0,23.4976267,87.3959564
41437,Sherpur,207,337.0,22.9817742,88.71474289999999
41438,Abail,208,337.0,25.3517099,88.827501
41439,Raghunathpur,209,337.0,23.5343795,86.6686635
41440,Paikpara,210,337.0,22.613223,88.3804976
41441,Safarpur,211,337.0,25.3309732,88.827501
41442,Bhakla,212,337.0,25.3428609,88.8323025
41443,Krishnagar,213,337.0,23.4008744,88.5013962
41444,Saidpur,214,337.0,22.5338731,87.6747563
41445,Dakshin  Keshabpur,215,337.0,25.349653,88.8485034
41446,Kaitara,216,337.0,23.2842523,87.63591249999999
41447,Chak Ali,217,337.0,21.9126658,87.8291861
41448,Gunshi,218,337.0,25.3372155,88.86829589999999
41449,Baptail,1,338.0,25.3209307,88.4187204
41450,Singhari,2,338.0,24.0190302,87.75296
41451,Magurpur,3,338.0,25.3200235,88.4428112
41452,Guldanga,4,338.0,25.3215935,88.4512901
41453,Jormaile,5,338.0,-1.0,-1.0
41454,Rampara,6,338.0,22.7325841,88.1254781
41455,Hajaratpur Araji,7,338.0,-1.0,-1.0
41456,Mollaji,8,338.0,25.4116816,88.2152766
41457,Aihara,9,338.0,25.3316672,88.4234245
41458,Chak Debidas,10,338.0,25.3392137,88.43675379999999
41459,Rampara Chenchra,11,338.0,25.3333406,88.44159979999999
41460,Jadupur,12,338.0,25.0799986,88.1460433
41461,Khosalpur,13,338.0,23.2456428,87.5432941
41462,Muktarampur,14,338.0,25.3321249,88.46703219999999
41463,Chandrail,15,338.0,25.2329603,88.40463539999999
41464,Bhimtair,16,338.0,25.3455169,88.4730853
41465,Nimtair,17,338.0,25.3455668,88.4779272
41466,Sutail,18,338.0,25.3427039,88.4876093
41467,Kasba Batair,19,338.0,25.3263502,88.4815582
41468,Ganahar,20,338.0,25.3189072,88.4779272
41469,Mandapara,21,338.0,25.3143515,88.46703219999999
41470,Naugoan,22,338.0,23.9160602,87.8267292
41471,Lakhipur,23,338.0,26.329046,88.3761882
41472,Shukdebpur,24,338.0,24.7359659,88.06197859999999
41473,Teliyapara,25,338.0,22.8353729,88.36099349999999
41474,Shikarpur,26,338.0,23.1864083,87.7628028
41475,Sahapur,27,338.0,22.5171539,88.17060470000001
41476,Nazirpur,28,338.0,23.8674762,88.5388277
41477,Katabari,29,338.0,25.2893076,88.4803479
41478,Kardaha,30,338.0,25.295307,88.4876093
41479,Jamalpur,31,338.0,23.061089,87.9925839
41480,Chakbahara,32,338.0,22.6259797,88.3166419
41481,Basuria,33,338.0,25.314747,88.5057574
41482,Gopinathpur,34,338.0,22.8076683,88.0534236
41483,Bajrapukur,35,338.0,22.5821997,88.355693
41484,Palli Mahadebpur,36,338.0,25.6131095,88.30452509999999
41485,Dakhlaine,37,338.0,-1.0,-1.0
41486,Chak Hossain,38,338.0,22.4562628,87.32413439999999
41487,Saralbati,39,338.0,25.3521954,88.5480729
41488,Akhanagar,40,338.0,25.368498,88.54928129999999
41489,Kadma,41,338.0,22.988771,87.0105681
41490,Karanjara,42,338.0,25.3462475,88.545656
41491,Shyamnagar,43,338.0,22.8323184,88.3967536
41492,Pabail,44,338.0,25.3373373,88.543239
41493,Umanandapur,45,338.0,25.3284269,88.54082179999999
41494,Anatair,46,338.0,25.3124578,88.5423486
41495,Antashimul,47,338.0,25.3209615,88.5347783
41496,Budaich,48,338.0,-1.0,-1.0
41497,Degaon,49,338.0,25.3400597,88.519061
41498,Manohali,50,338.0,25.3222961,88.5321704
41499,Doyara,51,338.0,22.7982179,88.26801720000002
41500,Kaiyari,52,338.0,25.3134235,88.5214795
41501,Hashahar,53,338.0,25.3127491,88.5281294
41502,Ajmatpur,54,338.0,22.3294213,87.5439122
41503,Gangarampur,55,338.0,25.40091,88.53236059999999
41504,Mahindar,56,338.0,25.2973096,88.5396131
41505,Dakshin Gouripur,57,338.0,22.3458404,88.3069213
41506,Dinagar,58,338.0,25.2930666,88.56015529999999
41507,Bajitpur,59,338.0,22.7081418,88.8527026
41508,Batashkhanda,60,338.0,25.2693177,88.5553228
41509,Muraripur,61,338.0,23.3967859,88.02897159999999
41510,Rajapur,62,338.0,23.5965449,88.36496939999999
41511,Tapan,63,338.0,25.3065033,88.5710266
41512,Kasba,64,338.0,22.5176176,88.3840499
41513,Kasba Madhabpur,65,338.0,25.3029103,88.5824988
41514,Baghait,66,338.0,25.3080426,88.57706499999999
41515,Salas,67,338.0,25.3153674,88.56861099999999
41516,Kajibhag,68,338.0,-1.0,-1.0
41517,Sihur,69,338.0,22.9326082,87.606295
41518,Daudpur,70,338.0,22.275946,88.83110219999999
41519,Salsama,71,338.0,25.3211514,88.55411459999999
41520,Chakbaliram,72,338.0,25.3382021,88.5559269
41521,Nihinagar,73,338.0,25.3309255,88.56921489999999
41522,Faradpur,74,338.0,25.3318342,88.58672469999999
41523,Uttar Keshrail,75,338.0,25.3418927,88.2777465
41524,Khiratta,76,338.0,-1.0,-1.0
41525,Chenchra,77,338.0,25.3333406,88.44159979999999
41526,Santirhati,78,338.0,25.3261605,88.6132774
41527,Hossainpur,79,338.0,24.7574066,87.96375379999999
41528,Jaminikarai,80,338.0,-1.0,-1.0
41529,Jaminipara,81,338.0,25.5487363,88.3712796
41530,Korai,82,338.0,22.2084249,87.6716747
41531,Rajeshwarpur,83,338.0,23.0296791,88.1949782
41532,Uttar Gouripur,84,338.0,25.714307,88.35914389999999
41533,Dhulahar,85,338.0,22.5738343,88.1779182
41534,Kadoyajagadishbati,86,338.0,-1.0,-1.0
41535,Hajaratpur,87,338.0,22.5934953,87.5284578
41536,Malancha,88,338.0,22.5004512,88.7674361
41537,Kamalpur,89,338.0,23.3009283,86.84650359999999
41538,Nischinta,90,338.0,25.3438888,88.6084509
41539,Chakradhakanta,91,338.0,25.3468963,88.6132774
41540,Ambati,92,338.0,25.3440017,88.6205162
41541,Minapara,93,338.0,25.5858799,88.384625
41542,Harsura,94,338.0,25.3634007,88.63619589999999
41543,Uttar Mahadevpur,95,338.0,26.3603742,88.40402910000002
41544,Saranjabari,96,338.0,25.3753811,88.6506644
41545,Gandihar,97,338.0,25.3635772,88.65548609999999
41546,Bandighi,98,338.0,23.5616716,87.40215649999999
41547,Srirampur,99,338.0,22.748331,88.3385053
41548,Parbatipur,100,338.0,22.6548287,88.2290783
41549,Krishnabati,101,338.0,22.8193182,88.15719349999999
41550,Rampur,102,338.0,25.3470758,88.632578
41551,Jagadishbati,103,338.0,25.3410844,88.6253413
41552,Jabrahar,104,338.0,25.3344025,88.623532
41553,Sirahal,105,338.0,25.3352491,88.63499
41554,Malahar,106,338.0,25.3277653,88.62654750000002
41555,Mahadevbati,107,338.0,26.3238545,89.6695975
41556,Suhari,108,338.0,25.341218,88.6398135
41557,Dhulchandria,109,338.0,25.3339991,88.6603073
41558,Jaydharhati,110,338.0,25.329501,88.6542807
41559,Mahanaj,111,338.0,25.3162247,88.6603073
41560,Kharpa,112,338.0,25.4473177,88.58431
41561,Pothai,113,338.0,25.3087419,88.6518699
41562,Hasnagar,114,338.0,25.2999196,88.6591021
41563,Alinagar,115,338.0,24.881986,87.9996115
41564,Shankair,116,338.0,25.1893609,88.2813944
41565,Badsankair,117,338.0,25.2881123,88.6639228
41566,Muradpur,118,338.0,22.0790209,87.9065098
41567,Satihar,119,338.0,25.2774715,88.80588759999999
41568,Chak Satihar,120,338.0,25.2823163,88.6783818
41569,Badbashudebpur,121,338.0,21.8248993,87.62110609999999
41570,Chayani Bashudebpur,122,338.0,-1.0,-1.0
41571,Chakbalaram,123,338.0,25.268951,88.6747675
41572,Shefalika Chandan,124,338.0,-1.0,-1.0
41573,Walipara,125,338.0,25.2703352,88.6639228
41574,Banial,126,338.0,25.2628516,88.65548609999999
41575,Sadullapur,127,338.0,24.9663538,88.1022869
41576,Fatullapur,128,338.0,24.5268082,88.0680883
41577,Chaknedair,129,338.0,23.047858,88.5130144
41578,Nedair,130,338.0,25.2804973,88.6410193
41579,Chandpur,131,338.0,22.6851815,88.42706020000001
41580,Darpail,132,338.0,25.2923041,88.63619589999999
41581,Jaminischinta,133,338.0,25.3025954,88.6277537
41582,Jajiar,134,338.0,22.5505635,88.36275649999999
41583,Raj Ballavchak,135,338.0,22.577189,87.0049416
41584,Durgapur,136,338.0,23.5204443,87.3119227
41585,Chandhati,137,338.0,25.3157808,88.6120708
41586,Karanjabari,138,338.0,25.3288865,88.3057061
41587,Majikhanda,139,338.0,-1.0,-1.0
41588,Dwipkhanda,140,338.0,25.2978693,88.5975892
41589,Khordamalsha,141,338.0,25.2868105,88.60302039999999
41590,Nodhan,142,338.0,25.2876249,88.6108642
41591,Baneshwarbati,143,338.0,24.9862873,88.13943979999999
41592,Bejahar,144,338.0,-1.0,-1.0
41593,Panjara,145,338.0,25.2877821,88.6277537
41594,Bhaginagar,146,338.0,25.2818566,88.6277537
41595,Boalikshetra,147,338.0,22.5095352,88.3974764
41596,Chakprabhuram,148,338.0,25.2788042,88.6181034
41597,Chakmoniram,149,338.0,-1.0,-1.0
41598,Shakair,150,338.0,25.2685125,88.62654750000002
41599,Hardail,151,338.0,25.2647249,88.6175002
41600,Mahadevpur,152,338.0,26.3603742,88.40402910000002
41601,Shibrampur,153,338.0,22.4888364,88.2707538
41602,Cheraikuri,154,338.0,22.5320881,88.37228669999999
41603,Jidhara,155,338.0,-1.0,-1.0
41604,Kistapur,156,338.0,25.2742584,88.6072441
41605,Sarifabad,157,338.0,22.3511193,87.65194729999999
41606,Jashrai,158,338.0,25.2755227,88.58431
41607,Sundarpur,159,338.0,23.8730463,87.9420584
41608,Enatpur,160,338.0,25.0782665,87.93470579999999
41609,Madanhar,161,338.0,23.0089428,88.49123949999999
41610,Jamalgachi,162,338.0,22.4495273,88.3955409
41611,Bishnupur,163,338.0,23.0678795,87.3165222
41612,Mahisnota,164,338.0,22.7118948,88.4173644
41613,Halidana,165,338.0,25.232221,88.54928129999999
41614,Moha,166,338.0,25.2367246,88.5553228
41615,Telighatabhavanipur,167,338.0,-1.0,-1.0
41616,Dakshin Jamalpur,168,338.0,25.2441676,88.5589473
41617,Sehas,169,338.0,23.0021855,87.6441615
41618,Mamudpur,170,338.0,22.8894533,88.4525012
41619,Ramrampur,171,338.0,24.1901836,87.7738735
41620,Jamlabad,172,338.0,25.2618515,88.54928129999999
41621,Patharghata,173,338.0,22.5684389,88.52510679999999
41622,Ramchandrapur,174,338.0,22.8911172,88.4706642
41623,Madavpur,175,338.0,21.8742725,87.5846868
41624,Jiatkundu,176,338.0,22.3533851,88.46703219999999
41625,Chandipur,177,338.0,22.1022227,87.8574308
41626,Jagannathpur,178,338.0,22.7462731,88.4467528
41627,Dharmadanga,179,338.0,25.5398027,88.3664257
41628,Chakmadhusudan,180,338.0,25.2955275,88.50938599999999
41629,Chak Bhagirath,181,338.0,25.2866397,88.50938599999999
41630,Benipur,182,338.0,22.7064285,88.2491605
41631,Badalpur,183,338.0,25.439065,88.35914389999999
41632,Vikahar,184,338.0,22.4739707,88.3765118
41633,Ganguria,185,338.0,22.9634014,88.55773909999999
41634,Hazrabari,186,338.0,25.2540003,88.50454769999999
41635,Mehur,187,338.0,25.248001,88.49728920000001
41636,Bhaior,188,338.0,25.2551988,88.47671679999999
41637,Aichanda,189,338.0,25.2374704,88.4815582
41638,Ghatul,190,338.0,25.2388651,88.4730853
41639,Dhasanbill,191,338.0,25.2388152,88.46824289999999
41640,Nababnagar,192,338.0,26.239029,89.49734300000001
41641,Laksminarayanpur,193,338.0,25.2679846,88.733762
41642,Nahirkuri,194,338.0,25.2061699,88.4633999
41643,Beruli,195,338.0,22.394397,88.39432819999999
41644,Bhakharpur,196,338.0,24.920158,88.0839695
41645,Basakbari,197,338.0,25.2149089,88.4488677
41646,Baturia,198,338.0,25.2180481,88.4658215
41647,Ghatika,199,338.0,25.2313449,88.46218909999999
41648,Salgaon,200,338.0,25.2255185,88.4718747
41649,Sishrail,201,338.0,25.2256178,88.4815582
41650,Bhadrail,202,338.0,25.2257165,88.49123949999999
41651,Gopalnagar,203,338.0,23.0613166,88.76178700000001
41652,Gurail,204,338.0,22.2116611,86.89115679999999
41653,Soyair,205,338.0,-1.0,-1.0
41654,Shyampur,206,338.0,22.299502,88.02774869999999
41655,Jobsha,207,338.0,25.2423659,88.5263159
41656,Fatehpur,208,338.0,24.0811089,87.73080569999999
41657,Aktail,209,338.0,25.2335959,88.5384045
41658,Chakbrindaban,210,338.0,25.2276219,88.53356939999999
41659,Dubahar,211,338.0,25.2260084,88.52027029999999
41660,Paschim Nimpur,212,338.0,21.8141748,87.30906829999999
41661,Chatrahati,213,338.0,23.008141,88.4088788
41662,Katrail,214,338.0,25.2080834,88.5057574
41663,Ahera,215,338.0,25.2067107,88.5166425
41664,Kartickpur,216,338.0,22.6976145,88.6389828
41665,Erenda,217,338.0,21.931646,87.5865393
41666,Kakna,218,338.0,25.2202733,88.5396131
41667,Kamdevbati,219,338.0,-1.0,-1.0
41668,Gorenda,220,338.0,-1.0,-1.0
41669,Atila,221,338.0,25.2025876,88.54928129999999
41670,Mallickpur,222,338.0,22.7949486,88.91264489999999
41671,Kaikuri,223,338.0,25.1924374,88.5722344
41672,Dakshin Sadulyapur,224,338.0,25.1806291,88.57706499999999
41673,Kashikuri,225,338.0,25.1895892,88.58431
41674,Banail,226,338.0,25.7331077,88.3215014
41675,Nimgachi,227,338.0,-1.0,-1.0
41676,Saldanga,228,338.0,23.6539418,87.5927138
41677,Khalsi,229,338.0,23.3080912,88.48518899999999
41678,Jasurapara,230,338.0,25.2102416,88.5746498
41679,Chak Jalal,231,338.0,25.2103339,88.58431
41680,Chak darpanarayan,232,338.0,25.2251967,88.58913919999999
41681,Shankarbati,233,338.0,22.8780492,88.35428859999999
41682,Arjunpur,234,338.0,24.7195077,87.9396076
41683,Kauli,235,338.0,25.2046575,88.6108642
41684,Dudhiyakuri,236,338.0,-1.0,-1.0
41685,Dakshin Harsura,237,338.0,25.2208317,88.5975892
41686,Dilalpur,238,338.0,22.858172,88.16938569999999
41687,Naighati,239,338.0,25.2282741,88.60121
41688,Jadubati,240,338.0,25.2341551,88.5963821
41689,Patkola,241,338.0,25.2387021,88.6072441
41690,Dhundipara,242,338.0,25.2432259,88.6156905
41691,Madanpur,243,338.0,23.0089428,88.49123949999999
41692,Shibpur,244,338.0,22.5723094,88.3117819
41693,Kashibati,245,338.0,25.4756231,88.1937598
41694,Ijanagar,246,338.0,22.1771902,88.4258483
41695,Kesharkuri,247,338.0,-1.0,-1.0
41696,Dakshin Keshrail,248,338.0,25.2449855,88.6458421
41697,Kashitara,249,338.0,25.3267475,88.01429399999999
41698,Mahukuri,250,338.0,25.2464119,88.6398135
41699,Balapur,251,338.0,25.2316399,88.64463649999999
41700,Purbanimpur,252,338.0,25.2315516,88.63499
41701,Hajipur,253,338.0,23.0806023,87.45668169999999
41702,Kharikadanga.,254,338.0,24.2188838,88.0253027
41703,Daingmalancha,255,338.0,25.2151754,88.62654750000002
41704,Chakshib,256,338.0,25.2226828,88.63880909999999
41705,Maildanga,257,338.0,25.2138156,88.6398135
41706,Sondhapukur,258,338.0,25.2078445,88.63499
41707,Paharpur,259,338.0,22.5244929,88.2971985
41708,Daing,260,338.0,25.2212792,88.6458421
41709,Chechrakuri,261,338.0,25.2228376,88.6542807
41710,Bhabanipur,262,338.0,22.4224226,88.4422055
41711,Chachair,263,338.0,22.54213,88.352144
41712,Chenchai,264,338.0,23.1615175,88.01674059999999
41713,Parbatpur,265,338.0,23.0620818,88.0399767
41714,Hasaipur,266,338.0,25.2511296,88.66994799999999
41715,Gobindapur,267,338.0,22.3781175,88.4052416
41716,Gofanagar,268,338.0,25.2572273,88.6892228
41717,Kharikadanga,269,338.0,24.2188838,88.0253027
41718,Sulpanipur,270,338.0,22.7733524,87.7098723
41719,Manipur,271,338.0,22.2766043,88.92701819999999
41720,Gyanboi,272,338.0,22.5803615,88.3317917
41721,Kashmulai,273,338.0,25.2334791,88.68440489999999
41722,Sriboi,274,338.0,-1.0,-1.0
41723,Bharila,275,338.0,25.2237033,88.66814049999999
41724,Abhirampur,276,338.0,23.4300024,87.6334451
41725,Tarajpur,277,338.0,25.2200691,88.6759723
41726,Dakshin Jajyar,278,338.0,-1.0,-1.0
41727,Haribangsipur,279,338.0,-1.0,-1.0
41728,Kantaban,1,339.0,25.5060624,88.53598699999999
41729,Singh  Farakka,2,339.0,24.6819011,87.95614739999999
41730,Nala  Farka,3,339.0,25.5002609,88.5480729
41731,Anantapur,4,339.0,24.1233506,88.10717029999999
41732,Mallickpur,5,339.0,22.7949486,88.91264489999999
41733,Hamjapur,6,339.0,25.4941369,88.59072450000001
41734,Madhabpur,7,339.0,21.8742725,87.5846868
41735,Abidpur,8,339.0,25.5035507,88.5818951
41736,Lalchandpur,9,339.0,26.5957763,89.7931804
41737,Brahman Para,10,339.0,23.3771844,88.3991789
41738,Bitur,11,339.0,25.5104137,88.60302039999999
41739,Arazi  Lalchandpur,12,339.0,25.5067416,88.60603739999999
41740,Baikunthapur,13,339.0,22.378963,88.4155462
41741,Basuria,14,339.0,25.314747,88.5057574
41742,Belasthali,15,339.0,25.4771345,88.60603739999999
41743,Uttar  Gopalpur,16,339.0,25.3550074,88.2595023
41744,Chak  Shibpur,17,339.0,25.4800038,88.5963821
41745,Damahar,18,339.0,25.4859483,88.5987961
41746,Latkeshabpur,19,339.0,25.4917546,88.58672469999999
41747,Paschimkashipur,20,339.0,25.4857402,88.57706499999999
41748,Harishpur,21,339.0,23.6039022,87.17967929999999
41749,Damodarpur,22,339.0,22.7796573,87.7344988
41750,Tokipur,23,339.0,22.8641529,87.927352
41751,Daulatpur,24,339.0,25.3290095,88.3269552
41752,Khojapur,25,339.0,24.1458869,87.6913936
41753,Dafarpur,26,339.0,24.4441063,88.1022869
41754,Kasba,27,339.0,22.5176176,88.3840499
41755,Kathalhat Hossenpur,28,339.0,25.480837,88.5299428
41756,Ramkrishnapur,29,339.0,25.2757475,88.9713045
41757,Jafarpur,30,339.0,22.3213882,88.2485521
41758,Bhoral,31,339.0,25.4630237,88.52510679999999
41759,Kantatair,32,339.0,25.463667,88.53502900000001
41760,Nawdapara,33,339.0,24.1174176,88.23273030000001
41761,Khairban,34,339.0,-1.0,-1.0
41762,Debipur,35,339.0,23.1421728,88.1585029
41763,Narayanpur,36,339.0,22.6453065,88.46218909999999
41764,Malipara,37,339.0,25.1464087,88.2199469
41765,Shukdebpur,38,339.0,24.7359659,88.06197859999999
41766,Jaydebpur,39,339.0,25.4678613,88.49846380000001
41767,Haripur,40,339.0,23.6773318,87.1934619
41768,Pargaon,41,339.0,25.4448659,88.4863991
41769,Akchha,42,339.0,25.4329717,88.4815582
41770,Mahipur,43,339.0,25.760321,88.1266983
41771,Jalalpur,44,339.0,24.8936308,88.0700482
41772,Boaldaha,45,339.0,23.1012252,88.8431038
41773,Patan,46,339.0,25.4271485,88.49123949999999
41774,Charullah,47,339.0,-1.0,-1.0
41775,Maharajpur,48,339.0,22.6357379,87.66551079999999
41776,Thangapara,49,339.0,24.1863087,88.4185765
41777,Karial,50,339.0,25.4031582,88.46218909999999
41778,Bhaktipur,51,339.0,25.3971341,88.4525012
41779,Nandanpur,52,339.0,22.647108,87.8402405
41780,Fatenagar,53,339.0,25.1081571,87.8997646
41781,Bikoir,54,339.0,-1.0,-1.0
41782,Hapania,55,339.0,23.5360424,88.2290783
41783,Radhanagar,56,339.0,22.7263702,87.8660235
41784,Ratanpur,57,339.0,23.4107541,87.8463807
41785,Shekhpur,58,339.0,25.9475969,87.8782959
41786,Nagan,59,339.0,25.3508816,88.4197886
41787,Kabirpur,60,339.0,23.1884025,88.1474374
41788,Sadipur,61,339.0,23.1282478,87.9751299
41789,Bajitpur,62,339.0,22.7081418,88.8527026
41790,Singrail,63,339.0,23.243124,88.31603439999999
41791,Harishpur  Ganeshpur,64,339.0,-1.0,-1.0
41792,Patul,65,339.0,22.7527487,88.1578826
41793,Jalilpur,66,339.0,25.3420989,88.4294838
41794,Hasanpur,67,339.0,24.1742716,88.40402910000002
41795,Ranipur,68,339.0,23.4782489,86.54764109999999
41796,Mainapur,69,339.0,23.0082534,87.4925837
41797,Sahabajpur,70,339.0,24.8264967,88.06564449999999
41798,Bishrail,71,339.0,25.3600749,88.4488677
41799,Tholahar,72,339.0,25.3542523,88.45855639999999
41800,Hiranyabati,73,339.0,25.3543278,88.4658215
41801,Mahasura,74,339.0,25.3602265,88.4633999
41802,Sahanali,75,339.0,25.3675681,88.4573454
41803,Tilna,76,339.0,25.4713754,88.2095958
41804,Burinagar,77,339.0,25.3662505,88.4730853
41805,Sayarapur,78,339.0,22.5953728,87.759112
41806,Jadavbati,79,339.0,22.2912245,88.21446720000002
41807,Joypur,80,339.0,23.0551658,87.44801149999999
41808,Belbari,81,339.0,25.4014266,88.5099908
41809,Kadighat,82,339.0,25.4080105,88.50212839999999
41810,Kadihat,83,339.0,25.3983587,88.507871
41811,Rajibpur,84,339.0,22.8249245,88.5589473
41812,Indra  Narayanpur,85,339.0,21.9115728,88.384625
41813,Puranpara,86,339.0,25.3975332,88.5278271
41814,Kamarpukuria,87,339.0,22.8976163,87.6556468
41815,Durgapur,88,339.0,23.5204443,87.3119227
41816,Bishnupur,89,339.0,23.0678795,87.3165222
41817,Gopalpur,90,339.0,23.4976267,87.3959564
41818,Saidpur,91,339.0,22.8426204,87.9316419
41819,Amgao,92,339.0,25.3727859,88.53356939999999
41820,Gangarampur,93,339.0,25.40091,88.53236059999999
41821,Ramchandrapur,94,339.0,22.8911172,88.4706642
41822,Ashwinpara,95,339.0,25.3907232,88.5504897
41823,Jotmalkha,96,339.0,-1.0,-1.0
41824,Raghunathbati,97,339.0,25.3996081,88.5504897
41825,Ratanmala,98,339.0,25.4026405,88.55773909999999
41826,Minapara,99,339.0,25.5858799,88.384625
41827,Damina,100,339.0,25.4101967,88.5734421
41828,Kamalpur,101,339.0,23.3009283,86.84650359999999
41829,Narai,102,339.0,25.3865504,88.57827259999999
41830,Gachiar,103,339.0,25.3864572,88.56861099999999
41831,Chamuk,104,339.0,25.3759854,88.55773909999999
41832,Chak Jaikrishnapur,105,339.0,25.3760558,88.56498739999999
41833,Raghabpur,106,339.0,23.5225933,86.60440729999999
41834,Dhonail,107,339.0,25.3733032,88.58672469999999
41835,Najirpur,108,339.0,24.1461974,88.4930545
41836,Raghunathpur,109,339.0,23.5343795,86.6686635
41837,Tetrail,110,339.0,25.3851965,88.59155369999999
41838,Atash,111,339.0,25.3970203,88.58913919999999
41839,Sekhmina,112,339.0,25.4087741,88.5794801
41840,Shikarpur,113,339.0,23.1864083,87.7628028
41841,Shyampur,114,339.0,22.299502,88.02774869999999
41842,Chakra  Panipur,115,339.0,25.4204329,88.56015529999999
41843,Keshabpur,116,339.0,22.8861165,87.8991514
41844,Kashimpur,117,339.0,25.2752221,87.92857769999999
41845,Mahur  Kismat,118,339.0,25.4395273,88.54444749999999
41846,Jahangirpur,119,339.0,24.4589833,88.1047287
41847,Nandair,120,339.0,25.4634989,88.5734421
41848,Sidlim,121,339.0,-1.0,-1.0
41849,Ghoradaur,122,339.0,23.2214,87.88369999999999
41850,Samra,123,339.0,25.4503481,88.59155369999999
41851,Kharpa,124,339.0,25.4473177,88.58431
41852,Sultanpur,125,339.0,22.7733524,87.7098723
41853,Rasidpur,126,339.0,22.5047804,87.42508959999999
41854,Araji  Ilamtair,127,339.0,-1.0,-1.0
41855,Haridaspur,128,339.0,24.2536352,87.74557639999999
41856,Ramdebpur,129,339.0,25.4623009,88.0766404
41857,Ilamtair,130,339.0,25.4418254,88.55230209999999
41858,Hekandair,131,339.0,25.4352159,88.55773909999999
41859,Fayezpur,132,339.0,25.4323017,88.5625714
41860,Enayetpur,133,339.0,25.0782665,87.93470579999999
41861,Srinathbati,134,339.0,25.4412791,88.5722344
41862,Nehatair,135,339.0,25.4383878,88.5794801
41863,Tilchhara,136,339.0,25.4265427,88.5794801
41864,Banihari,137,339.0,25.501876,88.4173644
41865,Madhyaraghunathpur,138,339.0,25.4326039,88.59396799999999
41866,Janchi,139,339.0,25.4414647,88.59155369999999
41867,Chakashri,140,339.0,-1.0,-1.0
41868,Mathurapur,141,339.0,22.1202674,88.39432819999999
41869,Katkihar,142,339.0,25.5488415,87.6186379
41870,Chhilimpur,143,339.0,25.4175433,88.16572839999999
41871,Sahara,144,339.0,21.7494776,87.45668169999999
41872,Antal,145,339.0,25.4623526,88.6084509
41873,Tausi,146,339.0,-1.0,-1.0
41874,Ratinathpur,147,339.0,25.4758015,88.62172249999999
41875,Kumargara,148,339.0,25.481813,88.631372
41876,Bhadra,149,339.0,22.0524793,87.2207739
41877,Mahakhair,150,339.0,25.495871,88.63076900000002
41878,Teliapara,151,339.0,25.1609217,88.38826399999999
41879,Hariharpur,152,339.0,22.2475818,87.92490049999999
41880,Faridpur  Domutha,153,339.0,25.4755267,88.6574095
41881,Shibkrishnapur,154,339.0,25.4655392,88.632578
41882,Chalun,155,339.0,25.4522032,88.631372
41883,Narail,156,339.0,25.447928,88.6494589
41884,Chandura,157,339.0,25.4597726,88.6494589
41885,Purba Shankarpur,158,339.0,25.5900641,88.3615713
41886,Kamarkhair,159,339.0,25.4569213,88.6615125
41887,Purba Bishnupur,160,339.0,23.091187,88.62441969999999
41888,Rampur,161,339.0,25.3470758,88.632578
41889,Kashipur,162,339.0,23.4341206,86.6678714
41890,Garoa,163,339.0,25.4349607,88.6892228
41891,Ashokgram,164,339.0,25.4348748,88.6795865
41892,Udharapranathpur,165,339.0,-1.0,-1.0
41893,Bholanathpur,166,339.0,25.4581209,88.8010831
41894,Shrirampur,167,339.0,22.748331,88.3385053
41895,Gokulpur,168,339.0,22.6802668,88.2400333
41896,Bhabanipur,169,339.0,22.4224226,88.4422055
41897,Karail,170,339.0,25.4214294,88.666333
41898,Nehamba,171,339.0,-1.0,-1.0
41899,Nilhari,172,339.0,24.2921142,87.8376761
41900,Raishali,173,339.0,27.0364491,88.2633238
41901,Chakashan,174,339.0,25.4391541,88.6615125
41902,Raypur,175,339.0,23.631129,87.65687989999999
41903,Tikirahail,176,339.0,25.4428064,88.65608879999999
41904,Kurumsur,177,339.0,25.4344805,88.63619589999999
41905,Mirjapur,178,339.0,23.2817971,87.88197699999999
41906,Parbbatipur,179,339.0,22.6548287,88.2290783
41907,Adigram,180,339.0,21.9997628,88.0020589
41908,Taraju,181,339.0,25.4121917,88.6277537
41909,Uday,182,339.0,25.4107891,88.63619589999999
41910,Jagadishpur,183,339.0,22.652507,88.289905
41911,Chalunda,184,339.0,25.3975836,88.6494589
41912,Bhuinhara,185,339.0,25.5789182,88.2923363
41913,Chandipara,186,339.0,25.4003454,88.6277537
41914,Mahendri,187,339.0,25.3913705,88.6181034
41915,Biranai,188,339.0,25.3999215,88.6022661
41916,Basudebpur,189,339.0,21.8248993,87.62110609999999
41917,Shankarpur,190,339.0,21.6491352,87.5698638
41918,Kunail,191,339.0,25.4177741,88.59155369999999
41919,Nitpur  Prasadpur,192,339.0,25.4147435,88.58431
41920,Mostafapur,193,339.0,22.6509608,87.9065098
41921,Durgaramchak,194,339.0,25.3912117,88.60121
41922,Narsundarpara,195,339.0,-1.0,-1.0
41923,Pulinda,196,339.0,24.0064708,88.2777465
41924,Phulbari,197,339.0,26.6671059,88.4188101
41925,Nakair,198,339.0,25.3689638,88.5975892
41926,Khaspara,199,339.0,25.364646,88.6108642
41927,Deodhara,200,339.0,25.3558052,88.6156905
41928,Khatiabandha,201,339.0,25.3595584,88.62111929999999
41929,Hazichak,202,339.0,25.3647363,88.6205162
41930,Palsa,203,339.0,24.4706117,87.8623411
41931,Ausha,204,339.0,23.2599685,88.00982650000002
41932,Panchagram,205,339.0,24.2053088,88.00940039999999
41933,Shivpur,206,339.0,22.5723094,88.3117819
41934,Daulatpur,77,340.0,25.3290095,88.3269552
41935,Madhupur,117,340.0,26.363461,89.3807678
41936,Chakpara,118,340.0,22.6259797,88.3166419
41937,Bhagabatdanga,119,340.0,25.4509088,88.35914389999999
41938,Kelna,120,340.0,25.4510164,88.36885269999999
41939,Kakahar,121,340.0,24.6814845,87.9527787
41940,Dahuakuri,122,340.0,25.4482156,88.38341199999999
41941,Gopalpur,123,340.0,23.4976267,87.3959564
41942,Badalpur,124,340.0,25.439065,88.35914389999999
41943,Mungarail,125,340.0,25.4359687,88.3470047
41944,Paschim  Chandipur,126,340.0,25.143465,87.83041449999999
41945,Bighua,127,340.0,21.6266172,87.5074315
41946,Bhaior,128,340.0,25.2551988,88.47671679999999
41947,Baragram,129,340.0,23.2438149,86.6371758
41948,Sardarpur,130,340.0,22.8688775,88.0668664
41949,Ranabindal,131,340.0,-1.0,-1.0
41950,Kusumba,132,340.0,24.1959098,87.759112
41951,Alipur,133,340.0,26.4918891,89.52710259999999
41952,Bhitramshum,134,340.0,-1.0,-1.0
41953,Rasulpur,137,340.0,23.1840099,88.0301946
41954,Chaugharia,138,340.0,23.2844092,88.2132494
41955,Angaran,139,340.0,25.3975272,88.3518608
41956,Jotnasir,140,340.0,25.3878415,88.3463977
41957,Ilashpur,141,340.0,22.1242696,87.7246498
41958,Dumnipara,142,340.0,25.3944026,88.3372909
41959,Kalyani,145,340.0,22.9750855,88.43450779999999
41960,Mangalpur,146,340.0,23.0706329,87.68030279999999
41961,Sahabaddipur,147,340.0,25.3797582,88.3518608
41962,Gobindapur,148,340.0,22.3781175,88.4052416
41963,Saiyadpur,149,340.0,21.6803437,87.5649218
41964,Mirpur,150,340.0,22.7093319,88.3117819
41965,Kushkari,151,340.0,25.3781007,88.33607649999999
41966,Hasamaddipur,153,340.0,-1.0,-1.0
41967,Biralipara,154,340.0,25.3528579,88.33000419999999
41968,Bhutihari,155,340.0,25.358918,88.3421481
41969,Patra,156,340.0,23.2416347,88.11815589999999
41970,Jotmusak,157,340.0,25.3439449,88.327575
41971,Rankhapara,158,340.0,-1.0,-1.0
41972,Jadupur,159,340.0,25.0799986,88.1460433
41973,Shankarpur,160,340.0,21.6491352,87.5698638
41974,Baharail,161,340.0,25.7385725,88.2826103
41975,Gandharbapur,162,340.0,22.5204411,88.1983736
41976,Mahammadpur,163,340.0,22.1879672,87.9224488
41977,Kesharghata,164,340.0,25.3128844,88.3312187
41978,Barabari,165,340.0,22.0988761,88.0680883
41979,Rejatpur,166,340.0,25.3026933,88.3470047
41980,Paharpur,167,340.0,22.5244929,88.2971985
41981,Amilash,168,340.0,25.3028818,88.3639986
41982,Gerul,169,340.0,25.2999997,88.3712796
41983,Deogaon,170,340.0,25.6214453,88.38947689999999
41984,Rajapur,171,340.0,23.5965449,88.36496939999999
41985,Mirahati,172,340.0,25.3074986,88.3797726
41986,Dakshin Gopalpur,173,340.0,22.3996538,87.71356709999999
41987,Kandarpur,174,340.0,25.3116882,88.3567163
41988,Ranipur,175,340.0,23.4782489,86.54764109999999
41989,Sisa,176,340.0,25.3114987,88.3397196
41990,Banamalipur,177,340.0,22.7616738,88.1949782
41991,Nachhuapara,178,340.0,25.3176126,88.3567163
41992,Ganguria,179,340.0,22.9634014,88.55773909999999
41993,Bikaldanga,180,340.0,25.3324232,88.3567163
41994,Amarpur,181,340.0,22.0499237,87.5272212
41995,Rupahata,182,340.0,25.3384279,88.3639986
41996,Chhoto  Fayjullapur,183,340.0,-1.0,-1.0
41997,Srirampur,184,340.0,22.748331,88.3385053
41998,Bajerupahata,185,340.0,-1.0,-1.0
41999,Balipukur,186,340.0,25.3502488,88.3615713
42000,Samaspur,187,340.0,25.6969308,88.2631517
42001,Krishnapur,188,340.0,22.6627899,88.2765304
42002,Panjaripara,189,340.0,26.1431405,88.0240796
42003,Mahabari,190,340.0,25.36495,88.3518608
42004,Puria,191,340.0,25.3708192,88.3470047
42005,Habili,192,340.0,23.6808342,88.2907281
42006,Shyampur,193,340.0,22.299502,88.02774869999999
42007,Ghashipur,194,340.0,23.4341206,86.6678714
42008,Sarai,195,340.0,22.5732779,87.4727791
42009,Subarna  Sarai,196,340.0,25.3887238,88.35914389999999
42010,Chengra,197,340.0,24.3050753,88.2740982
42011,Pichhla,198,340.0,25.827118,87.927352
42012,Kamalpur,199,340.0,23.3009283,86.84650359999999
42013,Malam,200,340.0,22.0676442,87.1497698
42014,Rahimpur,201,340.0,22.749072,88.01062379999999
42015,Khidirpur,202,340.0,22.54206,88.3189579
42016,Selimabad,203,340.0,23.0797311,87.99975289999999
42017,Sakrail,204,340.0,22.5445343,88.22177330000001
42018,Narayanpur,205,340.0,22.6453065,88.46218909999999
42019,Rangapukur,206,340.0,25.4169583,88.4008005
42020,Krishnabati,207,340.0,22.8193182,88.15719349999999
42021,Chandmukh,208,340.0,25.4261269,88.39432819999999
42022,Banshihari,209,340.0,25.3948737,88.4134627
42023,Bhimbati,210,340.0,25.4482952,88.3906897
42024,Mahugram,211,340.0,25.443946,88.3991789
42025,Chandipur,212,340.0,22.1022227,87.8574308
42026,Dashul,213,340.0,25.3411594,88.8046865
42027,Uttar  Laxmipur,214,340.0,25.0648982,88.0424219
42028,Raghabnagar,215,340.0,25.4248689,88.4149401
42029,Daudpur,216,340.0,22.275946,88.83110219999999
42030,Jaganathpur,217,340.0,22.7462731,88.4467528
42031,Uttar  Amarpur,218,340.0,23.8989026,87.6692092
42032,Jamar,219,340.0,23.2749276,87.92490049999999
42033,Suripukur,220,340.0,25.4622802,88.4525012
42034,Makrampur,221,340.0,22.2123713,87.3903756
42035,Tikul,222,340.0,25.4740214,88.4428112
42036,Bhingaldaha,223,340.0,25.4874845,88.45613440000001
42037,Sihal,224,340.0,25.4815379,88.45371229999999
42038,Jasodapur,225,340.0,25.4756165,88.45371229999999
42039,Dhutura,226,340.0,25.4697456,88.45855639999999
42040,Banipara,227,340.0,25.4757177,88.4633999
42041,Jaharpur,228,340.0,25.4743754,88.47671679999999
42042,Dakshingaon,229,340.0,25.4609891,88.4706642
42043,Elahabad,230,340.0,25.4505881,88.46703219999999
42044,Chandipukur-(231),231,340.0,22.4796271,88.0191871
42045,Ojantor,232,340.0,25.4341887,88.45613440000001
42046,Mahadipur,233,340.0,24.852468,88.1254781
42047,Barajhara,234,340.0,25.4400093,88.4464452
42048,Chhoto  Karai,235,340.0,-1.0,-1.0
42049,Karai,236,340.0,25.3377817,88.58913919999999
42050,Elankuri,237,340.0,25.4252036,88.4464452
42051,Naopara,238,340.0,22.8128009,88.38098579999999
42052,Nandura,239,340.0,23.9973909,87.696322
42053,Bataskuri,240,340.0,25.4111946,88.4518957
42054,Uttar  Daulatpur,241,340.0,25.4163706,88.4512901
42055,Pathanpara,242,340.0,23.9256748,87.9316419
42056,Uttar  Srirampur,243,340.0,25.4133074,88.44159979999999
42057,Sahananda,244,340.0,25.4029553,88.4428112
42058,Barahara,245,340.0,25.3962856,88.4422055
42059,Bajebikair,246,340.0,-1.0,-1.0
42060,Dhitol,247,340.0,23.2415168,88.4138395
42061,Bara  Haripur,248,340.0,22.7804007,88.27288209999999
42062,Barakhair,249,340.0,25.416063,88.42221260000001
42063,Dhumpara,250,340.0,25.4086208,88.4185765
42064,Chak  Chandmukh,251,340.0,25.4144394,88.4088788
42065,Math  Khidirpur,252,340.0,22.512764,88.328743
42066,Khusipur,253,340.0,25.4038778,88.3906897
42067,Serpur,254,340.0,22.3162371,88.3065166
42068,Barail,255,340.0,25.2208803,88.07297539999999
42069,Rasidpur,256,340.0,22.5047804,87.42508959999999
42070,Mirzatpur,257,340.0,25.4635109,88.17182369999999
42071,Haldi,258,340.0,23.3400989,87.793548
42072,Shibpur,259,340.0,22.5723094,88.3117819
42073,Jaydebpur,260,340.0,25.4678613,88.49846380000001
42074,Koil,261,340.0,23.3919795,88.13122050000001
42075,Aligara,262,340.0,25.3922419,88.4100911
42076,Buniadpur,263,340.0,25.3875501,88.387051
42077,Thingur,264,340.0,25.3802121,88.3931154
42078,Ambai,265,340.0,26.6445756,88.5057574
42079,Chak  Sadullya,266,340.0,25.3726093,88.37491969999999
42080,Andharmanik,267,340.0,22.3701738,88.3555025
42081,Ustair,268,340.0,-1.0,-1.0
42082,Dilkanthi,269,340.0,25.3489149,88.37491969999999
42083,Karkha,270,340.0,25.3594538,88.3906897
42084,Kuarsai,271,340.0,25.3684705,88.4028166
42085,Sayestabad,272,340.0,25.3715626,88.4149401
42086,Kanur,273,340.0,23.1097444,88.3008448
42087,Baje  Kanur,274,340.0,25.3544737,88.40948499999999
42088,Chhoto  Khidirpur,275,340.0,22.5455717,88.3211581
42089,Barabila,276,340.0,25.3566233,88.4028166
42090,Gouripara,277,340.0,22.0756355,88.2546358
42091,Deuria,278,340.0,25.3373313,88.3991789
42092,Bilbarail,279,340.0,25.3371203,88.3797726
42093,Baje  Haripur,280,340.0,25.3254304,88.39432819999999
42094,Bagduar,281,340.0,25.3077094,88.3991789
42098,Bartakigram,89,341.0,23.2438149,86.6371758
42099,Chatraghati,90,341.0,22.4664328,88.1068379
42100,Surahar,91,341.0,25.4305648,88.2631517
42101,Nagpara,92,341.0,24.1210773,88.2935519
42102,Bishar,96,341.0,22.6727302,88.43173689999999
42105,Balihara,99,341.0,25.6427998,88.07419709999999
42106,Pal Bhabanipur,95,341.0,22.5326227,88.3407732
42108,Chopa,178,341.0,23.0163981,88.077862
42109,Namtore,177,341.0,-1.0,-1.0
42110,Saiyadpur,176,341.0,21.6803437,87.5649218
42111,Baje Chahatpur,200,341.0,25.3822498,88.1852304
42112,Chandipur,197,341.0,22.1022227,87.8574308
42113,Chahatpur,198,341.0,25.3779715,88.198633
42114,Pengalu,195,341.0,-1.0,-1.0
42115,Baldu,196,341.0,25.3826056,88.21446720000002
42116,Jathigram,181,341.0,25.3886457,88.2242084
42117,Bamandanga,180,341.0,22.6919863,88.2429715
42118,Kharua(N),179,341.0,25.3784699,88.2400333
42119,Kharua(S),26,341.0,25.3784699,88.2400333
42120,Fulat,182,341.0,-1.0,-1.0
42121,Binair,183,341.0,25.3664493,88.22542589999999
42122,Lohuchar,193,341.0,-1.0,-1.0
42123,Gokarna,194,341.0,24.0464021,88.118392
42124,Fasiabad,199,341.0,25.3645407,88.1901046
42125,Muskipur,202,341.0,25.3643611,88.17548049999999
42126,Abjalpur,191,341.0,25.35419,88.191323
42127,Fatepur,192,341.0,22.2846143,88.232467
42128,Jamuna,185,341.0,25.4211904,88.91239569999999
42129,Khanjapur,187,341.0,22.6305206,87.77573
42130,Sigram,188,341.0,22.4478839,86.8966588
42131,Baragram,190,341.0,23.2438149,86.6371758
42132,Etbarpur,248,341.0,22.4031628,87.4969148
42133,Uddhabpur,189,341.0,22.3348335,87.9934924
42134,Araji  Baragram,186,341.0,-1.0,-1.0
42135,Nardas,39,341.0,22.40373,87.71883079999999
42136,Shasha,38,341.0,25.3486794,88.22542589999999
42137,Musan,184,341.0,25.3530489,88.2193381
42138,Bagbari,37,341.0,25.0139781,88.1169354
42139,Nahit,36,341.0,25.5328674,88.4088788
42140,Jotgori,62,341.0,-1.0,-1.0
42141,Bora,61,341.0,22.8986465,87.8340995
42142,Naugaon,40,341.0,23.9160602,87.8267292
42143,Khordbattali,41,341.0,-1.0,-1.0
42144,Mudafat  Koachpara,42,341.0,-1.0,-1.0
42145,Sirshi,59,341.0,23.6793243,87.30440899999999
42146,Shyamdas,60,341.0,25.3252453,88.2473352
42147,Dangram,58,341.0,25.3253602,88.2570691
42148,Sridharpur,53,341.0,23.3103669,87.6913936
42149,Uttarmulahat,54,341.0,25.3017488,88.2643681
42150,Khoa,55,341.0,25.323965,88.2683901
42151,Chhatrabhog,57,341.0,22.1198101,88.4240305
42152,Srikol,56,341.0,22.29451,87.9849242
42153,Maheshpur,68,341.0,22.2816125,88.3633918
42154,Dakshin  Bahadurpur,64,341.0,25.4058615,88.3032755
42155,Keshrail,65,341.0,25.3418927,88.2777465
42156,Laxmipur,63,341.0,24.801475,87.96778280000001
42157,Manchampur,34,341.0,25.3491696,88.26680089999999
42158,Kutubpur,33,341.0,24.1079959,87.7406534
42159,Sonahan,32,341.0,25.3581684,88.2765304
42160,Gopalpur,35,341.0,23.4976267,87.3959564
42161,Haripur,30,341.0,23.6773318,87.1934619
42162,Dhanaipur,29,341.0,24.1269732,88.42827199999999
42163,Kalsi,31,341.0,-1.0,-1.0
42164,Harirampur,28,341.0,25.3773195,88.26801720000002
42165,Ukhali,27,341.0,-1.0,-1.0
42166,Itakhor,25,341.0,25.3815757,88.2522024
42167,Sundail,24,341.0,25.3889936,88.2534192
42168,Betna,23,341.0,25.3876418,88.2643681
42169,Bhebrahar,22,341.0,25.3848792,88.2813944
42170,Ramkrishnapur,21,341.0,25.2757475,88.9713045
42171,Chakdaha,20,341.0,23.047858,88.5130144
42172,Nendera,19,341.0,-1.0,-1.0
42173,Muknair,18,341.0,25.3968937,88.29598299999999
42174,Dolgaon,14,341.0,26.6617571,89.1682187
42175,Manohara,13,341.0,23.156419,86.9091895
42176,Marora,11,341.0,21.7784253,87.6735592
42177,Godal,10,341.0,25.3993439,88.2522024
42178,Jognail,9,341.0,-1.0,-1.0
42180,Mollahar,12,341.0,25.4056087,88.2813944
42181,Mahendra,8,341.0,22.5618367,88.3658423
42182,Jagadala,3,341.0,23.1958966,87.0686703
42183,Patun,1,341.0,23.4455329,88.12181710000002
42184,Baramahar,2,341.0,25.4374757,88.2844341
42185,Cheuti  Maheshpur,4,341.0,25.4309051,88.2923363
42186,Bahir  dhanjore,109,341.0,-1.0,-1.0
42187,Raghunathpur,110,341.0,23.5343795,86.6686635
42188,Bagulahar,111,341.0,25.4475109,88.3202866
42189,Kasba,108,341.0,22.5176176,88.3840499
42190,Maliyandighi,112,341.0,23.5616716,87.40215649999999
42191,Bimalanandapur,116,341.0,25.4447971,88.3421481
42192,Uriapara,115,341.0,22.5589789,88.367182
42193,Chakla,114,341.0,22.756054,88.69042720000002
42194,Maliara,113,341.0,23.48283,87.2269973
42195,Jafarpur,107,341.0,22.3213882,88.2485521
42196,Khayerbari,106,341.0,25.4237953,88.3178568
42197,Bairhata,5,341.0,22.6574017,88.8671766
42198,Kotkhamar,6,341.0,22.6562951,88.4283983
42199,Dolkura,7,341.0,25.4175381,88.2886893
42200,Morgaon,15,341.0,-1.0,-1.0
42201,Bahadurpur,16,341.0,23.6924569,87.1447831
42202,Bagichapur,17,341.0,25.3954829,88.3020602
42203,Chhatrakundu,101,341.0,22.5785315,88.3634806
42205,Aminpur,103,341.0,25.4687812,88.36885269999999
42206,Charla,104,341.0,25.4149395,88.3202866
42207,Fayjallapur,105,341.0,-1.0,-1.0
42208,Parmahasum,135,341.0,-1.0,-1.0
42209,Roynagar,136,341.0,22.4704059,88.360661
42210,Ranathail,143,341.0,-1.0,-1.0
42211,Shovanpur,100,341.0,-1.0,-1.0
42212,Nikharipara,144,341.0,23.5855539,88.35341199999999
42214,Atharbabati,98,341.0,22.7045193,88.3887458
42215,Kundana,97,341.0,25.379181,88.3008448
42218,Ashrafpur,94,341.0,24.8986852,88.2692335
42219,Khanpur,88,341.0,22.6729089,88.2598404
42220,Brahmangram,87,341.0,22.5038288,87.9298034
42221,Tularam,152,341.0,25.3594876,88.32696759999999
42222,Krishnacharan,86,341.0,25.352665,88.3129969
42225,Karanjipara,93,341.0,25.3584496,88.3008448
42227,Kadimabad,85,341.0,25.3467136,88.3105668
42229,Debrajpur,84,341.0,23.7946344,87.3761105
42230,Kokil,83,341.0,25.3379109,88.3178568
42231,Birahar,82,341.0,25.3407065,88.3032755
42232,Jotsultan,81,341.0,25.3346989,88.29598299999999
42233,Gandhanai,66,341.0,-1.0,-1.0
42234,Mudafat  Mukimpur,67,341.0,-1.0,-1.0
42235,Dhulinakor,69,341.0,25.319692,88.2789625
42236,Dakshin  Benal,70,341.0,25.3715308,88.55653099999999
42237,Uttar  Benal,71,341.0,-1.0,-1.0
42238,Jothisya,80,341.0,25.3199724,88.3032755
42239,Karanjabari,79,341.0,25.3288865,88.3057061
42240,Mahakhore,78,341.0,-1.0,-1.0
42241,Jot  Basanta,76,341.0,25.0729574,88.0925186
42242,Kismat  Kasba,75,341.0,25.3141591,88.3129969
42243,Araji  Hujuri Kasba,73,341.0,-1.0,-1.0
42244,Kitahar,72,341.0,25.3051615,88.3032755
42245,Bara  Kasba,74,341.0,22.5151592,88.39341890000001
42246,Baul,253,341.0,25.3296815,88.6852136
42247,Panpara,254,341.0,23.1122143,88.7229325
42248,Chhayghara,255,341.0,22.7109538,88.0595345
42249,Kochpara,256,341.0,25.3174478,88.21446720000002
42250,Bara Kundana,257,341.0,25.3117571,88.2339475
42251,Kharna,258,341.0,23.3140212,87.7381916
42252,Beldangi,259,341.0,23.9358993,88.25146509999999
42253,Tiyabari,260,341.0,26.8005634,88.7998819
42254,Mulahat,261,341.0,25.2710065,88.9294133
42255,Simuldanga,262,341.0,23.0351457,86.34654780000001
42257,Bhabanipur  Bejpukur,102,341.0,25.4209537,88.20228759999999
42260,Dehat,1,342.0,22.6021844,88.4055853
42261,Nijaraghunathpur,2,342.0,22.676669,88.36891899999999
42262,Mostapur,3,342.0,22.6509608,87.9065098
42263,Chapra,4,342.0,23.5155347,88.54928129999999
42264,Rajapur,5,342.0,23.5965449,88.36496939999999
42265,Jamirail,6,342.0,25.5454786,88.3445765
42266,Saraihat Bajedinor,7,342.0,25.536997,88.337701
42267,Khagail,8,342.0,25.533419,88.3251456
42268,Mahisbathan,9,342.0,22.5692148,88.4488677
42269,Beldanga,10,342.0,23.9358993,88.25146509999999
42270,Hariharpur,11,342.0,22.2475818,87.92490049999999
42271,Deul,12,342.0,23.6077884,87.44863079999999
42272,Manikar,13,342.0,23.3162182,88.2631517
42273,Paschim Mollapara,14,342.0,25.5045167,88.3015679
42274,Titihi,15,342.0,25.7083557,88.2290783
42275,Kathalbari,16,342.0,25.5132649,88.30995920000001
42276,Paschim Balarampur,17,342.0,23.0402998,87.5920964
42277,Birpur,18,342.0,23.6158633,88.46218909999999
42278,Jugati,19,342.0,25.5094036,88.29598299999999
42279,Daharol,20,342.0,25.5093191,88.2886893
42280,Deokhanda,21,342.0,25.4944894,88.28625780000002
42281,Upadail,22,342.0,25.4960964,88.2971985
42282,Nabhor,23,342.0,25.4903433,88.3117819
42283,Bhaktipur,24,342.0,25.4740466,88.3105668
42284,Berail,25,342.0,25.4724126,88.2971985
42285,Kalancha,26,342.0,25.4857209,88.29598299999999
42286,Katchra,27,342.0,22.4649419,87.136055
42287,Sindur Muchi,28,342.0,22.5046054,88.35786039999999
42288,Dehabanda,29,342.0,25.4779367,88.2631517
42289,Poradanga,30,342.0,25.4736812,88.2789625
42290,Harigram,31,342.0,25.6000548,88.2035057
42291,Kharikadighi,32,342.0,25.467845,88.28625780000002
42292,Raghabpur,33,342.0,23.5225933,86.60440729999999
42293,Jahirpur,34,342.0,25.4916797,88.0595345
42294,Banshbari,35,342.0,22.9633531,88.3967536
42295,Pachadighi,36,342.0,25.458878,88.2789625
42296,Adyakhanda,37,342.0,25.4587928,88.2716659
42297,Mahatair,38,342.0,25.5990771,88.37370639999999
42298,Ekdalabairhata,39,342.0,-1.0,-1.0
42299,Domnahar,40,342.0,22.6645647,88.4512901
42300,Silimpur,41,342.0,25.4472604,88.298414
42301,Ranipur,42,342.0,23.4782489,86.54764109999999
42302,Cherapara,43,342.0,25.4591875,88.3057061
42303,Deaulbari,44,342.0,26.6671059,88.4188101
42304,Hasrail,45,342.0,-1.0,-1.0
42305,Kasimpur,46,342.0,25.6845129,88.21446720000002
42306,Kuarbari,47,342.0,26.8337569,88.8982666
42307,Siyala,48,342.0,-1.0,-1.0
42308,Chapapara,49,342.0,25.4620051,88.358537
42309,Laxmantara,50,342.0,-1.0,-1.0
42310,Tejihar,51,342.0,25.4745408,88.35428859999999
42311,Baghna,52,342.0,25.4595741,88.3397196
42312,Pupra,53,342.0,25.4684836,88.3421481
42313,Sarala,54,342.0,25.4728013,88.3312187
42314,Dhadrang,55,342.0,-1.0,-1.0
42315,Subarnapur,56,342.0,22.9545978,88.5722344
42316,Nayapara,57,342.0,26.6760702,88.4453946
42317,Isnail,58,342.0,25.4892349,88.3445765
42318,Beruil,59,342.0,25.2208803,88.07297539999999
42319,Sahapur,60,342.0,22.5171539,88.17060470000001
42320,Chapahat Bairatha,61,342.0,-1.0,-1.0
42321,Nurullakuri Angaripara,62,342.0,-1.0,-1.0
42322,Laxmipur,63,342.0,24.801475,87.96778280000001
42323,Gopalpur,64,342.0,23.4976267,87.3959564
42324,Rupail,65,342.0,23.3409559,87.68804349999999
42325,Birampur,66,342.0,22.4901889,87.9114147
42326,Langalbhanga,67,342.0,22.7896194,87.5513284
42327,Sabdalpur,68,342.0,22.8428818,88.56861099999999
42328,Ukhlia,69,342.0,23.6516121,87.24588039999999
42329,Khusmandi,70,342.0,25.526469,88.3652122
42330,Kasba,71,342.0,22.5176176,88.3840499
42331,Samsia,72,342.0,25.5209217,88.3991789
42332,Bateswar,73,342.0,25.5282561,88.3931154
42333,Araji Kasba,74,342.0,-1.0,-1.0
42334,Goyal Goan,75,342.0,22.5936096,88.34443929999999
42335,Bangoan Krishnapur,76,342.0,25.5342292,88.3979663
42336,Bagdole,77,342.0,25.2220959,88.2935519
42337,Jaminipara,78,342.0,25.5487363,88.3712796
42338,Jothsudam,79,342.0,25.5457226,88.3664257
42339,Dharamdanga,80,342.0,25.5398027,88.3664257
42340,Ghatsa,81,342.0,22.6636967,87.74680710000001
42341,New Uttarpara,82,342.0,22.6815037,88.34491609999999
42342,Balapukur,83,342.0,25.5634816,88.3664257
42343,Naugaon,84,342.0,23.9160602,87.8267292
42344,Akcha,85,342.0,25.5561762,88.37491969999999
42345,Porabagdole,86,342.0,-1.0,-1.0
42346,Khantapara,87,342.0,25.5623617,88.3991789
42347,Srirampur,88,342.0,22.748331,88.3385053
42348,Kunia,89,342.0,24.0236964,87.9267392
42349,Parameswarpur,90,342.0,22.9264935,88.1547547
42350,Anantapur,91,342.0,24.1233506,88.10717029999999
42351,Jamunadanga,92,342.0,25.5864658,88.3706729
42352,Minapara,93,342.0,25.5858799,88.384625
42353,Krishnapur,94,342.0,22.6627899,88.2765304
42354,Tilchhar,95,342.0,-1.0,-1.0
42355,Araji Srirampur,96,342.0,-1.0,-1.0
42356,Araji Minapara,97,342.0,-1.0,-1.0
42357,Nakarna,98,342.0,25.587532,88.4003915
42358,Makail,99,342.0,25.5935037,88.4052416
42359,Mandahar,100,342.0,25.602382,88.4052416
42360,Vikanpur,101,342.0,-1.0,-1.0
42361,Kesabpur,102,342.0,22.6128039,88.1998512
42362,Sarenga,103,342.0,22.7679744,87.0199442
42363,Balaspur,104,342.0,25.5820809,88.44402250000002
42364,Betahar,105,342.0,25.5686981,88.4379653
42365,Ujil,106,342.0,25.5568588,88.4379653
42366,Karanji,107,342.0,21.7374395,87.759112
42367,Araji Panisala,108,342.0,-1.0,-1.0
42368,Chora Gachhi,109,342.0,25.5543732,88.4131218
42369,Raghunathpur,110,342.0,23.5343795,86.6686635
42370,Madhyamkarai,111,342.0,25.5491082,88.4052416
42371,Gobindapur,112,342.0,22.3781175,88.4052416
42372,Nahit,113,342.0,25.5328674,88.4088788
42373,Gilapukur,114,342.0,25.5462529,88.4149401
42374,Dhakdhol,115,342.0,25.5493688,88.4294838
42375,Shibkrishnapur,116,342.0,25.4655392,88.632578
42376,Barakrishnapur,117,342.0,25.5256882,88.4294838
42377,Paschim para,118,342.0,23.1514227,87.51237970000001
42378,Angaripara,119,342.0,25.5197677,88.4294838
42379,Barogachhi,120,342.0,23.2782141,88.63619589999999
42380,Pathanpara,121,342.0,23.9256748,87.9316419
42381,Vitahar,122,342.0,-1.0,-1.0
42382,Basail,123,342.0,25.5016928,88.4003915
42383,Mirapara,124,342.0,26.1365908,89.1825028
42384,Kumruk,125,342.0,25.4897718,88.3931154
42385,Buripukur,126,342.0,25.4867584,88.38826399999999
42386,Jarail,127,342.0,25.4850781,88.3700662
42387,Jajihat Hadipur,128,342.0,25.4777168,88.37370639999999
42388,Chakdhapara,129,342.0,25.4749159,88.38826399999999
42389,Aminpur,130,342.0,25.4687812,88.36885269999999
42390,Katason,131,342.0,25.535958,88.4210007
42391,Nurpur,132,342.0,24.2951479,88.186449
42392,Chakdar Baru,133,342.0,25.4563248,88.3803792
42393,Abuhar,134,342.0,25.4674744,88.384625
42394,Barai Danga,135,342.0,25.4690738,88.3955409
42395,Ibrahimpur,136,342.0,25.4868641,88.3979663
42396,Puinala,137,342.0,25.4839824,88.4052416
42397,Shibrampur,138,342.0,22.4888364,88.2707538
42398,Bhagmaha,139,342.0,25.4722182,88.4125157
42399,Mahagram,140,342.0,25.4780873,88.4076664
42400,Paptahar Bhaktipur,141,342.0,25.4631787,88.3979663
42401,Amlahar,142,342.0,25.4557897,88.3991789
42402,Kalikamora,143,342.0,25.4573881,88.4100911
42403,Jagannathpur,144,342.0,22.7462731,88.4467528
42404,Manipukur,145,342.0,23.4442058,88.4052416
42405,Narayanpur,146,342.0,22.6453065,88.46218909999999
42406,Faraspur,147,342.0,25.466504,88.43190729999999
42407,Deulbari,148,342.0,26.6671059,88.4188101
42408,Punat,149,342.0,25.4858641,88.4428112
42409,Dhandail,150,342.0,25.4872546,88.4343306
42410,Salkhair,151,342.0,25.4931242,88.4294838
42411,Vajana,152,342.0,23.4245319,88.38812449999999
42412,Banihari,153,342.0,25.501876,88.4173644
42413,Nambhail,154,342.0,25.5093937,88.42827199999999
42414,Milanhat,155,342.0,25.5138987,88.4343306
42415,Mangalpur,156,342.0,23.0706329,87.68030279999999
42416,Rasulpur,157,342.0,23.1840099,88.0301946
42417,Chhotodamodarpur,158,342.0,25.4994331,88.4532086
42418,Bara Damodarpur,159,342.0,25.505374,88.46824289999999
42419,Osmanpara,160,342.0,25.5022872,88.45613440000001
42420,Dopitha,161,342.0,25.5111938,88.45855639999999
42421,Lakshijal,162,342.0,-1.0,-1.0
42422,Sherpur,163,342.0,22.9817742,88.71474289999999
42423,Jaipur,164,342.0,23.4168707,86.1459216
42424,Rampur,165,342.0,25.3470758,88.632578
42425,Uttarpara,166,342.0,22.6768451,88.3385053
42426,Balarampur,167,342.0,23.0943913,86.22029619999999
42427,Beshatipara,168,342.0,22.8562412,88.406454
42428,Kandaha,169,342.0,25.5466143,88.4488677
42429,Chausa,170,342.0,25.5689026,88.4573454
42430,Basudebpur,171,342.0,21.8248993,87.62110609999999
42431,Maulai,172,342.0,25.5910364,88.4512901
42432,Padamkuri,173,342.0,25.5822593,88.4609782
42433,Udaypur,174,342.0,23.5452784,86.9098159
42434,Jhagrapara,175,342.0,25.5764913,88.47550629999999
42435,Maheshpur,176,342.0,22.2816125,88.3633918
42436,Purbabasail,177,342.0,-1.0,-1.0
42437,Saraipur,178,342.0,25.561842,88.49002949999999
42438,Chandipur,179,342.0,22.1022227,87.8574308
42439,Putahari,180,342.0,25.5631848,88.47671679999999
42440,Kanthail,181,342.0,25.5489551,88.46037280000002
42441,Harishchandrapur,182,342.0,25.4068073,87.8669374
42442,Mahisakuri,183,342.0,25.5333831,88.4573454
42443,Achrail,184,342.0,-1.0,-1.0
42444,Palashbari,185,342.0,23.5798322,86.85218640000001
42445,Chandpur,186,342.0,22.6851815,88.42706020000001
42446,Aira,187,342.0,22.580128,88.350163
42447,Salekkuri,188,342.0,25.5291569,88.4779272
42448,Debipur,189,342.0,23.1421728,88.1585029
42449,Mahipaldighipur,190,342.0,25.5166444,88.48458389999999
42450,Pukurpararaipur,191,342.0,22.4704808,88.2956792
42451,Chakmoha,192,342.0,23.047858,88.5130144
42452,Alampur,193,342.0,22.5831787,88.21446720000002
42453,Jotjagannath,194,342.0,25.4964925,88.46824289999999
42454,Jotahar,195,342.0,25.452527,88.173752
42455,Jadavpur,196,342.0,22.4939728,88.37067119999999
42456,Ekdala,197,342.0,25.4823856,88.4640053
42457,Barkafurchand,198,342.0,-1.0,-1.0
42458,Khamrail,199,342.0,25.4847504,88.4779272
42459,Maligaon,200,342.0,25.4922392,88.4863991
42460,Raipur,201,342.0,23.631129,87.65687989999999
42461,Avirampur,202,342.0,23.4300024,87.6334451
42462,Bhelakuri,203,342.0,25.5262964,88.4876093
42463,Kapuria,204,342.0,25.5337342,88.49123949999999
42464,Mastail,205,342.0,25.5324144,88.506967
42465,Bagduma,206,342.0,25.5398515,88.5105955
42466,Kakair,207,342.0,25.5325121,88.5166425
42467,Purba  Mollapara,208,342.0,22.4869503,88.3764363
42468,Gobrabil,209,342.0,25.5267852,88.53598699999999
42469,Khanpur,210,342.0,22.6729089,88.2598404
42470,Madhabpur   Baragachhi,211,342.0,25.5148957,88.5311517
42471,Chandail,212,342.0,25.5222362,88.52510679999999
42472,Panchhata,213,342.0,25.5220412,88.5057574
42473,Hasnagar,214,342.0,25.2999196,88.6591021
42474,Dikul,215,342.0,25.5027125,88.49728920000001
42475,Ranadanga,216,342.0,26.68004,88.3661657
42476,Panchanagar,217,342.0,25.5028598,88.51180500000001
42477,Ramchandrapur,218,342.0,22.8911172,88.4706642
42478,Jafarpur,219,342.0,22.3213882,88.2485521
42479,Sikandarpur,220,342.0,25.0301044,88.0442226
42480,Gangaji,221,342.0,28.712617,77.263364
42481,Kanthalhat,222,342.0,23.8863773,88.6036238
42482,Loharganj,223,342.0,22.9867569,87.8549755
42483,Sikarpur,224,342.0,23.0267171,88.4815582
42484,Mahabullapur,225,342.0,25.4879096,88.49728920000001
42485,Badbighor,226,342.0,25.4760421,88.4948694
42486,Durgapur,227,342.0,23.5204443,87.3119227
42487,Bighor,228,342.0,25.4990689,87.94940969999999
42488,Magura,229,342.0,23.1199154,88.2777465
42489,Chakharipur,230,342.0,25.4581531,88.48276849999999
42490,Durlavpur,231,342.0,23.4739768,87.1276371
42517,Chitalghata,1,344.0,26.4620813,88.2704497
42518,Jiakhurigachh,2,344.0,22.4636026,88.4646107
42519,Jiakhuri,3,344.0,22.4700789,87.7443457
42520,Powakhali,4,344.0,26.3309611,87.9457342
42521,Bhata,5,344.0,26.4418694,88.3069213
42522,Chhoto Dangapara,6,344.0,23.633182,88.1369836
42523,Kaimari,7,344.0,26.0193863,89.38195209999999
42524,Jhanjri,8,344.0,23.6422561,87.288564
42525,Barabilla,9,344.0,26.4784958,88.3246078
42526,Paschim Dangapara,10,344.0,26.493554,88.3129969
42527,Purba Dangapara,11,344.0,26.4877699,88.3227162
42528,Fatehabad,12,344.0,26.4878266,88.327575
42529,Baro Dangapara,13,344.0,26.4884256,88.8390112
42530,Zeropani,14,344.0,-1.0,-1.0
42531,Dangra Dangri,15,344.0,26.448053,88.3312187
42532,Dakshin Dangapara,16,344.0,26.5059858,88.8190971
42533,Bhagalpur Khas,17,344.0,26.4005708,88.3069213
42534,Paschim Makrandapur,18,344.0,26.4010234,88.2864118
42535,Uttar Bhagalpur,19,344.0,26.4136013,88.28625780000002
42536,Bhotamari,20,344.0,26.391051,88.2509857
42537,Dakshin Bhagalpur,21,344.0,26.3884817,88.2826103
42538,Bhagabati,22,344.0,26.3798328,88.2996294
42539,Dakshin Dhamorgachh,23,344.0,26.3786569,88.3251456
42540,Chopra,24,344.0,26.3770255,88.3117819
42541,Hariharpur,25,344.0,22.2475818,87.92490049999999
42542,Patikabanda,26,344.0,23.865708,88.46218909999999
42543,Dolua,27,344.0,26.3909222,88.50091859999999
42544,Bilasi,28,344.0,22.6897888,88.6036238
42545,Rajabhim,29,344.0,26.3416743,88.3166419
42546,Haripokher,30,344.0,23.6773318,87.1934619
42547,Nirbhoychandi,31,344.0,-1.0,-1.0
42548,Balarampur,32,344.0,23.0943913,86.22029619999999
42549,Paschim Chutiakhor,33,344.0,26.356794,88.3482188
42550,Narayanpur,34,344.0,22.6453065,88.46218909999999
42551,Dakshin Ariagaon,35,344.0,26.4010231,88.3457906
42552,Uttar Dhamorgachh,36,344.0,26.3935215,88.3348621
42553,Thutipokhor,37,344.0,-1.0,-1.0
42554,Purba Makrandapur,38,344.0,21.6451496,87.55194639999999
42555,Paschim Ariagaon,39,344.0,-1.0,-1.0
42556,Chhoto Ariagaon,40,344.0,-1.0,-1.0
42557,Majhiyali,41,344.0,26.7150734,88.8947792
42558,Ariagaon,42,344.0,26.4365343,88.3555025
42559,Purba Ariagaon,43,344.0,26.4545627,88.384625
42560,Uttar Kundalpokhor,44,344.0,-1.0,-1.0
42561,Uttar Ariagaon,45,344.0,26.4779934,88.3700662
42562,Bhutijhari,46,344.0,26.4723139,88.38947689999999
42563,Paschim Atharokhai,47,344.0,-1.0,-1.0
42564,Khochabari,48,344.0,26.4594049,88.42221260000001
42565,Uttar Atharokhai,49,344.0,-1.0,-1.0
42566,Uttar Jivakata,50,344.0,-1.0,-1.0
42567,Dakshin Atharokhai,51,344.0,-1.0,-1.0
42568,Teligachh,52,344.0,26.4545531,88.4506845
42569,Baigargachh,53,344.0,23.2782141,88.63619589999999
42570,Uttar Gorashahid,54,344.0,26.4437701,88.47671679999999
42571,Gendagachh,55,344.0,26.4392295,88.4658215
42572,Dhandegach,56,344.0,-1.0,-1.0
42573,Uttar Jaypura,57,344.0,26.4418923,88.4391768
42574,Paschim Jivakata,58,344.0,-1.0,-1.0
42575,Paschim Jaypura,59,344.0,22.5912673,87.8966983
42576,Athiala,60,344.0,26.4490413,88.4185765
42577,Chuagari,61,344.0,22.8916533,86.94989179999999
42578,Purba Andharijhari,62,344.0,26.4118535,88.3741787
42579,Dakshin Kundalpokhor,63,344.0,26.4367002,88.3700662
42580,Uttar Besarbari,64,344.0,26.4250106,88.3797726
42581,Paschim Andharijhari,65,344.0,26.4160234,88.3676393
42582,Fotamari,66,344.0,-1.0,-1.0
42583,Naogachh,67,344.0,22.6945154,87.99410429999999
42584,Dakshin Besarbari,68,344.0,26.4014646,88.384625
42585,Dhiagar,69,344.0,26.4060121,88.3955409
42586,Lalitgachh,70,344.0,26.4090432,88.4028166
42587,Hulasugachh,71,344.0,26.4002464,88.4076664
42588,Rahugachh,72,344.0,26.3942381,88.3979663
42589,Purba Chutiakhor,73,344.0,-1.0,-1.0
42590,Katgaon,74,344.0,26.3483546,88.384625
42591,Teteshwari,75,344.0,22.608377,88.44135829999999
42592,Piajpokher,76,344.0,26.0827023,88.1437782
42593,Sitlagaon,77,344.0,26.3345179,88.35490159999999
42594,Rampur,78,344.0,25.3470758,88.632578
42595,Uttar Mohangachh,79,344.0,26.3231206,88.3712796
42596,Dakshin Mohangachh,80,344.0,26.3142669,88.3712796
42597,Lakhipur,81,344.0,26.329046,88.3761882
42598,Binandapur,82,344.0,22.1599831,87.1940042
42599,Goabari,83,344.0,26.3427227,88.4088788
42600,Mahadebpur,84,344.0,23.5846083,87.78063759999999
42601,Jagthora,85,344.0,-1.0,-1.0
42602,Gadhuakhurd,86,344.0,-1.0,-1.0
42603,Sonapatila,87,344.0,26.3547393,88.42827199999999
42604,Gadhua Kalan,88,344.0,-1.0,-1.0
42605,Ghirnigaon,89,344.0,26.3725492,88.4379653
42606,Ghirnigaon Khash,90,344.0,26.3843515,88.4379653
42607,Dewanjagir,91,344.0,25.9089277,87.8611136
42608,Dongrasani,92,344.0,-1.0,-1.0
42609,Dakshin Jivakata,93,344.0,-1.0,-1.0
42610,Andharugachh,94,344.0,26.419596,88.4234245
42611,Dakshin jaypura,95,344.0,26.4241666,88.43675379999999
42612,Purba Jaypura,96,344.0,22.2652404,86.67401439999999
42613,Boalmari,97,344.0,26.4033326,88.78378599999999
42614,Purba Jivakata,98,344.0,-1.0,-1.0
42615,Nahargachh,99,344.0,26.4199641,88.4573454
42616,Nandigachh,100,344.0,26.4126536,88.4633999
42617,Kapalkunda,101,344.0,26.4134879,88.47247999999999
42618,Thunthunia,102,344.0,26.4260193,88.4718747
42619,Babugachh,103,344.0,26.426173,88.4863991
42620,Pitramgachh,104,344.0,26.4129357,88.49002949999999
42621,Nazarpur,105,344.0,22.4417101,87.96410879999999
42622,Dakshin Gorasahid,106,344.0,26.40837,88.47671679999999
42623,Madangachh,107,344.0,22.7304315,87.51847819999999
42624,Chhoto Panchmoch,108,344.0,-1.0,-1.0
42625,Chhoto Dopaharu,109,344.0,-1.0,-1.0
42626,Chhoto Mircha,110,344.0,22.5051642,88.3673323
42627,Damodarkhuri,111,344.0,26.3848691,88.4863991
