id,name,jl_number,block_id,latitude,longitude
23542,Bhangabandh,7,181.0,22.5211355,87.1996084
23543,Gopinathpur(008),8,181.0,22.7229271,87.52227460000002
23544,Akalpous,9,181.0,22.5318856,87.6004691
23545,SRIRAMPUR,10,181.0,22.748331,88.3385053
23546,Baguan,11,181.0,22.3178983,87.8340995
23547,Asanpur    (12),12,181.0,22.543055,87.584148
23548,Amdanagar-13,13,181.0,22.5307646,87.5749122
23549,Bankakul,14,181.0,22.5272957,87.581599
23550,Jagul,15,181.0,22.4181149,87.4529661
23551,Pandat,16,181.0,-1.0,-1.0
23552,Hanumandihi,17,181.0,22.5238397,87.5995049
23553,Balbhadrapur,18,181.0,21.7491312,87.72672
23554,Chandipur  (19),19,181.0,22.4796271,88.0191871
23555,Ajodhyapur,20,181.0,22.0658015,87.4938212
23556,Mirzapur,21,181.0,23.2817971,87.88197699999999
23557,Talbandi,22,181.0,22.5137279,87.5704815
23558,Garnishchintapur-23,23,181.0,22.5177064,87.5589062
23559,Tinuya,24,181.0,-1.0,-1.0
23560,Kanthaliya,25,181.0,22.1272024,87.4195123
23561,Kamalpur,26,181.0,23.3009283,86.84650359999999
23562,Chakfateulla,27,181.0,22.48687,87.580218
23563,Mokarimpur,28,181.0,22.4841316,87.5828342
23564,Bhgabanpur,29,181.0,22.097831,87.7517295
23565,Radhaballavpur,30,181.0,22.3161936,87.9112608
23566,Baulashini (31),31,181.0,-1.0,-1.0
23567,Debpur,32,181.0,-1.0,-1.0
23568,Nandeswar,33,181.0,22.5021476,87.5927138
23569,Ballavpur-34,34,181.0,22.4092442,87.3296797
23570,Aniruddhachak,35,181.0,22.4844234,88.3724768
23571,Bhratpur,36,181.0,23.8837878,88.0839695
23572,Dharmanggadpur,37,181.0,22.4880838,87.5982702
23573,Sinuya,38,181.0,22.8562487,87.6939373
23574,Jagannathpur(39),39,181.0,21.7715528,87.7480377
23575,Pathanakutubpur,40,181.0,22.4771825,87.5911703
23576,Kanakpur,41,181.0,22.0793376,87.50248280000001
23577,Bahadurpur,42,181.0,23.6924569,87.1447831
23578,Birsinhapur,43,181.0,22.9095802,87.37238839999999
23579,Gopalpur-44,44,181.0,22.661096,88.466521
23580,Bishnupur,45,181.0,23.0678795,87.3165222
23581,Chandramerh-46,46,181.0,22.4702713,87.6219971
23582,Golagram-47,47,181.0,22.4726882,87.6357079
23583,Kanchanpur,48,181.0,23.3116417,87.0942627
23584,Simulhati,49,181.0,22.4846435,87.61740379999999
23585,Pashchimbaita,50,181.0,22.4815563,87.60999819999999
23586,Aymahabibulla,51,181.0,22.5620628,88.4090279
23587,Bhgirathpur,52,181.0,24.0875164,88.4948694
23588,Aymamadhua,53,181.0,22.4938956,87.6160573
23589,Aymakalandar,54,181.0,22.4956936,87.609381
23590,Chakmalta-55,55,181.0,-1.0,-1.0
23591,Shrikrishnapur,56,181.0,22.8977074,88.5384045
23592,Sakirda,57,181.0,-1.0,-1.0
23593,Jotamathura,58,181.0,-1.0,-1.0
23594,Sattamali,59,181.0,22.4871033,87.63282819999999
23595,Bargeria,60,181.0,22.5496165,88.3494589
23596,Chakheibat,61,181.0,-1.0,-1.0
23597,Chakananta,62,181.0,22.8246477,88.1035078
23598,Chakmadhu-63,63,181.0,22.505348,88.1803557
23599,Bikrampur,64,181.0,23.1691151,87.1497698
23600,Basantapur               -65,65,181.0,22.6452232,88.042422
23601,Kanchangeria,66,181.0,22.3416914,87.590858
23602,Madhubanpur,67,181.0,23.6045359,86.82579940000001
23603,Manoharpur  (68),68,181.0,22.0450377,87.20389589999999
23604,Shripur,69,181.0,23.4597942,87.84269669999999
23605,Chakhiramani-70,70,181.0,-1.0,-1.0
23606,Jotasuja,71,181.0,-1.0,-1.0
23607,Chandanpur    (72),72,181.0,21.7144422,87.50372
23608,Kalikageria,73,181.0,-1.0,-1.0
23609,Shyampur,74,181.0,-1.0,-1.0
23610,Noyapara,75,181.0,22.8128009,88.38098579999999
23611,Chakrajput,76,181.0,22.5194823,87.6069122
23612,Kumarsanda,77,181.0,24.0622321,88.09129740000002
23613,Chatrageria,78,181.0,-1.0,-1.0
23614,Hariharpur(79),79,181.0,22.3874314,88.44402250000002
23615,Kishorpur,80,181.0,23.8902923,88.54444749999999
23616,Rahimpur,81,181.0,22.749072,88.01062379999999
23617,Purbadbarkhola,82,181.0,-1.0,-1.0
23618,Balakchak,83,181.0,-1.0,-1.0
23619,Brindabanpur,84,181.0,22.108309,87.8672509
23620,Basudebpur               -85,85,181.0,22.4844938,88.3018654
23621,Gopalnagar,86,181.0,23.0613166,88.76178700000001
23622,Harinarayanpur,87,181.0,22.2237114,88.4609782
23623,Chakdarbar,88,181.0,22.5411919,87.6149354
23624,Kumarpur  (89),89,181.0,23.6959678,86.9386238
23625,Shyamnagar,90,181.0,22.8323184,88.3967536
23626,Baikunthapur,91,181.0,22.378963,88.4155462
23627,Malighati,92,181.0,-1.0,-1.0
23628,Jaykrishnapur,93,181.0,24.6366877,87.9592096
23629,Chakmadhuri-94,94,181.0,22.5289615,88.3693815
23630,Chakpurushottam-95,95,181.0,22.5305902,87.651035
23631,Narharipur,96,181.0,23.0477628,88.8622992
23632,Jayadebpur,97,181.0,25.4678613,88.49846380000001
23633,Chakkripan-98,98,181.0,22.5449701,88.3524231
23634,Tangaishree,99,181.0,22.5108008,87.6753726
23635,Trilochanpur,100,181.0,-1.0,-1.0
23636,Birpur,101,181.0,23.6158633,88.46218909999999
23637,Chaktatar-102,102,181.0,-1.0,-1.0
23638,Chakmamud-103,103,181.0,-1.0,-1.0
23639,Barmadhabpur-104,104,181.0,22.4997293,87.650694
23640,Purushottam  pur,105,181.0,22.341001,87.78002269999999
23641,Banamalipur,106,181.0,22.7616738,88.1949782
23642,Sizgeria,107,181.0,-1.0,-1.0
23643,Chakpalmal-108,108,181.0,-1.0,-1.0
23644,Chakprananath-109,109,181.0,22.4975718,88.3374983
23645,Chakprayag-110,110,181.0,22.3977129,87.6270416
23646,Biharichak-111,111,181.0,22.5143722,88.19657079999999
23647,Khajuri,112,181.0,21.8590929,87.9506348
23648,Damodarpur-113,113,181.0,23.7010892,87.0892702
23649,Jotnarayan-114,114,181.0,22.4774744,88.3089102
23650,Karanda,115,181.0,23.3533145,88.1242578
23651,Jothhora,116,181.0,-1.0,-1.0
23652,Shriballavpur,117,181.0,-1.0,-1.0
23653,Kantageria,118,181.0,22.3665003,87.40436059999999
23654,Kulya,119,181.0,22.4859191,87.65379709999999
23655,Baghageria-120,120,181.0,22.6332826,87.630204
23656,Chandanpur-121,121,181.0,21.7144422,87.50372
23657,Manglai,122,181.0,22.4749906,87.670442
23658,Amarpur-123,123,181.0,23.2206862,87.72382429999999
23659,Mukteshwar,124,181.0,22.4674561,87.6642779
23660,Dandeswar-125,125,181.0,22.4712805,87.6555626
23661,Purbbabaita,126,181.0,-1.0,-1.0
23662,Khasakendubagicha,127,181.0,-1.0,-1.0
23663,Harinadanggi-128,128,181.0,-1.0,-1.0
23664,Mukundapur,129,181.0,22.4923566,88.4086493
23665,Paruldihi,130,181.0,22.4627927,87.650714
23666,Biju-131,131,181.0,22.7158295,88.48273400000001
23667,Chakchandramerh-132,132,181.0,-1.0,-1.0
23668,Puanpat,133,181.0,-1.0,-1.0
23669,Nandabari,134,181.0,22.4551139,87.63467879999999
23670,Mainan,135,181.0,-1.0,-1.0
23671,Mamudabad,136,181.0,22.4463225,87.6445473
23672,Mankhanda,137,181.0,22.2382273,88.13767899999999
23673,Lowada,138,181.0,22.4461069,87.62974369999999
23674,Naraharipur,139,181.0,23.0477628,88.8622992
23675,Talberiyaghunghuni patna,140,181.0,-1.0,-1.0
23676,Ghunghuni,141,181.0,22.3271233,86.9458231
23677,Fatebarh,142,181.0,22.2846143,88.232467
23678,Murasti,143,181.0,22.4371359,87.627276
23679,Manoharpur,144,181.0,22.6108262,87.59147899999999
23680,Balarampur,145,181.0,23.0943913,86.22029619999999
23681,Gayespur,146,181.0,23.2815421,88.3603576
23682,Kolkuria,147,181.0,22.4607087,87.60999819999999
23683,Shanrhpur,148,181.0,21.6491352,87.5698638
23684,Chakbaha  Dur-(149),149,181.0,22.4357213,87.502967
23685,Barbhuniabasan,150,181.0,22.5839484,88.4249066
23686,Ananta Barh,151,181.0,22.4879972,88.3295855
23687,Kankraharaprasad,152,181.0,22.439016,87.6032087
23688,Kankraatmaram,154,181.0,22.4330959,87.6056777
23689,Kankramohanpur,155,181.0,22.4346578,87.6106154
23690,Bhomariya,156,181.0,22.4362377,87.61678669999999
23691,Chaktara-157,157,181.0,-1.0,-1.0
23692,Damodar pur-(158),158,181.0,23.4896491,87.0311931
23693,Baklasaramgopal,159,181.0,-1.0,-1.0
23694,Baklasanimcharan,160,181.0,-1.0,-1.0
23695,Baklasashebakram,161,181.0,-1.0,-1.0
23696,Baklasaramnarayan,162,181.0,-1.0,-1.0
23697,Barati,163,181.0,-1.0,-1.0
23698,Jamalchak-164,164,181.0,22.4138305,87.6461034
23699,Shrirampur,165,181.0,22.748331,88.3385053
23700,Pipurda,166,181.0,22.5248512,87.4232306
23701,Sitalanandapur,167,181.0,22.3861079,87.6513307
23702,Kantapal Pratapchak,168,181.0,22.3890508,87.6488641
23703,Mandaleswarchak,169,181.0,-1.0,-1.0
23704,Paik Parhi,170,181.0,22.613223,88.3804976
23705,Asharibandh,171,181.0,22.4015393,87.6371461
23706,Chakkashi-172,172,181.0,22.4862912,88.1404694
23707,Chakbaincha,173,181.0,-1.0,-1.0
23708,Aikola,174,181.0,22.4163594,87.6322113
23709,Dabadanri,175,181.0,-1.0,-1.0
23710,CHAKBISHNUPUR,176,181.0,22.6726443,88.0937397
23711,Mansinghapur,177,181.0,22.6523934,88.144998
23712,Dwarkhola,178,181.0,22.8455754,87.609381
23713,Khajurichak Kankra,179,181.0,-1.0,-1.0
23714,Chakbajit,180,181.0,25.3019871,88.9114469
23715,Kismatkharigeria,181,181.0,-1.0,-1.0
23716,Jot  Narayan,182,181.0,23.1642208,88.38583799999999
23717,Gopalgeria,183,181.0,-1.0,-1.0
23718,Gotgeria-(184),184,181.0,22.364542,87.41727379999999
23719,Shibrampur,185,181.0,22.4888364,88.2707538
23720,Khargeria  (186),186,181.0,-1.0,-1.0
23721,Satrukhi,187,181.0,22.4070991,87.60999819999999
23722,Rasulpur,188,181.0,23.1840099,88.0301946
23723,Dhanadanggara,189,181.0,-1.0,-1.0
23724,DOULAT CHAK,190,181.0,22.4043017,87.6223402
23725,Jaykrishna   Pur(191),191,181.0,23.24953,87.6360907
23726,Bishnupur -192,192,181.0,23.0635053,87.3177736
23727,Chakbasu,193,181.0,22.3984171,87.627276
23728,Khasabajar,194,181.0,22.3775495,87.3632598
23729,Dwar - Parha,195,181.0,-1.0,-1.0
23730,Chakuddhab-196,196,181.0,22.3157081,87.8357544
23731,Chakbalbhadrapur,197,181.0,22.3805824,87.62974369999999
23732,Chandanpur  (198),198,181.0,21.7144422,87.50372
23733,Kismat Dhamtore,199,181.0,-1.0,-1.0
23734,Bhagabanbasan,200,181.0,22.3981276,87.60752939999999
23735,Dhamtore,201,181.0,22.3940538,87.5979615
23736,Purbasatkona,202,181.0,23.4613033,88.3324332
23737,Madhyamsatkona,203,181.0,22.5620628,88.4090279
23738,Barapratap,204,181.0,22.5814538,88.35457799999999
23739,Pashchimsatkona,205,181.0,22.4097123,87.58530429999999
23740,Barabandi,206,181.0,23.7493706,87.00994299999999
23741,Chakradhaballav-207,207,181.0,22.3268395,87.75577489999999
23742,Sankachuya,208,181.0,22.419456,87.58962670000001
23743,Chakrameshwar-209,209,181.0,-1.0,-1.0
23744,Mahisageria,210,181.0,22.6234518,87.5265829
23745,Chaklangulia,211,181.0,-1.0,-1.0
23746,Dhanijagannathpur,212,181.0,22.4273336,87.59364
23747,Jotdwaria,213,181.0,22.4203308,87.5999829
23748,Kolapunja,214,181.0,-1.0,-1.0
23749,Taligeria,215,181.0,-1.0,-1.0
23750,Barmaisajanaki-216,216,181.0,-1.0,-1.0
23751,Harinageria,217,181.0,22.6524563,87.6377629
23752,Kuthageria,218,181.0,-1.0,-1.0
23753,Dhobadangi,219,181.0,22.445635,87.5976529
23754,Bhuniabasan,220,181.0,22.4464663,87.6037855
23755,Khasarhati,221,181.0,22.4575846,87.6001222
23756,Haladharbarh,222,181.0,-1.0,-1.0
23757,Kanubarh,223,181.0,-1.0,-1.0
23758,Barasati,224,181.0,-1.0,-1.0
23759,Bhainagar,225,181.0,22.4634679,87.5951834
23760,Raipur,226,181.0,23.631129,87.65687989999999
23761,Banbarasati,227,181.0,22.4655823,87.5871568
23762,Garkilla,228,181.0,22.3479469,87.8537478
23763,Radhakantapur,229,181.0,22.5594289,87.7443457
23764,Chandipur,230,181.0,22.1022227,87.8574308
23765,Laugeria,231,181.0,-1.0,-1.0
23766,Barh Ananta,232,181.0,22.4879972,88.3295855
23767,Panchberia(233),233,181.0,22.3474307,87.327281
23768,Jagadishpur,234,181.0,22.652507,88.289905
23769,Bhagabanpur,235,181.0,22.097831,87.7517295
23770,Alipur,236,181.0,26.4918891,89.52710259999999
23771,Chakraghunath-237,237,181.0,22.2516932,87.510037
23772,Barsijuya-238,238,181.0,-1.0,-1.0
23773,Jesuya,239,181.0,-1.0,-1.0
23774,Gobindapur,240,181.0,22.3781175,88.4052416
23775,Benya-241,241,181.0,-1.0,-1.0
23776,Chakkanu-242,242,181.0,-1.0,-1.0
23777,Nachipur,243,181.0,22.0927488,87.22450800000001
23778,Dalapatipur,244,181.0,22.8088881,88.0663318
23779,Jotankur,245,181.0,22.3063714,87.8635686
23780,Kismatdebra,246,181.0,22.4005564,87.5704815
23781,Gosanipur,247,181.0,23.0514396,86.6825118
23782,Shyamsundarpur,248,181.0,22.7298885,88.1498766
23783,Gopalpunja,249,181.0,22.4212934,87.56306839999999
23784,Panchgeria,250,181.0,-1.0,-1.0
23785,Dhubni,251,181.0,22.4302282,87.56306839999999
23786,Jagannathpur-252,252,181.0,21.7715528,87.7480377
23787,Chaksaranja-253,253,181.0,-1.0,-1.0
23788,Saranja,254,181.0,22.4480975,87.56306839999999
23789,Mahasimpur,255,181.0,22.4489255,87.5686284
23790,Belgeria-256,256,181.0,22.9144485,87.0558696
23791,Modichak,257,181.0,25.4293243,87.4616353
23792,Mukundapur   (258),258,181.0,-1.0,-1.0
23793,Belar-259,259,181.0,22.9579561,87.80925700000002
23794,Satyapur,260,181.0,22.4675855,87.57171699999999
23795,Paikpari,261,181.0,22.472182,87.5803639
23796,Tabageria,262,181.0,22.4764257,87.57813689999999
23797,Paschim Dharasole,263,181.0,-1.0,-1.0
23798,Abdalipur,264,181.0,22.4570321,87.56306839999999
23799,Bainchafaridpur,265,181.0,-1.0,-1.0
23800,Shaldahari,266,181.0,22.485306,87.5618327
23801,Kuchli,267,181.0,-1.0,-1.0
23802,Ramchandrapur,268,181.0,22.8911172,88.4706642
23803,Haridrapat,269,181.0,22.478976,87.5371129
23804,Ajukhatujarapal,270,181.0,22.4722283,87.53402200000001
23805,Chakashrab,271,181.0,-1.0,-1.0
23806,Hadira,272,181.0,22.4731697,87.5470024
23807,Khasbarh,273,181.0,22.7466895,87.73377479999999
23808,Brindabanchak-274,274,181.0,22.470487,87.7738735
23809,Itai,275,181.0,22.4628396,87.5531823
23810,Teghari,276,181.0,22.8901984,87.9849242
23811,Chakmanu-277,277,181.0,-1.0,-1.0
23812,Barjhikuria-278,278,181.0,-1.0,-1.0
23813,Sekendarchak,279,181.0,23.2044032,87.5704815
23814,Dinyapur,280,181.0,25.2469092,88.78246039999999
23815,Chakprasad-281,281,181.0,22.5141193,88.32791499999999
23816,Mirjapur,282,181.0,23.2817971,87.88197699999999
23817,Chakarjuni,283,181.0,21.7780441,87.2400636
23818,Chakmamudpur-284,284,181.0,22.4773948,88.9648457
23819,Sangosanipur,285,181.0,22.4234436,87.5575077
23820,Ballavpur-286,286,181.0,22.4092442,87.3296797
23821,Dhitgeria,287,181.0,-1.0,-1.0
23822,Sabigeria,288,181.0,-1.0,-1.0
23823,Kajlageria,289,181.0,-1.0,-1.0
23824,Dogeria,290,181.0,22.8852778,88.1961965
23825,Shrikrishnapur (291),291,181.0,-1.0,-1.0
23826,Jhikuriya,292,181.0,22.8912488,88.6506644
23827,Digbarasati,293,181.0,22.4386772,87.5309308
23828,Barkhola-294,294,181.0,23.7168059,87.272667
23829,Paschimlahana,295,181.0,22.4319857,87.53154909999999
23830,Chakshyampur,296,181.0,22.996263,87.13480799999999
23831,Chaklahana-297,297,181.0,22.4302988,87.54400849999999
23832,Chaltageria-298,298,181.0,-1.0,-1.0
23833,Panifaliya,299,181.0,-1.0,-1.0
23834,Kuldiha(1st Part),300,181.0,22.4271385,87.55565399999999
23835,Sangosanipur,301,181.0,22.4234436,87.5575077
23836,Kuldiha(2nd Part),302,181.0,22.4189576,87.5562719
23837,Chakgokul,303,181.0,22.2488379,87.5828342
23838,Bhupatipur,304,181.0,22.6604104,88.0668664
23839,Fulgeria,305,181.0,23.3386414,87.2307309
23840,DEBRA-306,306,181.0,22.6023019,88.40210660000001
23841,Hasimpur,307,181.0,22.0988732,87.23446419999999
23842,Durgapur,308,181.0,-1.0,-1.0
23843,Gopinathpur-309,309,181.0,22.7229271,87.52227460000002
23844,Matkatpur,310,181.0,22.3940122,87.34260139999999
23845,Basudebpur-311,311,181.0,22.6706305,88.3864445
23846,Brindabanpur-312,312,181.0,23.259208,87.3351369
23847,Raghunathpur (313),313,181.0,22.6196705,88.4294838
23848,Belgeria,314,181.0,22.8686022,86.6888051
23849,Jagat Mani,315,181.0,22.4245777,87.53402200000001
23850,Khanamohan,316,181.0,-1.0,-1.0
23851,Chakkhanjadi-317,317,181.0,-1.0,-1.0
23852,Serpur-318,318,181.0,22.5525824,88.0513302
23853,Balbanda (2Y Khanda,319,181.0,-1.0,-1.0
23854,Chakbahadur,320,181.0,22.4465743,87.5117612
23855,Jamunabaisnabchak,321,181.0,22.4465173,87.5080501
23856,Amodepur-322,322,181.0,23.817869,87.71726199999999
23857,Rustampur,323,181.0,23.222947,88.30813649999999
23858,Balbanda(1st Part),324,181.0,-1.0,-1.0
23859,Chaksherpur-325,325,181.0,-1.0,-1.0
23860,Serpur-326,326,181.0,22.9651038,87.85619369999999
23861,Chakgobinda,327,181.0,22.8411231,88.2424674
23862,Chakbalbanda,328,181.0,22.4243139,87.51670899999999
23863,Santalchak,329,181.0,22.4588852,88.3172015
23864,Bharatpur,330,181.0,23.8837878,88.0839695
23865,Ashari,331,181.0,22.4938256,88.4059297
23866,Jagul  (332),332,181.0,22.4177599,87.45313759999999
23867,Arjuni,333,181.0,22.3542181,87.18964489999999
23868,Burigeria,334,181.0,-1.0,-1.0
23869,Chakbalaram,335,181.0,25.268951,88.6747675
23870,Kabilpur-336,336,181.0,24.1661439,88.2710578
23871,Panigeria,337,181.0,22.3970904,87.5346831
23872,Kalyanpur,338,181.0,22.5006615,87.91509309999999
23873,Dwarikapur,339,181.0,22.3941911,87.5432941
23874,Haipat,340,181.0,22.3943775,87.55565399999999
23875,ALISHA GARH,341,181.0,-1.0,-1.0
23876,Madhabpur,342,181.0,22.7338529,88.2375991
23877,Bainchari,343,181.0,23.1211739,88.1925508
23878,Chakmatkatpur-344,344,181.0,-1.0,-1.0
23879,Salkuthi,345,181.0,24.2157002,88.2522024
23880,Ashutiya,346,181.0,22.0413282,87.759112
23881,Narayanbati,347,181.0,24.292,87.7794078
23882,Harasankarpur-(348),348,181.0,22.3422793,87.656156
23883,Santuria,349,181.0,23.5204949,86.8596744
23884,Kishorepur,350,181.0,-1.0,-1.0
23885,Khargeria,351,181.0,-1.0,-1.0
23886,Baitabarh,352,181.0,-1.0,-1.0
23887,Nankar Kotai,353,181.0,22.3751383,87.52054609999999
23888,Kotai,354,181.0,22.9758769,87.7147986
23889,Barhkotai,355,181.0,-1.0,-1.0
23890,dhandageria,356,181.0,-1.0,-1.0
23891,Taradighi-(357),357,181.0,26.7974765,88.7402927
23892,Sayedchak,358,181.0,22.4591093,88.3206032
23893,Simanasubhadrapat,359,181.0,22.378583,87.5451483
23894,Taradighi-(360),360,181.0,26.7974765,88.7402927
23895,Haricharan-361,361,181.0,22.6273753,88.3511125
23896,Raghunathpur,362,181.0,23.5343795,86.6686635
23897,Baincha,363,181.0,21.9274226,87.5525643
23898,Nayabasan,364,181.0,22.2093717,86.8791104
23899,Padampur,365,181.0,23.9397181,87.3438429
23900,DAUNIYA,366,181.0,22.578306,88.34946099999999
23901,Simlamahabila,367,181.0,21.7268896,88.1096118
23902,Burageria,368,181.0,-1.0,-1.0
23903,Dhengga,369,181.0,22.366746,87.50124550000001
23904,Galimpur,370,181.0,22.3609032,87.5086686
23905,Rampurchak,371,181.0,22.3607894,87.50124550000001
23906,Hadla,372,181.0,23.7933398,86.82956449999999
23907,Narasinha,373,181.0,22.592528,88.32782650000001
23908,Mamudchak,374,181.0,22.346576,87.4969148
23909,Ambadighi,375,181.0,22.3399413,87.50124550000001
23910,Jalimanda,376,181.0,22.3294601,87.4975335
23911,Ghoshkhira,377,181.0,22.3340605,87.5061944
23912,Madpur,378,181.0,22.380971,87.4401406
23913,Bhanpur,379,181.0,23.4548044,88.7542102
23914,Singarpur-(380),380,181.0,22.6941945,87.7449611
23915,Rampura,381,181.0,22.2399506,87.39223590000002
23916,Alidadpur,382,181.0,22.3587924,87.51670899999999
23917,Saintal,383,181.0,-1.0,-1.0
23918,Asanpur-(384),384,181.0,-1.0,-1.0
23919,Chaksahapur-385,385,181.0,22.3503456,87.5319178
23920,Ghiyachak,386,181.0,24.8601714,88.01918610000001
23921,Chakmaguriya-387,387,181.0,-1.0,-1.0
23922,Khamra,388,181.0,23.2898934,85.97067849999999
23923,Pankui,389,181.0,22.3471904,87.5375581
23924,Kumarpur  (390),390,181.0,23.6959678,86.9386238
23925,Bishrigeria,391,181.0,-1.0,-1.0
23926,Antala,392,181.0,22.3465378,87.5432941
23927,Rakutapatna,393,181.0,-1.0,-1.0
23928,Saraswatipur,394,181.0,21.7932951,87.8144427
23929,Parshuramchak,395,181.0,22.3314589,87.5309308
23930,Gurugang,396,181.0,-1.0,-1.0
23931,Gopalpur-397,397,181.0,22.5049879,88.2838262
23932,Nilpur,398,181.0,22.0072265,88.00328259999999
23933,Rasiknagar,399,181.0,22.7484972,86.56657039999999
23934,Sirmapatna,400,181.0,22.3169075,87.5401377
23935,Chandipur-401,401,181.0,22.4796271,88.0191871
23936,Malihati,402,181.0,23.8084311,88.12181710000002
23937,Krishnapur,403,181.0,22.6627899,88.2765304
23938,Ajmatpur,404,181.0,22.3294213,87.5439122
23939,Brambhanshasan,405,181.0,-1.0,-1.0
23940,Chack Sarisa,406,181.0,21.7357743,87.5358765
23941,Hariharpur-407,407,181.0,22.3874314,88.44402250000002
23942,Chakhariharpur,408,181.0,22.2461395,88.3178568
23943,Amrageria-409,409,181.0,-1.0,-1.0
23944,Chakkalyan-410,410,181.0,-1.0,-1.0
23945,Maheshpur,411,181.0,22.2816125,88.3633918
23946,Islampur,412,181.0,26.2546438,88.19741479999999
23947,Dhuliya,413,181.0,26.6414149,88.2290783
23948,Birunia,414,181.0,22.3149365,87.57109919999999
23949,Barunya-415,415,181.0,-1.0,-1.0
23950,Bhagabanchak,416,181.0,22.2111094,87.05305829999999
23951,Kajichak,417,181.0,22.4060646,87.4919649
23952,Jhanjia,418,181.0,-1.0,-1.0
23953,KULUA- AKUB,419,181.0,22.3322372,87.5828342
23954,Kaluya Brindaban,420,181.0,-1.0,-1.0
23955,Kanchan Geria-(421),421,181.0,22.7763976,87.3997938
23956,Shridharpur,422,181.0,23.3103669,87.6913936
23957,Damodarpur-(423),423,181.0,23.7010892,87.0892702
23958,Chakshulpan-424,424,181.0,-1.0,-1.0
23959,Dayalpur,425,181.0,22.3468719,87.5655396
23960,Gholui,426,181.0,22.6909482,88.4076664
23961,Thakurchak,427,181.0,22.0467155,87.3844158
23962,Hamirpur428,428,181.0,21.723519,87.53428000000001
23963,Gourangapur,429,181.0,23.607136,87.4542046
23964,Chaksaora-430,430,181.0,-1.0,-1.0
23965,Kismatduan,431,181.0,22.3618008,87.5680106
23966,Mirza Nagar,432,181.0,22.6610176,88.72654270000001
23967,YAAR PUR,433,181.0,-1.0,-1.0
23968,LACHHIPUR,434,181.0,23.4086953,87.0158814
23969,Birsapur,435,181.0,-1.0,-1.0
23970,Duan,436,181.0,22.3605874,87.5865393
23971,Chaksahabaj-437,437,181.0,22.514213,88.345924
23972,Balichak-438,438,181.0,21.9709968,87.53459389999999
23973,Gotgeria-439,439,181.0,22.364542,87.41727379999999
23974,Bhogpur,440,181.0,22.3996017,87.818129
23975,Daluchak,441,181.0,22.3601451,87.5568898
23976,Kanuram,442,181.0,-1.0,-1.0
23977,Chandia,443,181.0,22.3734548,87.5507104
23978,Pashchimbeguni,444,181.0,21.7845741,87.4145542
23979,Chakkunwar,445,181.0,-1.0,-1.0
23980,Gangaramchak,446,181.0,22.3766187,87.56306839999999
23981,Chakshyampur-447,447,181.0,23.0065547,87.1327561
23982,Baragar,448,181.0,22.384194,87.57171699999999
23983,Kulgeria,449,181.0,-1.0,-1.0
23984,Chaksujal-450,450,181.0,-1.0,-1.0
23985,Purbbabeguni,451,181.0,23.1806259,88.35277119999999
23986,Alampur,452,181.0,22.5831787,88.21446720000002
23987,Kushiya,453,181.0,-1.0,-1.0
23988,Purushottampur-(454),454,181.0,21.9064466,87.52860969999999
23989,Goalageria,455,181.0,-1.0,-1.0
23990,Barmahammadpur,456,181.0,22.3771332,87.5976529
23991,Bijayram,457,181.0,22.383017,87.5927138
23992,Chaknarsingha,458,181.0,-1.0,-1.0
23993,Sekendarchak,459,181.0,23.2044032,87.5704815
23994,Narullyachak,460,181.0,-1.0,-1.0
23995,Dakshinpathra,461,181.0,23.3736804,88.5764612
23996,Lahanabarh,462,181.0,-1.0,-1.0
23997,Raghunathgeria,463,181.0,23.5343795,86.6686635
23998,Gotgeria-464,464,181.0,22.364542,87.41727379999999
23999,JOTE KANU,465,181.0,-1.0,-1.0
24000,Hijalda,466,181.0,22.3733692,87.6457807
24001,Sansara,467,181.0,21.8631821,87.3934761
24002,Palashi,468,181.0,23.7832868,88.26071879999999
24003,Banshda,469,181.0,22.3713944,87.6124669
24004,Chakharo-470,470,181.0,-1.0,-1.0
24005,Kankarapunji,471,181.0,-1.0,-1.0
24006,Papanchak,472,181.0,22.3682708,87.6025914
24007,Padima,473,181.0,22.0132758,87.4678266
24008,Nijpapan,474,181.0,22.365365,87.60752939999999
24009,Chaklalpur-475,475,181.0,22.3549223,87.606295
24010,Shyamchak,476,181.0,22.3584217,87.21766199999999
24011,Papanharicharan,477,181.0,22.3495371,87.5945661
24012,Kisamat Papan,478,181.0,22.345215,87.60444319999999
24013,PANCH GERIA-(479),479,181.0,22.4270474,87.57487569999999
24014,Pasang,480,181.0,22.3310217,87.60135679999999
24015,Turia - Kismat,481,181.0,-1.0,-1.0
24016,Kishorchak,482,181.0,22.3933792,87.79846529999999
24017,RADHA MOHANPUR,483,181.0,23.3422943,87.44677279999999
24018,Ruiyageria,484,181.0,-1.0,-1.0
24019,Sundarpur,485,181.0,23.8730463,87.9420584
24020,Dingal,486,181.0,22.349398,87.63591249999999
24021,Hatiberia,487,181.0,22.0536374,88.07021259999999
24022,Mansinga,255,182.0,22.8731081,87.2394415
24023,Anandanagar (337),337,182.0,22.631783,88.3147815
24024,Kusumdahari,356,182.0,22.6470729,87.3401183
24025,dubrajpur,377,182.0,23.7946344,87.3761105
24026,Bagdoba,379,182.0,22.8698015,87.35191189999999
24027,Bulanpur,380,182.0,22.7339897,87.1148516
24028,Krisnasole,381,182.0,22.8938524,87.2443072
24029,Bhandirbon,382,182.0,22.8963199,87.26267829999999
24030,Kukrajhuri,383,182.0,22.1843739,88.11815589999999
24031,Khoyarbani,384,182.0,25.4237953,88.3178568
24032,Nerasole,385,182.0,22.8876444,87.2661554
24033,Chunpara(386),386,182.0,22.6570632,87.2699159
24034,Benachapra,387,182.0,22.8798281,87.2842134
24035,Bharatpur,388,182.0,23.8837878,88.0839695
24036,Pidrasuli,389,182.0,22.3375913,87.04931069999999
24037,Banpur,390,182.0,23.4548044,88.7542102
24038,Kunjarbankati,391,182.0,-1.0,-1.0
24039,Hirirgeria,392,182.0,22.8630966,87.2630764
24040,Dapaguri,393,182.0,22.859429,87.2661854
24041,Bankati(394),394,182.0,22.8945699,87.4177891
24042,Mayta,395,182.0,22.8663701,87.28048400000002
24043,Metala(396),396,182.0,23.3882015,87.0787418
24044,Keotara,397,182.0,23.0568401,88.0986241
24045,thakuranitola,398,182.0,-1.0,-1.0
24046,Bhattagram,399,182.0,-1.0,-1.0
24047,Teliboni,400,182.0,23.6519948,87.29291409999999
24048,Khunberia,401,182.0,22.8544214,87.27799759999999
24049,Krishnanagar,402,182.0,23.4008744,88.5013962
24050,Kantapal,407,182.0,22.0402709,87.20334419999999
24051,Nepura,408,182.0,22.6527478,86.9861817
24052,Manglapur,409,182.0,23.0706329,87.68030279999999
24053,Kenduaguri,410,182.0,22.8374429,87.28607799999999
24054,Malibagi,411,182.0,-1.0,-1.0
24055,Kallecha,417,182.0,-1.0,-1.0
24056,Moulara,418,182.0,-1.0,-1.0
24057,Kajir bankati,419,182.0,22.8348014,87.28390259999999
24058,Telijat,420,182.0,22.5636385,87.20396679999999
24059,Fulmonipur,421,182.0,-1.0,-1.0
24060,Choto-Rangta,422,182.0,-1.0,-1.0
24061,Bara-rangta,423,182.0,22.5801806,88.41962749999999
24062,Domuhani,424,182.0,22.5500311,87.0661727
24063,Dhanyaghori,425,182.0,22.6664411,87.7846627
24064,Kharkata(427),427,182.0,22.97889,87.40525699999999
24065,Dhangadaha,428,182.0,-1.0,-1.0
24066,Kalipur,429,182.0,26.7338777,88.8401037
24067,Lakshmanpur,431,182.0,22.6359557,88.2740982
24068,Akchara,432,182.0,22.7770613,87.3113138
24069,Ketara,433,182.0,22.7670476,87.3040984
24070,Seuli,434,182.0,23.330863,86.9128676
24071,Kesiya (471),471,182.0,22.8018592,87.3236506
24072,Jamadoba,472,182.0,23.7159474,86.4136687
24073,Bagdoba (473),473,182.0,22.5191678,88.46860099999999
24074,Ledagamar (474),474,182.0,-1.0,-1.0
24075,Bhedua Soheb Danga,475,182.0,-1.0,-1.0
24076,Bhula(476),476,182.0,22.839143,87.2887822
24077,Jhal jhali,477,182.0,26.2070562,89.3973445
24078,Taldangra  Khasjangal,478,182.0,22.1794734,86.9890849
24079,Junshol,479,182.0,22.8714635,87.1877765
24080,Payrabanshi,480,182.0,22.831611,87.3376351
24081,Buriami,481,182.0,22.8354042,87.3419806
24082,Amlagora,482,182.0,22.8471007,87.3350311
24083,Ghoshalbandh,483,182.0,-1.0,-1.0
24084,Lapuriya,484,182.0,22.8497188,87.3525325
24085,Gangani,485,182.0,22.8570166,87.3438429
24086,Radhanagar,486,182.0,22.7263702,87.8660235
24087,Bandhgerhya,487,182.0,22.8444403,87.3188682
24088,Gankabandi,488,182.0,-1.0,-1.0
24089,Jharbani,489,182.0,22.8958736,86.3693536
24090,Fatesingpur,490,182.0,22.844445,87.3040984
24091,Habla,491,182.0,-1.0,-1.0
24092,Ghotboni,492,182.0,22.540025,88.32703099999999
24093,Reudi,493,182.0,22.8477359,87.3010833
24094,Indurdanga,495,182.0,22.8588042,87.29508899999999
24095,Chandabila 499,499,182.0,22.8178586,87.23225
24096,Bhimpur,500,182.0,23.431471,88.632578
24097,BhalukKhula,501,182.0,23.3701939,88.44402250000002
24098,Tilbhandar,502,182.0,22.8882349,87.29726389999999
24099,Chhotonohari,503,182.0,-1.0,-1.0
24100,Baranohari,504,182.0,22.8758045,87.3103107
24101,Simlabada,505,182.0,22.8725341,87.3149694
24102,Simuliya (506),506,182.0,23.5181248,88.67356269999999
24103,Uchhaladanga,507,182.0,22.8379499,87.9739055
24104,Deuli  (508),508,182.0,21.6671229,87.496003
24105,Kadaboni,509,182.0,22.8698873,87.3066417
24106,Jugidan,510,182.0,22.8667909,87.30534089999999
24107,Bhulachak,511,182.0,22.3601451,87.5568898
24108,Kayta,512,182.0,-1.0,-1.0
24109,Brahmangram,513,182.0,22.5038288,87.9298034
24110,Sanpur (514),514,182.0,22.8550948,87.3133496
24111,Rauliya (515),515,182.0,-1.0,-1.0
24112,Jamkhali,516,182.0,22.8602919,87.3171433
24113,Balachak,517,182.0,22.8572944,87.315901
24114,Metiabari,518,182.0,22.8641064,87.3227328
24115,Payraura,519,182.0,22.8678986,88.2400333
24116,Bhiknagar,520,182.0,22.8613785,87.3376351
24117,Chakmathuri,521,182.0,22.8653421,87.3298741
24118,BalaramPur  (522),522,182.0,-1.0,-1.0
24119,Kurchidanga,523,182.0,22.8738948,87.3295636
24120,Borhgeria,524,182.0,-1.0,-1.0
24121,Raghunathapur (525),525,182.0,22.6196705,88.4294838
24122,Royda,526,182.0,22.8846281,87.3123476
24123,Rakhaban,527,182.0,22.8870607,87.315901
24124,Chhatakonda,528,182.0,22.8869772,87.3109319
24125,Aushabandi,529,182.0,22.8173924,87.4238503
24126,Gilabani,530,182.0,22.9129485,87.3065834
24127,Nachhanjam,531,182.0,-1.0,-1.0
24128,Ashnashuli,532,182.0,22.5779323,87.3003706
24129,Amdoba,533,182.0,22.9800878,86.8308194
24130,Dhabani (534),534,182.0,22.8254508,87.372846
24131,Uparshol,535,182.0,22.9814636,87.3996765
24132,Bankati  (536),536,182.0,22.8945699,87.4177891
24133,Farakushum,537,182.0,-1.0,-1.0
24134,Fulamanipur,538,182.0,22.9569938,86.7919009
24135,Ekarya,539,182.0,23.3418345,87.24317409999999
24136,Chandrapur,540,182.0,23.266857,88.52258739999999
24137,Ramchak,541,182.0,22.0527383,87.5661573
24138,Kasua (542),542,182.0,22.8876975,87.3185299
24139,Tentuliya,543,182.0,22.7856288,88.8575011
24140,Agra,544,182.0,22.876975,87.33577249999999
24141,Meghula,545,182.0,22.8821738,87.3351517
24142,Pidrashuli (546),546,182.0,-1.0,-1.0
24143,Muluniya,547,182.0,-1.0,-1.0
24144,Naraharipur,548,182.0,23.0477628,88.8622992
24145,Patharghata,549,182.0,-1.0,-1.0
24146,Dhansole,550,182.0,22.2141619,86.8571659
24147,Kulibad,551,182.0,-1.0,-1.0
24148,Kharikashuli (552),552,182.0,22.7095589,87.2900378
24149,Bhatmara,553,182.0,22.9213638,87.3649435
24150,Pacharbandh,554,182.0,22.9064809,87.3649435
24151,Raghunathpur (555),555,182.0,22.6196705,88.4294838
24152,Konarpur,556,182.0,22.6188014,87.627276
24153,Lalpur,557,182.0,23.3062637,86.6371758
24154,Raghunathgar,558,182.0,23.5343795,86.6686635
24155,Dhadika,559,182.0,-1.0,-1.0
24156,Mandalpuskarini,560,182.0,22.8974281,87.35749729999999
24157,Krishnapur,561,182.0,22.6627899,88.2765304
24158,Chhotadumuria-(562),562,182.0,-1.0,-1.0
24159,Chaltakunda,563,182.0,22.3399696,87.2269973
24160,BaraBhandarkhada,564,182.0,-1.0,-1.0
24161,Saldangra,565,182.0,22.8771403,87.34570509999999
24162,Taldangra,566,182.0,23.0195276,87.1048702
24163,Patharhati,567,182.0,22.8673319,87.3376351
24164,Sarbani,568,182.0,22.8651717,87.3419806
24165,Banduya,569,182.0,22.8751225,86.5059713
24166,Garbeta,570,182.0,22.8631347,87.3537738
24167,Bagdoba (571),571,182.0,22.5191678,88.46860099999999
24168,Baranda,572,182.0,22.8742871,87.3531532
24169,Golahat,573,182.0,23.9532364,87.99288039999999
24170,Telipur,574,182.0,26.7338777,88.8401037
24171,Moledanga,575,182.0,22.8558772,87.3649435
24172,Hinggishol,576,182.0,-1.0,-1.0
24173,Baratalbeta,577,182.0,-1.0,-1.0
24174,Chhotatalbeta,578,182.0,22.8699247,87.359359
24175,Khiriya,579,182.0,22.8669684,87.36059999999999
24176,Bheduyashol,580,182.0,23.1147214,86.9066836
24177,Chanderbankati,581,182.0,-1.0,-1.0
24178,Ghorapota,582,182.0,22.8639712,87.359359
24179,Sijdiha,583,182.0,22.8527776,87.35749729999999
24180,Pathrishol,584,182.0,22.835485,87.3518765
24181,Panchamoledanga,585,182.0,-1.0,-1.0
24182,Khudiashol,586,182.0,22.8575085,87.3736292
24183,Chanchuria,587,182.0,-1.0,-1.0
24184,Arjunbani,588,182.0,21.9791624,87.1434548
24185,Sangramchak,589,182.0,22.8670707,87.3668048
24186,Patpur (590),590,182.0,23.2314562,87.06117720000002
24187,Tasargeria,591,182.0,22.8702106,87.37673079999999
24188,Bajrakhabankati,592,182.0,22.8714438,87.3838638
24189,Kankrasole-(593),593,182.0,22.7878917,86.9326103
24190,Malora,594,182.0,-1.0,-1.0
24191,Bellya,595,182.0,22.8827904,87.37238839999999
24192,Tellya,596,182.0,22.8827904,87.37238839999999
24193,Gopalpur (597),597,182.0,-1.0,-1.0
24194,Baro-dumuriya,598,182.0,-1.0,-1.0
24195,Lodhasuli (599),599,182.0,22.3373144,87.0482719
24196,Chotadhadika,600,182.0,22.8868782,87.3720783
24197,Sankibandh,601,182.0,22.8880709,87.37673079999999
24198,Berachapa,602,182.0,22.6949771,88.6892228
24199,Chhotochanpa,603,182.0,-1.0,-1.0
24200,Hatimaran,604,182.0,25.1819171,88.1547547
24201,Deuli  (605),605,182.0,21.6671229,87.496003
24202,Bahadurpur  (606),606,182.0,22.2039611,88.20411469999999
24203,Kamararang,607,182.0,-1.0,-1.0
24204,Bisamjuri,608,182.0,22.8919239,87.3847941
24205,Bankati(609),609,182.0,22.8945699,87.4177891
24206,Brajanathpur,610,182.0,23.6233989,88.1937598
24207,Chunpara,611,182.0,22.9763159,88.78143250000001
24208,Birsingpur (612),612,182.0,22.4196972,87.3085505
24209,Chikurmara,613,182.0,22.9162878,87.3730088
24210,Gopalsol,614,182.0,22.9221796,87.3692865
24211,Aguiboni,615,182.0,22.3080442,86.9464928
24212,Kayma,616,182.0,22.9350645,87.3835537
24213,Daldali,617,182.0,23.2919369,86.62772559999999
24214,Pachadahara,618,182.0,22.9263377,87.3959564
24215,Shyamnagar,619,182.0,22.8323184,88.3967536
24216,Narayanchak,620,182.0,21.958579,87.3984365
24217,Uaparjaba,621,182.0,-1.0,-1.0
24218,Balarampur  (622),622,182.0,22.4955014,88.23273030000001
24219,Jadabganja,623,182.0,22.8956718,87.4092855
24220,Lalitgang,624,182.0,25.6355626,88.3287896
24221,Bagmari,625,182.0,22.5865768,88.384585
24222,Darkhola (626),626,182.0,22.6903492,87.2994822
24223,Agarkhana,627,182.0,22.886294,87.4046363
24224,Fulberia,628,182.0,23.3386414,87.2307309
24225,Sonakara,629,182.0,23.1588819,87.5136167
24226,Parkhanda,630,182.0,22.8743064,87.3996765
24227,Teligora,631,182.0,-1.0,-1.0
24228,Sapdaha (632),632,182.0,22.5636996,88.3632374
24229,Garanga-(633),633,182.0,22.864896,87.37435339999999
24230,Dakshinkonda,634,182.0,22.8659687,87.3903756
24231,Darji (635),635,182.0,22.584989,88.37692
24232,Nalbona,636,182.0,22.7366897,87.26929419999999
24233,Manglapota,637,182.0,22.8662908,87.4242207
24234,Bandarboni  (638),638,182.0,-1.0,-1.0
24235,Kashidangga,639,182.0,23.5492211,88.3457906
24236,Mahisabali,640,182.0,22.1813597,87.9898205
24237,Zemuyashol (641),641,182.0,-1.0,-1.0
24238,Dhababeriya,642,182.0,-1.0,-1.0
24239,Chandabila,643,182.0,22.8194438,87.23446419999999
24240,Dhannardihi,644,182.0,-1.0,-1.0
24241,Garki,648,182.0,22.8266768,87.3996765
24242,Kasthagura,649,182.0,22.8159835,87.3909079
24243,Nalpa,650,182.0,22.8264345,87.3847941
24244,DhanKuria,651,182.0,22.957853,88.7854646
24245,Magurashol,653,182.0,22.7991691,87.35592129999999
24246,Dhalma,759,182.0,22.8297365,87.4511082
24247,Pathartoria,769,182.0,22.3686341,88.2095958
24248,Purshushan,770,182.0,-1.0,-1.0
24249,Madnahari,771,182.0,22.8641002,87.42621659999999
24250,Solatutbarh,772,182.0,-1.0,-1.0
24251,Dhanyachhora (773),773,182.0,22.2958666,88.3043826
24252,Parbbatipur,774,182.0,22.6548287,88.2290783
24253,Kumardubi (775),775,182.0,22.253691,86.7948124
24254,Baharabani (776),776,182.0,-1.0,-1.0
24255,Muraboni,777,182.0,22.1776304,87.31403770000001
24256,Khyarpara,778,182.0,23.432256,88.55411459999999
24257,Santarachak,779,182.0,-1.0,-1.0
24258,Gamarkushi,780,182.0,22.8393821,87.4492502
24259,Kadambandi(781),781,182.0,22.8092241,87.43868959999999
24260,Chandabila,782,182.0,22.8194438,87.23446419999999
24261,Anandanagar (783),783,182.0,22.6319537,88.31378850000002
24262,Pathra (784),784,182.0,22.2598336,87.1560025
24263,Shimuliya,785,182.0,23.5181248,88.67356269999999
24264,Kuntalgeria,786,182.0,-1.0,-1.0
24265,Shyamsundarpur,787,182.0,22.7298885,88.1498766
24266,Mathuri,788,182.0,22.8570854,87.4393397
24267,Kharakushama,789,182.0,-1.0,-1.0
24268,Kuargati,790,182.0,-1.0,-1.0
24269,Gobindakshetra,791,182.0,-1.0,-1.0
24270,Radhaballabhapur,792,182.0,-1.0,-1.0
24271,Rayen,793,182.0,23.6796349,87.82304359999999
24272,Darji  (794),794,182.0,22.5055311,88.24836959999999
24273,Bhalukmara,795,182.0,22.543358,87.19338150000002
24274,Satdeuli,796,182.0,23.5549691,87.0261939
24275,deulkundra,797,182.0,22.8754396,87.4125985
24276,RambadhNischintapur,798,182.0,-1.0,-1.0
24277,Sonadipa,799,182.0,-1.0,-1.0
24278,Dankasole,800,182.0,-1.0,-1.0
24279,Panchberia,801,182.0,23.2225238,88.6051183
24280,Bilaikundra,802,182.0,-1.0,-1.0
24281,Baramura,803,182.0,22.8781214,87.45172749999999
24282,Gopalpur (804),804,182.0,22.6198021,88.4351329
24283,Ramchandrapur,805,182.0,22.8911172,88.4706642
24284,Majurdima,806,182.0,22.8899496,87.44677279999999
24285,Rauliya (807),807,182.0,-1.0,-1.0
24286,Sanmura,808,182.0,22.8779631,87.4418175
24287,Karui,809,182.0,23.51971,88.1047287
24288,Moglamari,810,182.0,-1.0,-1.0
24289,Nadashuli,811,182.0,22.8897909,87.4368617
24290,Chandai,812,182.0,23.3866994,87.3438429
24291,Khamdiha,813,182.0,22.8788458,87.4272584
24292,Majariya,814,182.0,-1.0,-1.0
24293,Mataliya (815),815,182.0,-1.0,-1.0
24294,Bahadurpur (816),816,182.0,22.2039611,88.20411469999999
24295,Kuchiamari,817,182.0,22.8842924,87.41889259999999
24296,Tilberia,818,182.0,22.8895917,87.42447
24297,Bankati Rampur,819,182.0,22.8921314,87.4204419
24298,Jadabnagar,820,182.0,-1.0,-1.0
24299,Heteshol,821,182.0,22.9014587,87.4219912
24300,Namjaba,822,182.0,22.9031665,87.4356227
24301,Ayamadamodarpur,823,182.0,-1.0,-1.0
24302,Chota-angaria,824,182.0,22.9138033,87.4492502
24303,Hemnagar (825),825,182.0,22.2838044,88.97150119999999
24304,Nekrasole,826,182.0,22.2704357,86.9395629
24305,Durgar bankati,827,182.0,22.902133,87.46411189999999
24306,Bheduya,828,182.0,23.5887916,87.7098723
24307,Harinashuli,829,182.0,-1.0,-1.0
24308,Balarampur   (830),830,182.0,22.4955014,88.23273030000001
24309,Patpur (831),831,182.0,23.2314562,87.06117720000002
24310,Bankati(832),832,182.0,22.8945699,87.4177891
24311,Kamarbajar,833,182.0,22.9153987,87.50310139999999
24312,kantagarh,834,182.0,22.908865,87.5136167
24313,Pakaliya,835,182.0,-1.0,-1.0
24314,Nishchintapur (836),836,182.0,22.460581,88.1730427
24315,Chakaparbbati,837,182.0,22.6259797,88.3166419
24316,Mohanpur,838,182.0,-1.0,-1.0
24317,Shukabandi,839,182.0,22.8956019,87.4746361
24318,Uattarbil,840,182.0,-1.0,-1.0
24319,Sarsa,841,182.0,21.7690363,87.7824821
24320,Purushottampur,842,182.0,22.3043909,88.48518899999999
24321,Keudi,843,182.0,22.5523884,87.07304069999999
24322,Dhenggaarjun,844,182.0,-1.0,-1.0
24323,Manikpat,845,182.0,22.7981426,87.7787929
24324,Joka,846,182.0,22.4530659,88.3025054
24325,Pdrasuli (847),847,182.0,-1.0,-1.0
24326,Arjunberia,848,182.0,-1.0,-1.0
24327,Kirttanbar,849,182.0,-1.0,-1.0
24328,Haripur,850,182.0,23.6773318,87.1934619
24329,Rajahati,851,182.0,22.6724713,87.8439247
24330,Mukundachak,852,182.0,22.8718065,87.4758741
24331,Brahmanchak,853,182.0,22.8658331,87.4746361
24332,Shirsha,854,182.0,23.6793243,87.30440899999999
24333,Bansda,855,182.0,22.3960896,87.890565
24334,Chandrapur (856),856,182.0,22.5676033,88.02774869999999
24335,Jharia,857,182.0,23.1301847,86.40607460000001
24336,Baharaboni (858),858,182.0,-1.0,-1.0
24337,Bargeria,859,182.0,22.5496165,88.3494589
24338,Amshol    (860),860,182.0,22.7757746,87.4921789
24339,Dangarpara,861,182.0,22.3703097,87.3047196
24340,Hatikhamar,862,182.0,22.860964,87.4962961
24341,Benachapra,863,182.0,22.5873193,87.3277008
24342,Jadabbati,864,182.0,22.6248803,88.08942859999999
24343,Muradpur Hemnagar,865,182.0,-1.0,-1.0
24344,Kalyanchak,866,182.0,22.8859765,87.5253663
24345,Kandra (867),867,182.0,23.182651,88.3484654
24346,Hemnagar (868),868,182.0,22.2838044,88.97150119999999
24347,Hatibari,869,182.0,22.2069575,86.71774409999999
24348,Raghunathbati,870,182.0,25.3996081,88.5504897
24349,Bisnuchak,871,182.0,22.8623705,87.5389673
24350,Raikha Indrajitpur,872,182.0,22.855603,87.52512569999999
24351,Chakabishnu Bankati,873,182.0,-1.0,-1.0
24352,Sovagarh,874,182.0,-1.0,-1.0
24353,Hatkumarganj,875,182.0,22.8586724,87.5027913
24354,Bachhuya,876,182.0,22.8550487,87.4987709
24355,Chanraliya,877,182.0,22.848998,87.49141
24356,Narsanpur,878,182.0,22.6453065,88.46218909999999
24357,Elna,879,182.0,22.8496353,87.4857768
24358,Garberiya (880),880,182.0,-1.0,-1.0
24359,Kishorpur,881,182.0,23.8902923,88.54444749999999
24360,Itachand,882,182.0,22.8576368,87.4740171
24361,Brikbhanupur,883,182.0,22.8582537,87.4659693
24362,Rajballavpur,884,182.0,22.8464892,88.7415675
24363,Dubrajpur,885,182.0,-1.0,-1.0
24364,Lodha,886,182.0,22.8514476,87.4591586
24365,Barsol-Bardanga,887,182.0,-1.0,-1.0
24366,Malbandi,888,182.0,22.3435021,86.84838529999999
24367,Janda,889,182.0,22.8508113,87.4659693
24368,Baladghata,890,182.0,22.8487449,87.4764931
24369,Gopalpur (891),891,182.0,22.6198021,88.4351329
24370,Laumara,892,182.0,22.8451698,87.4857768
24371,Pindrasuli (893),893,182.0,-1.0,-1.0
24372,Sandhipur,894,182.0,-1.0,-1.0
24373,Katrabali,895,182.0,22.8432565,87.5061944
24374,Bhagabandapur,896,182.0,22.8434104,87.5160906
24375,Seetanagar,897,182.0,24.1925887,88.5269204
24376,Sidhpur,898,182.0,23.7343478,87.1597417
24377,Dhanyachara (899),899,182.0,22.8522267,87.43017019999999
24378,Kalikapur-(900),900,182.0,22.5034261,88.3962664
24379,Deoyan,901,182.0,25.3728592,88.2655247
24380,Bandarboni  (902),902,182.0,-1.0,-1.0
24381,Maisabali,903,182.0,-1.0,-1.0
24382,Jhapur,904,182.0,23.1411355,88.0534236
24383,Baraideoyan,905,182.0,-1.0,-1.0
24384,Raghunathapur (906),906,182.0,22.4434027,87.00097679999999
24385,Birajpur,907,182.0,22.8369149,87.4814447
24386,Ghoramara,908,182.0,21.9148682,88.131579
24387,Lakhatapal,937,182.0,22.8744272,87.4071159
24388,Jamdahara,1,183.0,26.4599717,88.9725007
24389,GotMaKali,2,183.0,22.840693,87.0898943
24390,Domohani 3,3,183.0,23.6781568,86.9897349
24391,Chechuria,4,183.0,22.8351922,87.1148516
24392,Makli,5,183.0,22.8218657,87.1185941
24393,Karanji,6,183.0,21.7374395,87.759112
24394,Chota Bhalukbasa,7,183.0,22.7450319,86.257853
24395,Barabhalukbasa,8,183.0,-1.0,-1.0
24396,Rengtia,9,183.0,22.8287876,87.0898943
24397,Keshia,10,183.0,22.9962943,86.9367456
24398,Kadambanndi,11,183.0,22.8105652,87.069919
24399,Gangarampur,12,183.0,-1.0,-1.0
24400,Rupaghagra,13,183.0,22.7987508,87.0749136
24401,Borobari,14,183.0,23.6625085,87.6672775
24402,Bankati(15),15,183.0,22.8945699,87.4177891
24403,Khajrabara,16,183.0,22.8015835,87.1079896
24404,Chhotokhajra,17,183.0,-1.0,-1.0
24405,Sosabedia,18,183.0,23.3849896,87.1609881
24406,Chotoneguria,19,183.0,-1.0,-1.0
24407,Nenguriya(Bara),20,183.0,-1.0,-1.0
24408,Kamarpur,21,183.0,-1.0,-1.0
24409,Hatimasan,22,183.0,22.8118281,87.1397958
24410,Amdiha,23,183.0,23.7899083,86.95489889999999
24411,Kadma,24,183.0,22.7252542,87.04368869999999
24412,Baishnabshol,25,183.0,22.8354613,87.1298197
24413,Ghagra (026),26,183.0,22.5228993,88.34737369999999
24414,Kethuyabad,27,183.0,-1.0,-1.0
24415,Peruabad,28,183.0,22.8418594,87.1547561
24416,Krishnashol,29,183.0,22.8912241,87.2543702
24417,Harimara,30,183.0,-1.0,-1.0
24418,Kalabati,31,183.0,22.8302203,87.1488349
24419,Amjore 032,32,183.0,22.5735988,88.4679511
24420,Birbad,33,183.0,22.8114941,87.1628575
24421,Nayabankati  (34),34,183.0,-1.0,-1.0
24422,Gachupra,35,183.0,23.5155347,88.54928129999999
24423,Gamchhakharang,36,183.0,-1.0,-1.0
24424,Hatikhana,37,183.0,22.7158365,87.35749729999999
24425,Bhuianshol,38,183.0,-1.0,-1.0
24426,Adalia,39,183.0,22.7821514,87.1447831
24427,Dobati,40,183.0,22.7699779,87.1298197
24428,Bhandarpur,41,183.0,22.5830211,86.9454758
24429,Chotabarabari,42,183.0,-1.0,-1.0
24430,Shaymsundarpur,43,183.0,22.7298885,88.1498766
24431,Sarengarh,44,183.0,-1.0,-1.0
24432,Mayna,45,183.0,25.2930953,88.16085149999999
24433,Patharpara,46,183.0,22.7972312,87.1142278
24434,Sijuya Bara,47,183.0,-1.0,-1.0
24435,Shitalpur(048),48,183.0,23.7168059,87.272667
24436,Parasia,49,183.0,-1.0,-1.0
24437,Bisharbandh,50,183.0,22.787027,87.08490119999999
24438,Bablapani,51,183.0,22.7752117,87.0898943
24439,Kharkata (052),52,183.0,22.97889,87.40525699999999
24440,Bhururbani,53,183.0,22.7859681,87.10861349999999
24441,Pathsala,54,183.0,22.8311018,88.3857055
24442,Sundargeria,55,183.0,22.7816339,87.1161935
24443,Amalachali,56,183.0,-1.0,-1.0
24444,Rangilala,57,183.0,22.779925,87.10362239999999
24445,Tentulmuri(058),58,183.0,23.0442721,87.5739959
24446,Metal,59,183.0,22.580835,88.350608
24447,Parakanali,60,183.0,22.7636664,87.1098612
24448,Balikhunia,61,183.0,22.7442059,87.10362239999999
24449,Salbani,62,183.0,22.642257,87.3190065
24450,Chotadharampur,63,183.0,22.7275861,87.0898943
24451,Pitli,64,183.0,22.7203474,87.1011267
24452,Nischintipur,65,183.0,21.9902315,88.2152393
24453,Bulanpur 066,66,183.0,22.7957668,87.1391237
24454,Hatia,67,183.0,22.7550501,87.1273253
24455,Junsole,68,183.0,22.8396005,87.3258378
24456,Singla,69,183.0,22.7343469,87.13480799999999
24457,Chotapatasole,70,183.0,-1.0,-1.0
24458,Barapatasole,71,183.0,-1.0,-1.0
24459,Bandrisole,72,183.0,22.7096464,87.1139364
24460,Bankishol,73,183.0,23.1685717,87.4678266
24461,Sirisbani,74,183.0,22.6984161,86.8834981
24462,Andharia,75,183.0,22.536371,86.97116849999999
24463,Ghoraghati,76,183.0,22.7028457,87.12108889999999
24464,Murakati,77,183.0,-1.0,-1.0
24465,Kadashol,78,183.0,23.4374952,87.2705376
24466,Daldali,79,183.0,23.2919369,86.62772559999999
24467,Kenkanali,80,183.0,22.7346131,87.1497698
24468,Pirrashuli,81,183.0,-1.0,-1.0
24469,CHOTONAKDANA,82,183.0,-1.0,-1.0
24470,Nischintapur,83,183.0,21.9902315,88.2152393
24471,Dubrajpur 084,84,183.0,22.6152266,87.7537009
24472,Benachapra 085,85,183.0,22.8759154,87.28048749999999
24473,Pindrasuli,86,183.0,22.8794888,87.26432
24474,Bathantore,87,183.0,22.7651709,87.1946269
24475,Dumuria,88,183.0,23.4620457,87.1054941
24476,Chhagulia,89,183.0,23.165868,87.0536829
24477,Pabnasini,90,183.0,22.7405579,87.1915132
24478,Jirapara,91,183.0,22.7292749,87.1846624
24479,Khapribhanga,92,183.0,22.7410071,87.1746957
24480,Bet-charia,93,183.0,-1.0,-1.0
24481,Baranakdana,94,183.0,22.7512721,87.1659731
24482,Tilabani,95,183.0,23.4127367,86.5425921
24483,Bhedua,96,183.0,-1.0,-1.0
24484,Madhuban,97,183.0,23.0878276,87.3525325
24485,Kustara,98,183.0,23.2020647,86.9235958
24486,Dumardiha,99,183.0,23.5601248,86.4870189
24487,Kerumara,100,183.0,22.7230585,87.1697116
24488,Mailisai,101,183.0,-1.0,-1.0
24489,Karasai,102,183.0,22.7061714,87.1827938
24490,Kewakole,103,183.0,-1.0,-1.0
24491,Nimakata,104,183.0,-1.0,-1.0
24492,Kishorgarh,105,183.0,23.8902923,88.54444749999999
24493,Patgata,106,183.0,23.7594188,87.8727086
24494,Panpara,107,183.0,23.1122143,88.7229325
24495,Chautar,108,183.0,22.7304195,87.0011902
24496,Ampata,109,183.0,22.7161863,87.03619169999999
24497,Kalaberia,110,183.0,22.0595364,87.78371179999999
24498,Balibandh,111,183.0,22.6093168,87.13480799999999
24499,Kuldiha,112,183.0,23.5453768,87.4058761
24500,Goaltore,113,183.0,22.7096846,87.1709576
24501,Bandi,114,183.0,22.6965864,87.3637025
24502,Kuchlashuli,115,183.0,23.2392,87.8513
24503,Bankati(116),116,183.0,22.8945699,87.4177891
24504,Gorabari,117,183.0,22.952252,86.7780836
24505,Pingbani,118,183.0,22.7107103,87.1447831
24506,Chengshol,119,183.0,22.5410246,87.2307309
24507,Dudpatri,120,183.0,22.6868069,87.1397958
24508,Kadamdiha,121,183.0,22.5868855,88.3169456
24509,Anandanagar  122,122,183.0,22.6308174,88.3180827
24510,Dharamapur,123,183.0,22.8768695,88.384625
24511,Akabari (124),124,183.0,-1.0,-1.0
24512,Langalmura,125,183.0,-1.0,-1.0
24513,Sankabhanga,126,183.0,22.5884588,86.6686635
24514,Chotachauli,127,183.0,22.398512,87.3296752
24515,Barachauli,128,183.0,22.686088,87.1834166
24516,Kankrisole,129,183.0,22.6980394,87.185908
24517,Anusole,130,183.0,22.6921726,87.1908905
24518,Kuskati,131,183.0,22.7004136,87.1940042
24519,Gopinathpur,132,183.0,22.8076683,88.0534236
24520,Subalbandi,133,183.0,-1.0,-1.0
24521,Sirsa,134,183.0,22.4257358,86.828937
24522,Seerbani,135,183.0,-1.0,-1.0
24523,Kumari,136,183.0,22.9757428,86.6195339
24524,Hirasole,137,183.0,22.6396449,87.2075361
24525,Barakadra,138,183.0,22.7059805,87.2145498
24526,Gangduari,139,183.0,-1.0,-1.0
24527,Gatsingla,140,183.0,-1.0,-1.0
24528,Dhamcha,141,183.0,22.7383625,87.1980203
24529,Chamtubad,142,183.0,22.7460172,87.20583460000002
24530,Kuilapal,143,183.0,-1.0,-1.0
24531,Duliya,144,183.0,22.160044,87.42447
24532,Leguidhara,145,183.0,22.7640944,87.2182844
24533,Karasole,146,183.0,23.7882662,87.2655636
24534,Dhekineja,147,183.0,22.771385,87.2095698
24535,Loginahari,148,183.0,-1.0,-1.0
24536,Eriamara,149,183.0,22.7916784,87.210743
24537,Kusumdangga,150,183.0,-1.0,-1.0
24538,Kesia,151,183.0,22.7577191,87.0286936
24539,Gotsole,152,183.0,-1.0,-1.0
24540,Parasigeria,153,183.0,22.7961859,87.1809251
24541,Pardaha,154,183.0,23.371842,87.5272212
24542,Saltora,155,183.0,23.524204,86.9342411
24543,Chatrakhuliya,156,183.0,-1.0,-1.0
24544,Jamirasole,157,183.0,-1.0,-1.0
24545,Takurpara,158,183.0,24.3384201,88.08152659999999
24546,Teskona,159,183.0,22.8420364,87.16472689999999
24547,Ekariya,160,183.0,-1.0,-1.0
24548,Khasjangal Nischintipur,161,183.0,22.865936,87.1697116
24549,Chandadihi,162,183.0,-1.0,-1.0
24550,Khoyerboni,163,183.0,-1.0,-1.0
24551,Kenja,164,183.0,22.8853926,87.1759416
24552,Lakhiapal,165,183.0,22.5239162,86.8072837
24553,Hatibari,166,183.0,22.2069575,86.71774409999999
24554,Kakuara,167,183.0,-1.0,-1.0
24555,Chotasalgeria,168,183.0,-1.0,-1.0
24556,Barasalgeria,169,183.0,22.8766393,87.185908
24557,Junshol,170,183.0,22.8714635,87.1877765
24558,Chandabila 171,171,183.0,22.8178586,87.23225
24559,Barabolbandi,172,183.0,22.8648213,87.1908905
24560,Baraellageria,173,183.0,22.8646898,87.1834166
24561,Chota Elageria,174,183.0,-1.0,-1.0
24562,Baglada,175,183.0,22.8594262,87.1803022
24563,Auliya,176,183.0,23.8637438,87.9400232
24564,Sunribaka,177,183.0,-1.0,-1.0
24565,Kalasole,178,183.0,22.7018274,86.590317
24566,AMLASULI,179,183.0,22.8528717,87.18839930000001
24567,Babuidanga,180,183.0,22.6222459,87.10861349999999
24568,Jankidanga,181,183.0,-1.0,-1.0
24569,Chotachengsole,182,183.0,-1.0,-1.0
24570,Barachengsole,183,183.0,-1.0,-1.0
24571,Garduara,184,183.0,23.1574762,86.84963979999999
24572,Nayabankati,185,183.0,22.8019634,87.1709576
24573,Bhama,186,183.0,22.8314994,87.20023110000001
24574,Chotomanikdipa,187,183.0,-1.0,-1.0
24575,Kupageria,188,183.0,22.8344542,87.1989858
24576,Jangalburi-Kupageria,189,183.0,-1.0,-1.0
24577,Amakonda,190,183.0,22.8418955,87.1989858
24578,jharia,191,183.0,23.1301847,86.40607460000001
24579,Shitalpur(192),192,183.0,23.7168059,87.272667
24580,NAYABANKATI,193,183.0,22.8019634,87.1709576
24581,Barapuichhara,194,183.0,-1.0,-1.0
24582,Lakhiabad,195,183.0,24.0154191,86.93987589999999
24583,Dolderia,196,183.0,-1.0,-1.0
24584,Chhotobolbandi,197,183.0,-1.0,-1.0
24585,Pattentul,198,183.0,22.8709489,87.2008537
24586,Panduri,199,183.0,22.8716166,87.19649509999999
24587,Dhanghori,200,183.0,22.5218131,86.9886834
24588,Dharajuri,201,183.0,-1.0,-1.0
24589,Ghusingdanga,202,183.0,22.8785817,87.1905791
24590,Jaypur,203,183.0,23.0551658,87.44801149999999
24591,Kantore,204,183.0,25.6802672,88.23029559999999
24592,Bhatmoudi,205,183.0,22.8839074,87.20393759999999
24593,Pechamura,206,183.0,22.9655287,87.1634807
24594,Malibandi,207,183.0,22.8830721,87.2133048
24595,Ashargram,208,183.0,22.8740994,87.2108149
24596,Kankdaha,209,183.0,22.8688146,87.2064571
24597,Bajradangga,210,183.0,-1.0,-1.0
24598,Khanapar,211,183.0,22.8613952,87.2077022
24599,Dhitingi,212,183.0,22.8584839,87.2114374
24600,chatardanga,213,183.0,22.8379499,87.9739055
24601,Padurbankati,214,183.0,22.8539105,87.205212
24602,Chotopuichara,215,183.0,-1.0,-1.0
24603,Kamilakone,216,183.0,-1.0,-1.0
24604,Deriapore,217,183.0,21.7968505,87.85865849999999
24605,Rajadali,218,183.0,22.8459937,87.1992971
24606,Baramanikdipa,219,183.0,-1.0,-1.0
24607,Shuknakhali,220,183.0,-1.0,-1.0
24608,Jasha,221,183.0,22.8349623,87.2067684
24609,Sindurgoura,222,183.0,21.9397149,86.6787354
24610,Salgeria,223,183.0,22.8286534,87.2077022
24611,Dhaboni,224,183.0,23.589362,87.3686661
24612,Bhalukkunia,225,183.0,-1.0,-1.0
24613,Babuikhuliya,226,183.0,-1.0,-1.0
24614,Sirisdanga,227,183.0,22.4103713,87.1229599
24615,Chatra,228,183.0,24.3739566,87.8512922
24616,Rajband,229,183.0,23.4767657,87.3934761
24617,Sarabot,230,183.0,-1.0,-1.0
24618,Taldanga,231,183.0,23.5545858,87.80093649999999
24619,Ghagra (232),232,183.0,-1.0,-1.0
24620,Baribot,233,183.0,-1.0,-1.0
24621,Barmesia,234,183.0,23.5163739,86.5917982
24622,Kalabati,235,183.0,22.8302203,87.1488349
24623,Arabari,236,183.0,22.6519672,87.36618440000001
24624,Bankati(237),237,183.0,22.8945699,87.4177891
24625,Jharnadanga,238,183.0,22.831933,87.2251304
24626,Moyna,239,183.0,-1.0,-1.0
24627,Sutaharar,240,183.0,22.8366363,87.2222906
24628,Agarbandh,241,183.0,22.836511,87.2209295
24629,Chunpara(242),242,183.0,22.6570632,87.2699159
24630,Chakbindu,243,183.0,22.8437529,87.2201516
24631,Alui,244,183.0,23.1011102,87.72957459999999
24632,Balguma,245,183.0,22.9019491,86.9436321
24633,Seetarampur,246,183.0,23.7233343,86.89477889999999
24634,Talbandi,247,183.0,22.5137279,87.5704815
24635,Janggal Abadi,248,183.0,-1.0,-1.0
24636,Baulara,249,183.0,22.862367,87.2207739
24637,Bandardola,250,183.0,22.8645236,87.2164171
24638,Mohanpur,251,183.0,21.8398171,87.4232306
24639,Chekuasole,252,183.0,-1.0,-1.0
24640,Dhobasole,253,183.0,-1.0,-1.0
24641,Namoshol,254,183.0,22.7009533,86.8609285
24642,Siromanipur,256,183.0,23.0475895,87.34880860000001
24643,Samaypara,257,183.0,22.8655593,87.23321980000001
24644,Lalitpur,258,183.0,22.8590876,87.2462844
24645,Kesia,259,183.0,22.7577191,87.0286936
24646,Sirisboni,260,183.0,-1.0,-1.0
24647,Basudebpur,261,183.0,-1.0,-1.0
24648,Kurkutbandi,262,183.0,22.8536962,87.2357086
24649,Jogardangga,263,183.0,-1.0,-1.0
24650,Panchami,264,183.0,22.5131759,87.43810069999999
24651,Dubada,265,183.0,21.81205,87.5568898
24652,Atraj,266,183.0,22.8480345,87.231042
24653,Bota,267,183.0,24.2560362,88.48216339999999
24654,Paikberia,268,183.0,23.865708,88.46218909999999
24655,Chhotonogra,269,183.0,-1.0,-1.0
24656,Radhachak,270,183.0,22.6007915,87.6685929
24657,Baranagra,271,183.0,22.6383016,88.36543859999999
24658,Asanboni,272,183.0,23.6904201,86.8560684
24659,Salband,273,183.0,22.8457358,87.2487725
24660,Deulkola,274,183.0,25.8754466,87.84358879999999
24661,Patharberia,275,183.0,22.3686341,88.2095958
24662,Chemiya,276,183.0,22.8299516,87.23228019999999
24663,Kayabad,277,183.0,22.8303254,87.2397525
24664,Hoomgarh,278,183.0,22.8240161,87.2406857
24665,Chandabila 279,279,183.0,22.8178586,87.23225
24666,Metaldoba,280,183.0,-1.0,-1.0
24667,Amkopa (281),281,183.0,-1.0,-1.0
24668,asnasuli,282,183.0,22.9222537,87.3289427
24669,Indkuri,283,183.0,22.7897625,87.2394415
24670,Barsole,284,183.0,22.5027454,86.9098657
24671,Tangasole,285,183.0,22.2900588,87.26929419999999
24672,patharmari,286,183.0,22.78398,87.2493945
24673,Rangametia,287,183.0,23.3093201,86.8571659
24674,Gohaldangga,288,183.0,22.7599088,87.23446419999999
24675,Moladanga,289,183.0,23.4257345,88.0839695
24676,Birpathri,290,183.0,-1.0,-1.0
24677,Barabagpichla,291,183.0,-1.0,-1.0
24678,Chota Bagpichla,292,183.0,-1.0,-1.0
24679,Metala(294),294,183.0,23.3882015,87.0787418
24680,Bankumari,295,183.0,22.7302255,87.2394415
24681,Sutkujuri,296,183.0,23.2392,87.8513
24682,Kushdiha,297,183.0,22.7217709,87.2238857
24683,Dhepuya,298,183.0,-1.0,-1.0
24684,Chotokadra,299,183.0,-1.0,-1.0
24685,Umrapota,300,183.0,-1.0,-1.0
24686,Hamargora,303,183.0,22.7018373,87.23321980000001
24687,Amjore (304),304,183.0,24.4437185,87.8533034
24688,Kiamacha,305,183.0,22.7168933,87.24317409999999
24689,Chotasalbani,306,183.0,22.6578469,87.2583173
24690,Barasalbani,307,183.0,22.7534519,86.9993144
24691,Penchapara,308,183.0,22.704273,87.2450403
24692,Pathardoba  (317),317,183.0,22.967357,87.0975112
24693,Tentulmuri  (331),331,183.0,23.0442721,87.5739959
24694,Nischintapur (332),332,183.0,22.460581,88.1730427
24695,Jamdahara,333,183.0,-1.0,-1.0
24696,Amshol  (351),351,183.0,22.7757746,87.4921789
24697,Agya,357,183.0,22.591172,88.340897
24698,Ukhla,358,183.0,23.6516121,87.24588039999999
24699,Bargiutra,359,183.0,22.7978216,87.2755111
24700,Hadhadi,360,183.0,22.5494565,87.07553790000001
24701,Birbandi,361,183.0,22.8078794,87.2543702
24702,Peruajole,362,183.0,-1.0,-1.0
24703,Dubrajpur,363,183.0,23.7946344,87.3761105
24704,Piasala,364,183.0,22.8272493,87.255614
24705,Nagdipara,365,183.0,22.8309168,87.2525044
24706,Bhoga,366,183.0,23.234143,88.2896391
24707,Ichhariya,367,183.0,-1.0,-1.0
24708,Teberia,368,183.0,22.836998,87.25996719999999
24709,Ramnagar,369,183.0,21.6786436,87.5631613
24710,Darikanchratore,370,183.0,-1.0,-1.0
24711,Bagdangra,371,183.0,22.8462307,87.255925
24712,Raghunathbari,372,183.0,22.3551752,87.7818673
24713,Madnapur,373,183.0,22.4308892,87.32149079999999
24714,Merra,374,183.0,-1.0,-1.0
24715,Harigeria,375,183.0,22.8551392,87.2546812
24716,Bhandarband,376,183.0,22.8563247,87.2587235
24717,Bansdiha,378,183.0,22.8681242,87.2525044
24718,Khudrakatapal,403,183.0,-1.0,-1.0
24719,Gopalnagar,404,183.0,23.0613166,88.76178700000001
24720,Kanchratore,405,183.0,22.944101,88.4335019
24721,Suniakone,406,183.0,22.8398464,87.2668344
24722,Pachami,412,183.0,24.0793165,87.6124669
24723,Patasole,413,183.0,22.8979975,87.21579469999999
24724,Baradhadika,414,183.0,22.88161,87.3074506
24725,Chotadhadika,415,183.0,22.8868782,87.3720783
24726,Bagridihi,416,183.0,22.8305742,87.2715149
24727,Pathrajangle,430,183.0,-1.0,-1.0
24728,Bhula,476,183.0,22.8338798,87.29539969999999
24729,Bara Pancharol,494,183.0,22.8495226,87.3051256
24730,Choto Pancharol,496,183.0,-1.0,-1.0
24731,Khamarberia(497),497,183.0,22.6726437,87.5998762
24732,Gangra,498,183.0,22.3038124,87.2904284
24733,Dhaboni (652),652,183.0,22.8254968,87.3725853
24734,Bhat para,105,184.0,22.8562412,88.406454
24735,BHATURBANDI,293,184.0,22.7482578,87.2493945
24736,MAHARAJPUR,301,184.0,22.6357379,87.66551079999999
24737,Barachandabila,302,184.0,22.6960116,87.2406857
24738,GAMRU,309,184.0,22.7029122,87.2525044
24739,TENTULMURI,310,184.0,23.2929946,87.67352369999999
24740,CHENCHURIA,311,184.0,22.7058467,87.2500165
24741,SENKASOLE,312,184.0,-1.0,-1.0
24742,KUSHMASULI,313,184.0,25.526469,88.3652122
24743,DOTAL,314,184.0,22.7304814,87.2543702
24744,Nalbana,315,184.0,22.567623,88.313453
24745,DAMODARPUR,316,184.0,22.7796573,87.7344988
24746,Kawabad,318,184.0,22.7057047,87.2854565
24747,BARANURI,319,184.0,22.6996245,87.27799759999999
24748,Nandasuli,320,184.0,22.3375913,87.04931069999999
24749,Elarah,321,184.0,-1.0,-1.0
24750,BHIMPUR,322,184.0,23.431471,88.632578
24751,Mangalpara,323,184.0,22.7008809,87.26432
24752,CHOTOCHANDABILA,324,184.0,-1.0,-1.0
24753,BHANDERBERH,325,184.0,-1.0,-1.0
24754,AMKANDLA,326,184.0,22.6873782,87.25810159999999
24755,Matalia,327,184.0,-1.0,-1.0
24756,BANDHGORA,328,184.0,22.8444403,87.3188682
24757,Elarah 329,329,184.0,-1.0,-1.0
24758,CHORKUL,330,184.0,22.6530766,86.9248483
24759,CHOTONOHARI,334,184.0,-1.0,-1.0
24760,Golabandi,335,184.0,22.7005891,87.2910498
24761,Teghuri,336,184.0,22.8901984,87.9849242
24762,Sirapah,338,184.0,-1.0,-1.0
24763,Darkhola (339),339,184.0,22.6903492,87.2994822
24764,Bhogishol (340),340,184.0,-1.0,-1.0
24765,Bhurakudi,341,184.0,22.5236256,88.8814857
24766,Baranarichya,342,184.0,-1.0,-1.0
24767,Bagchari,343,184.0,22.8366709,87.5618327
24768,Chotanarichya,344,184.0,-1.0,-1.0
24769,Chakdinbandhu,345,184.0,22.7051802,87.2985066
24770,Murakata Kharikashu,346,184.0,-1.0,-1.0
24771,Barashuli-(347),347,184.0,22.3709517,87.12483089999999
24772,Chaktulsi,348,184.0,23.9156162,87.4120749
24773,Nayabasat,349,184.0,22.7133777,87.2991279
24774,Dhansole,350,184.0,22.2141619,86.8571659
24775,Daldali 352,352,184.0,22.7448096,87.2686422
24776,TILABUKA,353,184.0,22.7500225,87.2655636
24777,Bagakhulia,354,184.0,22.964679,86.9561506
24778,BANSDIHA,355,184.0,22.8681242,87.2525044
24779,Amkopa (426),426,184.0,-1.0,-1.0
24780,Bheduya,435,184.0,23.5887916,87.7098723
24781,Majuranacha,436,184.0,-1.0,-1.0
24782,Bhula (437),437,184.0,22.839143,87.2887822
24783,Ueepoka,438,184.0,-1.0,-1.0
24784,Tiltoka,439,184.0,-1.0,-1.0
24785,Benggahshol,440,184.0,-1.0,-1.0
24786,Malidangga,441,184.0,23.4257345,88.0839695
24787,Agri,442,184.0,23.5499456,88.2563844
24788,Khorika,443,184.0,-1.0,-1.0
24789,Jagabandhuchak,444,184.0,22.7159744,87.3208697
24790,Karati,445,184.0,22.7122012,87.3177644
24791,Bhelaitikri,446,184.0,22.7032698,87.3177644
24792,Barapara,447,184.0,22.7728952,86.9649116
24793,Churasole,448,184.0,-1.0,-1.0
24794,Gurahchka,449,184.0,-1.0,-1.0
24795,Ghagda,450,184.0,21.7738629,87.5939487
24796,Chandmura,451,184.0,22.6783962,87.3438429
24797,Arabari,452,184.0,22.6519672,87.36618440000001
24798,Duki,453,184.0,22.7064124,87.3277008
24799,Kalikata,454,184.0,22.5998233,87.9837
24800,Tunthbari,455,184.0,23.8112714,86.8345841
24801,Kuralganj,456,184.0,22.7131213,87.32832169999999
24802,Namjanka,457,184.0,22.718321,87.3277008
24803,Bila,458,184.0,22.7273349,87.3326682
24804,Uaparjaka,459,184.0,-1.0,-1.0
24805,Dumurgeria,460,184.0,22.7241511,87.3202487
24806,Chandabila,461,184.0,22.8194438,87.23446419999999
24807,Barajam,462,184.0,22.2722725,87.0186942
24808,Ghoshakira,463,184.0,-1.0,-1.0
24809,Shirisdangga,464,184.0,-1.0,-1.0
24810,Durlavganja,465,184.0,-1.0,-1.0
24811,Sarberia,466,184.0,22.2675081,88.4446282
24812,Organja,467,184.0,22.7481744,87.3326682
24813,Paturia,468,184.0,-1.0,-1.0
24814,Ban-kati  (469),469,184.0,22.8945699,87.4177891
24815,Karmshol,470,184.0,-1.0,-1.0
24816,Tofa,645,184.0,22.7247895,88.4790599
24817,Nayabankati,646,184.0,22.8019634,87.1709576
24818,Amdiha,647,184.0,23.4757619,86.371887
24819,Tantichua,654,184.0,22.8019978,87.3637533
24820,Patharkunda,655,184.0,22.7863061,87.38851509999999
24821,Chanchhagote,656,184.0,-1.0,-1.0
24822,Guyafela,657,184.0,-1.0,-1.0
24823,Gadamauli,658,184.0,-1.0,-1.0
24824,Kiaboni,659,184.0,22.78549,87.3388767
24825,Nishchintapur (660),660,184.0,22.460581,88.1730427
24826,Uparsholbankati,661,184.0,23.2392,87.8513
24827,Digri,662,184.0,22.7620839,87.3637025
24828,Chota Sarenga,663,184.0,22.7665094,87.02119420000001
24829,Benashuli,664,184.0,22.4756893,87.2406857
24830,Pathra (665),665,184.0,22.2598336,87.1560025
24831,Kadamdiha,666,184.0,22.5868855,88.3169456
24832,Bara Sarenga,667,184.0,-1.0,-1.0
24833,Jambani (668),668,184.0,22.0068579,87.07990769999999
24834,Baradabcha,669,184.0,22.7439761,87.34880860000001
24835,Chhotadabchya,670,184.0,-1.0,-1.0
24836,Khandibadh,671,184.0,-1.0,-1.0
24837,Dwarigeria,672,184.0,22.7320677,87.34880860000001
24838,Satbankura,673,184.0,-1.0,-1.0
24839,Barakura,674,184.0,22.9557921,87.4690648
24840,Dharampur,675,184.0,22.8768695,88.384625
24841,Garhanga-(676),676,184.0,-1.0,-1.0
24842,Burishol,677,184.0,22.5786884,86.7001311
24843,Tilakhula,678,184.0,22.7009504,87.35749729999999
24844,Hatikhana,679,184.0,22.7158365,87.35749729999999
24845,Nabakola,680,184.0,22.720241,87.3537738
24846,Kumari,681,184.0,22.9757428,86.6195339
24847,Mangalbandi,682,184.0,22.6965864,87.3637025
24848,Kuchashimul,683,184.0,22.7070677,87.3674253
24849,Kamarberia,684,184.0,22.7108806,87.3730088
24850,Belaganja,685,184.0,-1.0,-1.0
24851,Nepura,686,184.0,22.6527478,86.9861817
24852,Bhogishol (687),687,184.0,-1.0,-1.0
24853,Buramara,688,184.0,22.688019,87.3860345
24854,Sainara,689,184.0,-1.0,-1.0
24855,Kelami,690,184.0,22.7015175,87.39223590000002
24856,Shimuldiha,691,184.0,22.6963374,87.39409619999999
24857,Belama,692,184.0,-1.0,-1.0
24858,Kumardubi (693),693,184.0,23.5375453,86.66545099999999
24859,Uriasai,694,184.0,22.6959829,87.4091785
24860,Shyampur (695),695,184.0,-1.0,-1.0
24861,Hijalkala,696,184.0,-1.0,-1.0
24862,Nishchintapur (697),697,184.0,22.460581,88.1730427
24863,Baharashuli,698,184.0,-1.0,-1.0
24864,Bankati (699),699,184.0,22.8945699,87.4177891
24865,Durgapur,700,184.0,23.5204443,87.3119227
24866,Karangasole,701,184.0,-1.0,-1.0
24867,Gopalpur (702),702,184.0,22.5049879,88.2838262
24868,Marachi,703,184.0,32.6089735,-115.357822
24869,Garhberia (704),704,184.0,22.8481372,87.35470029999999
24870,Pratappur,705,184.0,-1.0,-1.0
24871,Biharishol,706,184.0,22.7208898,87.3934761
24872,Metiadahar,707,184.0,22.726683,87.3835537
24873,Andhariya,708,184.0,22.536371,86.97116849999999
24874,Tentuldanga,709,184.0,22.5048277,87.03619169999999
24875,Zemuya,710,184.0,23.5567757,87.3761105
24876,Suknatore,711,184.0,22.7379098,87.3732091
24877,Kanchdahari (712),712,184.0,22.7496071,87.4026085
24878,Guyadaha,713,184.0,22.7389137,87.40339639999999
24879,Chhotatara-(714),714,184.0,23.0461242,88.3136234
24880,Samramara,715,184.0,-1.0,-1.0
24881,Babuidanga,716,184.0,22.6222459,87.10861349999999
24882,Naorhasole,717,184.0,-1.0,-1.0
24883,Manikbandh,718,184.0,22.6990993,87.4269486
24884,Gokulpunj (719),719,184.0,-1.0,-1.0
24885,Tilakganj,720,184.0,22.6919914,87.44801149999999
24886,Sonarberh,721,184.0,22.4490894,88.39147310000001
24887,Gurahara,722,184.0,-1.0,-1.0
24888,Dakshinshol,723,184.0,22.7321659,87.44677279999999
24889,Alkusha,724,184.0,23.2209023,87.890565
24890,Andharnyan,725,184.0,-1.0,-1.0
24891,Shyampur (726),726,184.0,22.4935958,88.1949782
24892,Lachhangarh,727,184.0,-1.0,-1.0
24893,Keudi jambani,728,184.0,-1.0,-1.0
24894,Gobindachak,729,184.0,22.0043712,87.78002269999999
24895,Amdoula,730,184.0,23.9309782,88.4476565
24896,Bachaka Bankati,731,184.0,-1.0,-1.0
24897,Deshbandh,732,184.0,22.5175728,88.3473941
24898,Kandra (733),733,184.0,25.3096962,88.1381368
24899,Banpur,734,184.0,23.4548044,88.7542102
24900,Kathaldiha,735,184.0,-1.0,-1.0
24901,Chandabila (736),736,184.0,22.8178586,87.23225
24902,Kanchangiri,737,184.0,22.7790448,87.3996765
24903,Karsa,738,184.0,22.7889109,87.4114551
24904,Indrakola,739,184.0,22.7934564,87.41641349999999
24905,Kamdebpur,740,184.0,22.7826934,88.50091859999999
24906,Gadashol,741,184.0,-1.0,-1.0
24907,Balarampur  (742),742,184.0,24.2578158,88.298414
24908,Nerekopa,743,184.0,-1.0,-1.0
24909,Harisingpur,744,184.0,-1.0,-1.0
24910,Zarka,745,184.0,22.5511512,88.3713037
24911,Raskundu,746,184.0,22.7944893,87.43438359999999
24912,Rampura,747,184.0,22.2399506,87.39223590000002
24913,Panikotar,748,184.0,22.8001248,87.4145542
24914,Jaluya,749,184.0,-1.0,-1.0
24915,Jangalparh,750,184.0,22.7319998,88.20472380000001
24916,Simulia (751),751,184.0,23.0441166,88.6949437
24917,Gangguya,752,184.0,-1.0,-1.0
24918,Balibil,753,184.0,22.9662692,87.4727791
24919,Bardiha,754,184.0,-1.0,-1.0
24920,Sirishboni,755,184.0,-1.0,-1.0
24921,Chunirchak,756,184.0,22.821599,87.4542046
24922,Parasole,757,184.0,22.8979975,87.21579469999999
24923,Kadmabandi (758),758,184.0,-1.0,-1.0
24924,Tatarbati,760,184.0,22.8272367,87.43438359999999
24925,Jambani (761),761,184.0,22.0068579,87.07990769999999
24926,Sonabandi,762,184.0,22.8184246,87.4418175
24927,Kenkatorh,763,184.0,22.8183057,87.43438359999999
24928,Mataliya (764),764,184.0,-1.0,-1.0
24929,Ausbandi,765,184.0,22.820227,87.4228172
24930,Fulashashan,766,184.0,-1.0,-1.0
24931,Kharikasuli (767),767,184.0,22.7095589,87.2900378
24932,Mahata,768,184.0,23.4845528,87.8046111
24933,Kadokata,909,184.0,22.572646,88.36389500000001
24934,Dukshiasole,910,184.0,-1.0,-1.0
24935,Narayanpur,911,184.0,22.6453065,88.46218909999999
24936,Aguidiha,912,184.0,22.769715,87.4678266
24937,Amshol     (913),913,184.0,22.7757746,87.4921789
24938,Rajbandh,914,184.0,23.4767657,87.3934761
24939,Solagerya,915,184.0,-1.0,-1.0
24940,Gopinathapur,916,184.0,22.8076683,88.0534236
24941,Panshiuli,917,184.0,22.7505772,87.4814447
24942,Chandrabhanpur,918,184.0,22.7578842,87.4727791
24943,Suknadighi,919,184.0,24.2924268,88.0851909
24944,Zemuyashol (920),920,184.0,-1.0,-1.0
24945,Dainmari,921,184.0,22.5362302,86.9636601
24946,Hidaramshol,922,184.0,22.7502652,87.4616353
24947,Nagdichak,923,184.0,22.7449668,87.4560624
24948,Ghatmura,924,184.0,22.7420287,87.4585393
24949,Fategarh,925,184.0,22.7404812,87.4548239
24950,Dhobichak,926,184.0,22.527106,88.35654799999999
24951,Sankhabai,927,184.0,22.7308159,87.4669077
24952,Alampur,928,184.0,22.5831787,88.21446720000002
24953,Pataisole,929,184.0,-1.0,-1.0
24954,Golakder Ayma,930,184.0,-1.0,-1.0
24955,Kendraisole,931,184.0,-1.0,-1.0
24956,Gujrat,932,184.0,22.754881,87.7726436
24957,Mahabankati,933,184.0,22.6967511,87.46658839999999
24958,Fateganj Bankati,934,184.0,-1.0,-1.0
24959,Birsinhapur (935),935,184.0,22.304586,87.551294
24960,Sauliya,936,184.0,-1.0,-1.0
24961,Kuyerkhal,938,184.0,-1.0,-1.0
24962,Kharhorishole,1,185.0,-1.0,-1.0
24963,Nadaria,2,185.0,22.6748106,87.13480799999999
24964,Babuibasa,3,185.0,22.6665129,87.1480719
24965,Rupaipur,4,185.0,22.6677,87.1535095
24966,Panishol,5,185.0,22.1954515,86.7378655
24967,Jamdoba,6,185.0,-1.0,-1.0
24968,Godamouli,7,185.0,22.6502767,87.1784334
24969,Rasulpur,8,185.0,23.1840099,88.0301946
24970,Kurajuri,9,185.0,23.4142893,87.016819
24971,Abhaya,10,185.0,22.6277957,87.1697116
24972,Radhagobindapur,11,185.0,22.565981,87.2537483
24973,Memul,12,185.0,22.6515245,87.16472689999999
24974,Bhola,13,185.0,24.3203521,88.06197859999999
24975,Madhupur,14,185.0,26.363461,89.3807678
24976,Jamirgote,15,185.0,-1.0,-1.0
24977,Khasjangal(016),16,185.0,22.3217643,86.93002609999999
24978,Birghasha,17,185.0,22.6271791,87.13480799999999
24979,Mahishadoba,18,185.0,22.1813597,87.9898205
24980,Chapasole,19,185.0,-1.0,-1.0
24981,Changuri,20,185.0,23.5638224,86.5867537
24982,Amlabati,21,185.0,22.6629916,87.1397958
24983,Dhadika Danga,22,185.0,22.845207,87.3239547
24984,Garhra,23,185.0,25.9135493,87.68030279999999
24985,Dhuchati,24,185.0,22.5407975,88.3581751
24986,Kalaimuri,25,185.0,22.662457,87.1098612
24987,Birbhanpur               (026),26,185.0,23.4848873,87.3022345
24988,Kalsibhangga,27,185.0,-1.0,-1.0
24989,Dandi,28,185.0,22.3312445,87.46844569999999
24990,Adharmara,29,185.0,-1.0,-1.0
24991,Tilaghagri,30,185.0,22.6403311,87.12108889999999
24992,Patajharia,31,185.0,22.6209584,87.11984149999999
24993,Babuidanga,32,185.0,22.6222459,87.10861349999999
24994,Jhitka,33,185.0,22.6279756,87.0961348
24995,Khayerdanga,34,185.0,22.6133149,87.10861349999999
24996,Bhimpur,35,185.0,23.431471,88.632578
24997,Nerhe,36,185.0,22.6076729,87.1260781
24998,Balibandh,37,185.0,22.6093168,87.13480799999999
24999,Masina,38,185.0,23.357049,85.9534465
25000,Patharnala,39,185.0,22.427121,86.93987589999999
25001,Dhengbahara,40,185.0,22.4939072,86.8138748
25002,Kharikasuli,41,185.0,22.9374261,87.3463258
25003,Jamgera,42,185.0,23.811927,87.01744409999999
25004,Pukhuriashol,43,185.0,25.1314084,88.02897159999999
25005,Ranja,44,185.0,22.6101946,87.1846624
25006,Chandabila               (45),45,185.0,-1.0,-1.0
25007,Jaypur,46,185.0,23.0551658,87.44801149999999
25008,Bandhgera,47,185.0,22.8444403,87.3188682
25009,Naranpur,48,185.0,22.6453065,88.46218909999999
25010,Bhadunara,49,185.0,22.4860396,87.32521690000002
25011,Mahata pur,50,185.0,23.4824161,88.50817649999999
25012,Goal danga,51,185.0,22.5336139,87.0433764
25013,Sarbera,52,185.0,22.7377094,87.3357322
25014,Sabali,53,185.0,22.4750279,88.4007295
25015,Jarka(054),54,185.0,-1.0,-1.0
25016,Dhabasole(055),55,185.0,-1.0,-1.0
25017,Nimtola,56,185.0,22.5814089,87.1560025
25018,Pirhrakuli,57,185.0,22.6054415,87.2543702
25019,Kuldiha,58,185.0,23.5453768,87.4058761
25020,Dhanghori  (59),59,185.0,22.8099447,87.2698542
25021,Shir shi,60,185.0,25.3221968,88.2400333
25022,Koyma,61,185.0,-1.0,-1.0
25023,Goranata,62,185.0,-1.0,-1.0
25024,Ranga Mati,63,185.0,-1.0,-1.0
25025,Bhangadali,64,185.0,22.8016181,86.9886834
25026,Patharpara,65,185.0,22.7972312,87.1142278
25027,Laxmanpur,66,185.0,23.440911,87.00931779999999
25028,Tildanga,67,185.0,24.7898225,87.8758417
25029,Indkuri,68,185.0,22.7897625,87.2394415
25030,Anandanagar   (69),69,185.0,22.6305922,88.3189316
25031,Sakhishol,70,185.0,22.6964885,87.0986308
25032,Patharnala,71,185.0,22.427121,86.93987589999999
25033,Rameswarpur,72,185.0,23.0296791,88.1949782
25034,Mathurapur,73,185.0,22.1202674,88.39432819999999
25035,Hatilote,74,185.0,-1.0,-1.0
25036,Khandi Rani,75,185.0,23.9723871,88.0723799
25037,Kumerkata,76,185.0,-1.0,-1.0
25038,Kanabali,77,185.0,13.0285843,80.258072
25039,Jamboni(078),78,185.0,22.4507663,86.8974258
25040,Gangadaspur,79,185.0,22.5870314,88.15963219999999
25041,Garhra,80,185.0,25.9135493,87.68030279999999
25042,Kadmashol,81,185.0,22.4347075,86.79315679999999
25043,Hatimara,82,185.0,23.4566472,86.3807527
25044,Amjore,83,185.0,22.5777359,88.40095649999999
25045,Belasole,84,185.0,-1.0,-1.0
25046,Shitalpur,85,185.0,22.1683994,87.9065098
25047,Kotalberie,86,185.0,-1.0,-1.0
25048,Singpur,87,185.0,22.814957,88.234481
25049,Krishnanagar  (88),88,185.0,22.7206657,88.4772114
25050,Mirgashole,89,185.0,-1.0,-1.0
25051,Shalboni -90,90,185.0,22.6155141,87.30464110000001
25052,Jadabpur,91,185.0,22.4939728,88.37067119999999
25053,Jayanarayanpur   (92),92,185.0,23.2958758,88.6291191
25054,Ramchandrapur,93,185.0,22.8911172,88.4706642
25055,Dharmapur,94,185.0,23.1430189,87.45172749999999
25056,Bhabanipur,95,185.0,22.4224226,88.4422055
25057,Chhotobhimpur,96,185.0,-1.0,-1.0
25058,Mailda,97,185.0,25.1785773,88.24611829999999
25059,Chilapara,98,185.0,22.5796021,87.1803022
25060,Murari,99,185.0,22.6149313,87.3773511
25061,Siajora,100,185.0,23.6122328,87.14727649999999
25062,Banshkona,101,185.0,22.604143,87.2655636
25063,Abradihi,102,185.0,22.5699804,87.1834166
25064,Kanksole,103,185.0,23.4600581,87.4628736
25065,Bahara boni,104,185.0,-1.0,-1.0
25066,Dama kata,105,185.0,22.5612652,87.1958724
25067,Lodhapara,106,185.0,22.2246972,87.51456519999999
25068,Buripara,107,185.0,23.2397992,86.8759761
25069,Mohanpur,108,185.0,21.8398171,87.4232306
25070,Barsadihi,109,185.0,22.5482101,87.1728267
25071,Bhimshole,110,185.0,-1.0,-1.0
25072,Majurkata,111,185.0,22.5369689,87.1684655
25073,Srikrishnapur - Jl-112,112,185.0,24.1706206,87.78746129999999
25074,Pathri,113,185.0,22.3253758,87.2444182
25075,Shankarbandh,114,185.0,22.5251902,87.1759416
25076,Lalerdihi,115,185.0,23.6679405,87.265862
25077,Bhalukmarashole,116,185.0,-1.0,-1.0
25078,Kshudrabankati,117,185.0,-1.0,-1.0
25079,Radhakantapur,118,185.0,22.5594289,87.7443457
25080,Harirampur,119,185.0,25.3773195,88.26801720000002
25081,Raisinger Bagicha,120,185.0,-1.0,-1.0
25082,Belkuri,121,185.0,22.5606827,87.205212
25083,Karasai,122,185.0,22.7061714,87.1827938
25084,Dhanghori    (123),123,185.0,22.8099447,87.2698542
25085,Nurdri,124,185.0,26.738559,88.41590099999999
25086,Machhadinda,125,185.0,-1.0,-1.0
25087,Marlu,126,185.0,23.1133514,86.9511436
25088,Krinapur,127,185.0,22.6627899,88.2765304
25089,Goaldihi,128,185.0,23.6390096,87.8966983
25090,Shyamchak,129,185.0,22.3584217,87.21766199999999
25091,Hartara,130,185.0,25.8515949,87.88197699999999
25092,Bankishol,131,185.0,23.1685717,87.4678266
25093,Joykrishnapur,132,185.0,24.1847384,87.8082982
25094,Chhotosijua,133,185.0,-1.0,-1.0
25095,Barasijua,134,185.0,22.653428,87.18839930000001
25096,Debagram,135,185.0,23.6886494,88.3093517
25097,Damanjuri,136,185.0,22.6743542,87.19338150000002
25098,Jagulara,137,185.0,22.686349,87.1983631
25099,Chhatni,138,185.0,23.5244693,88.2582857
25100,Butshole Gobindapur,139,185.0,-1.0,-1.0
25101,Puradiha,140,185.0,23.3320779,86.365208
25102,Bayla,141,185.0,22.6820782,87.2095698
25103,Dudhakharang,142,185.0,-1.0,-1.0
25104,Binja,143,185.0,22.6882906,87.22450800000001
25105,Sharmara,144,185.0,22.5272884,88.36566649999999
25106,Banshbandi,145,185.0,24.4902306,87.9947163
25107,Kushtora,146,185.0,23.705107,88.46218909999999
25108,Mankuri,147,185.0,22.6688323,87.2182844
25109,Jatgari,148,185.0,24.1940107,86.95990549999999
25110,Muchibera,149,185.0,-1.0,-1.0
25111,Rautara,150,185.0,22.8264226,86.6636269
25112,Amlatora,151,185.0,23.4922078,86.5741401
25113,Khejurboni,152,185.0,21.9767009,87.8011439
25114,Chuasole,153,185.0,-1.0,-1.0
25115,Tilabani,154,185.0,23.4127367,86.5425921
25116,Roygarh,155,185.0,22.6928317,87.06117720000002
25117,Pathra,156,185.0,22.4116111,87.4182728
25118,Khandibandh,157,185.0,22.6461805,87.1996084
25119,Chakajharia,158,185.0,22.6449295,87.2133048
25120,Ramnagar,159,185.0,21.6786436,87.5631613
25121,Tusfala,160,185.0,-1.0,-1.0
25122,Bagaldoba,161,185.0,22.6409136,87.2394415
25123,Bhalukshol,162,185.0,22.641455,87.2276196
25124,Dudrushol,163,185.0,-1.0,-1.0
25125,Raghunathapur,164,185.0,23.5343795,86.6686635
25126,Lalgeria,165,185.0,22.4031533,87.0943516
25127,Hirashole,166,185.0,22.6396449,87.2075361
25128,Pirakata,167,185.0,22.5639824,87.1809251
25129,Ghagrasole,168,185.0,23.7882662,87.2655636
25130,Duli,169,185.0,22.6045867,87.20458939999999
25131,Kondashol,170,185.0,-1.0,-1.0
25132,Maulboni,171,185.0,22.642257,87.3190065
25133,Gopinathpur (172),172,185.0,23.4950994,87.33972039999999
25134,Gaighata(173),173,185.0,22.9050067,88.7327179
25135,Sundarpur,174,185.0,23.8730463,87.9420584
25136,Barakeudi,175,185.0,-1.0,-1.0
25137,Ghusidanga,176,185.0,-1.0,-1.0
25138,Chhatokeundi,177,185.0,-1.0,-1.0
25139,Miyapara,178,185.0,22.8845145,87.7837873
25140,Raghunathpur,179,185.0,23.5343795,86.6686635
25141,Parulia,180,185.0,23.446217,88.3129969
25142,Deulbarh,181,185.0,22.8942758,87.9543099
25143,Damanjuri    182,182,185.0,-1.0,-1.0
25144,Shalboni -183,183,185.0,22.6155141,87.30464110000001
25145,Bankati,184,185.0,23.5987763,87.48887099999999
25146,Balichak,185,185.0,22.3601451,87.5568898
25147,Satpati,186,185.0,22.5003037,86.8364663
25148,Raghunathchak,187,185.0,23.5834602,87.1185941
25149,Dhansole(188),188,185.0,22.2141619,86.8571659
25150,Dakshinshole,189,185.0,22.4543065,87.04118989999999
25151,Radhaballavpur,190,185.0,22.3161936,87.9112608
25152,Ramnagar,191,185.0,21.6786436,87.5631613
25153,Bhangabandh(192),192,185.0,22.555793,87.6031026
25154,Balishole,193,185.0,-1.0,-1.0
25155,Nutandihi,194,185.0,22.45334,86.9886834
25156,Paruabandha,195,185.0,22.6321044,88.4068595
25157,Nunasole,196,185.0,-1.0,-1.0
25158,Sijgote Dharmasole,197,185.0,-1.0,-1.0
25159,Kadamdihi,198,185.0,-1.0,-1.0
25160,Bhutashol,199,185.0,22.5048242,87.20334419999999
25161,Tilaboni,200,185.0,23.6519948,87.29291409999999
25162,Payrachali,201,185.0,22.1478005,87.81198499999999
25163,Chhatokalsibhanga,202,185.0,-1.0,-1.0
25164,Barakalsibhanga,203,185.0,22.5133242,87.1784334
25165,Parur Ayama,204,185.0,-1.0,-1.0
25166,Parurashol,205,185.0,-1.0,-1.0
25167,Sapkata,206,185.0,22.5014145,87.1784334
25168,Golokchak,207,185.0,22.5140656,88.3473546
25169,Metal,208,185.0,22.580835,88.350608
25170,Lakshmichak,209,185.0,22.4749632,87.1983631
25171,Bhurkundishole,210,185.0,22.5236256,88.8814857
25172,Dhapara,211,185.0,23.6362343,88.2765304
25173,Daha,212,185.0,23.0565484,86.5728785
25174,Kharikachati  (213),213,185.0,-1.0,-1.0
25175,Garmal,214,185.0,22.4860048,87.23446419999999
25176,Karamarashole,215,185.0,-1.0,-1.0
25177,Radhamohanpur,216,185.0,22.3609517,87.6112325
25178,Mirga,217,185.0,23.3310785,86.9811778
25179,Jara,218,185.0,22.7655155,87.581599
25180,Panchapara,219,185.0,22.5644121,88.2692335
25181,Kujamigoaldihi,220,185.0,-1.0,-1.0
25182,Barhpatharkumkumi,221,185.0,-1.0,-1.0
25183,Jorakushmi  (222),222,185.0,-1.0,-1.0
25184,Shusnibari,223,185.0,26.5242913,89.10745539999999
25185,Chhata Patharkumkumi,224,185.0,-1.0,-1.0
25186,Tarashuli,225,185.0,22.5147356,87.26058909999999
25187,Mugardihi,226,185.0,22.5145246,87.2481505
25188,Khasjangal(227),227,185.0,22.4551831,87.32400229999999
25189,Khirsuli,228,185.0,22.4929902,87.25126039999999
25190,Tasararah,229,185.0,-1.0,-1.0
25191,Talimurri,230,185.0,-1.0,-1.0
25192,Gaighata  (231),231,185.0,22.9050067,88.7327179
25193,Kharikashuli  (232),232,185.0,22.7095589,87.2900378
25194,Dhadika,233,185.0,22.8975101,87.3624615
25195,Godamouli,234,185.0,22.6502767,87.1784334
25196,Soura,235,185.0,22.4807893,88.3221623
25197,Sonakora,236,185.0,32.6089735,-115.357822
25198,Kukrakhupi,237,185.0,22.1922391,87.03869089999999
25199,Chandra,238,185.0,22.4621842,87.1485232
25200,Chingrisole,239,185.0,-1.0,-1.0
25201,Bagmari,240,185.0,22.5865768,88.384585
25202,Narasinghapur,241,185.0,24.2587045,88.1205967
25203,Bhagabatichak,242,185.0,22.4614319,87.27799759999999
25204,Tangashole,243,185.0,-1.0,-1.0
25205,Bamunbandh,244,185.0,22.027288,87.1410427
25206,Gaighata Jugdiha,245,185.0,22.5261428,87.27488939999999
25207,Baradiha,246,185.0,22.357291,87.3736292
25208,Kashijora,247,185.0,22.5401076,87.26432
25209,Jalhari,248,185.0,23.250913,86.9886834
25210,Moupal,249,185.0,22.5351974,87.23819720000002
25211,Changshole,250,185.0,-1.0,-1.0
25212,Murakata,251,185.0,23.1678738,87.1634807
25213,Shirsa,252,185.0,22.7309594,87.1958724
25214,Chaipur,253,185.0,22.1022227,87.8574308
25215,Bhatmorh,254,185.0,22.8562412,88.406454
25216,Bandarkanda,255,185.0,22.5566453,87.2301086
25217,Chhatobhursha,256,185.0,-1.0,-1.0
25218,Barabhursa,257,185.0,22.5501271,87.2406857
25219,Deulkunda,258,185.0,22.5472769,87.2481505
25220,Baikunthapur,259,185.0,22.378963,88.4155462
25221,Mahisara,260,185.0,22.5584104,87.2462844
25222,Sadanandapur,261,185.0,24.0539802,87.5136167
25223,Janakpur,262,185.0,22.5628341,87.2437962
25224,Ausher Kuli,263,185.0,-1.0,-1.0
25225,Jashpur,264,185.0,22.8014541,86.6081894
25226,Deuli,265,185.0,22.204139,87.7923186
25227,Pairag,266,185.0,22.5743812,87.222641
25228,Gourangachak,267,185.0,22.6767373,88.0014471
25229,Islampur,268,185.0,26.2546438,88.19741479999999
25230,Arjunshol,269,185.0,23.4845436,86.7372369
25231,Dhaboni,270,185.0,23.589362,87.3686661
25232,Baramesia,271,185.0,22.8011513,87.2277656
25233,Ashnaboni,272,185.0,-1.0,-1.0
25234,Baghasole,273,185.0,23.8631111,87.17158069999999
25235,Benageria,274,185.0,23.1409397,86.9936865
25236,Jorakusmi,275,185.0,22.5060547,87.2755111
25237,Tuni,276,185.0,22.5693451,88.3499509
25238,Balarampur,277,185.0,23.0943913,86.22029619999999
25239,Pidrakuli,278,185.0,22.5802879,87.15047100000001
25240,Bagpichhala,279,185.0,-1.0,-1.0
25241,Chihardalan,280,185.0,22.6035916,87.23321980000001
25242,Jamboni  (281),281,185.0,22.4385498,86.94842589999999
25243,Brindabanpur  (282),282,185.0,23.259208,87.3351369
25244,Karmasol,283,185.0,-1.0,-1.0
25245,Parasiya,284,185.0,23.6511104,87.1597417
25246,Kusmisole,285,185.0,-1.0,-1.0
25247,Hadangsole,286,185.0,-1.0,-1.0
25248,Arabari(287),287,185.0,22.5672821,87.2866995
25249,Baramatha,288,185.0,22.5798158,87.2357086
25250,Banishol,289,185.0,22.0224112,87.0336925
25251,Tilakhuli(290),290,185.0,26.7381,88.4255
25252,Digambarpur,291,185.0,21.9384172,88.387051
25253,Ramchandra  pur,292,185.0,-1.0,-1.0
25254,Ghagra,293,185.0,22.3038124,87.2904284
25255,Shalgeriya,294,185.0,-1.0,-1.0
25256,Masru,295,185.0,22.5921492,87.26058909999999
25257,Nitaipur,296,185.0,22.5862367,87.2630764
25258,Bansakopna,297,185.0,23.488248,87.3686661
25259,Khairishol,298,185.0,23.7882662,87.2655636
25260,Radhagobindapur,299,185.0,22.565981,87.2537483
25261,Khasjangal(300),300,185.0,22.4551831,87.32400229999999
25262,Jaynagar,301,185.0,22.1771902,88.4258483
25263,Barju,302,185.0,22.5565468,87.26805069999999
25264,Arabar(303),303,185.0,22.4806589,87.91230259999999
25265,Khasjangal(304),304,185.0,22.4551831,87.32400229999999
25266,Aruniasole,305,185.0,22.6937095,88.38583799999999
25267,Patharchati,306,185.0,22.5449718,87.2879425
25268,Kachusole,307,185.0,-1.0,-1.0
25269,Hiradihi,308,185.0,22.3154342,87.2730244
25270,Gobrashol,309,185.0,22.4908445,87.39161580000001
25271,Kajabard,310,185.0,-1.0,-1.0
25272,Chandankat,311,185.0,22.5526858,87.3040984
25273,Kharikashuli,312,185.0,-1.0,-1.0
25274,Dubrajapur   (313),313,185.0,22.6152266,87.7537009
25275,Chatibandha,314,185.0,-1.0,-1.0
25276,Ramroydihi,315,185.0,-1.0,-1.0
25277,Natundihi,316,185.0,22.9023073,86.8447727
25278,Beldangri,317,185.0,23.9358993,88.25146509999999
25279,Bhalukmari,318,185.0,-1.0,-1.0
25280,Sitanathpur,319,185.0,22.586447,87.2755111
25281,Baragada,320,185.0,22.5925275,87.2829703
25282,Paliboni,321,185.0,-1.0,-1.0
25283,Durgadaspur   (322),322,185.0,-1.0,-1.0
25284,Banskona,323,185.0,23.488248,87.3686661
25285,Gokulpur,324,185.0,22.6802668,88.2400333
25286,Kalabera,325,185.0,22.0595364,87.78371179999999
25287,Katalkuli,326,185.0,22.6117336,87.27426779999999
25288,Bhurichati,327,185.0,-1.0,-1.0
25289,Nengtishol,328,185.0,-1.0,-1.0
25290,Bagbasa,329,185.0,22.5927363,87.29539969999999
25291,Saraswatipur,330,185.0,21.7932951,87.8144427
25292,Jhalbhanga,331,185.0,26.3427291,89.21533629999999
25293,Banamalipur,332,185.0,-1.0,-1.0
25294,Pathardanga,333,185.0,23.3220091,88.2485521
25295,Bhangabandh,334,185.0,22.5211355,87.1996084
25296,Laluya,335,185.0,22.0040686,87.650714
25297,Chhato Dhanghori,336,185.0,22.8201585,87.2710661
25298,Anandanagar,337,185.0,22.8577809,88.26801720000002
25299,Kalyanpur,338,185.0,22.5006615,87.91509309999999
25300,Kharigeria,339,185.0,22.6424787,87.61740379999999
25301,Mirga,340,185.0,23.3310785,86.9811778
25302,Jagannathapur,341,185.0,22.7462731,88.4467528
25303,Hemsagar,342,185.0,22.6521576,87.2879425
25304,Maharajapur,343,185.0,22.6357379,87.66551079999999
25305,Chandabila,344,185.0,22.8194438,87.23446419999999
25306,Ramchandrapur,345,185.0,22.8911172,88.4706642
25307,Dhabani,346,185.0,23.589362,87.3686661
25308,Jorakushmi(347),347,185.0,-1.0,-1.0
25309,Baradhanghari,348,185.0,-1.0,-1.0
25310,Beldangri(349),349,185.0,25.2268125,88.191323
25311,Sarasbedia,350,185.0,22.657522,87.25312629999999
25312,Chunpara,351,185.0,22.305881,87.1497698
25313,Kuldiha,352,185.0,23.5453768,87.4058761
25314,Brijli,353,185.0,-1.0,-1.0
25315,Kaduygita,354,185.0,-1.0,-1.0
25316,Jarka(355),355,185.0,22.5925277,87.15830539999999
25317,Panpara,356,185.0,23.1122143,88.7229325
25318,Bishnupur,357,185.0,23.0678795,87.3165222
25319,Kshudimari,358,185.0,26.6664126,88.9772855
25320,Tildangri,359,185.0,24.7898225,87.8758417
25321,Pachakuya,360,185.0,-1.0,-1.0
25322,Baruia,361,185.0,22.4638497,87.3339099
25323,Jatra,362,185.0,22.6769795,87.2593454
25324,Beldangri,363,185.0,23.9358993,88.25146509999999
25325,Khasla,364,185.0,22.6659104,87.2649418
25326,Bansiroyshol,365,185.0,22.6733532,87.2649418
25327,Ghasasole,366,185.0,-1.0,-1.0
25328,Jam Boni,367,185.0,22.4501766,86.89979180000002
25329,Nimasboni,368,185.0,-1.0,-1.0
25330,Palashboni,369,185.0,23.0932077,87.1067419
25331,Kasidanga,370,185.0,23.5492211,88.3457906
25332,Bhaudi,371,185.0,-1.0,-1.0
25333,Maldiha,372,185.0,23.9841127,87.6050605
25334,Khamarbarh,373,185.0,23.432256,88.55411459999999
25335,Komrabandh,374,185.0,23.5240831,87.0163345
25336,Kaniari,375,185.0,22.6700628,87.2904284
25337,Gopalpur,376,185.0,23.4976267,87.3959564
25338,Palashkunda,377,185.0,22.5667958,88.39456039999999
25339,Amchura,378,185.0,22.6574827,87.29477829999999
25340,Chaltaberya,379,185.0,22.2292128,88.4340884
25341,Aularaha,380,185.0,-1.0,-1.0
25342,Goldahari,381,185.0,22.6731653,87.2978852
25343,Sidadihi,382,185.0,22.6777353,87.3040984
25344,Radhamohanpur,383,185.0,22.3609517,87.6112325
25345,Mahashol,384,185.0,22.6721126,87.3239749
25346,Mandalkupi,385,185.0,22.6647313,87.3277008
25347,Pallagote,386,185.0,-1.0,-1.0
25348,Ausbere,387,185.0,22.6586942,87.3227328
25349,Khemakata,388,185.0,22.6623848,87.3208697
25350,Jagannathpur,389,185.0,22.7462731,88.4467528
25351,Jhatiarah,390,185.0,22.5350094,87.0586792
25352,Bauribandh,391,185.0,-1.0,-1.0
25353,Kenduaguri,392,185.0,22.661423,87.30782579999999
25354,Radhanagari,393,185.0,-1.0,-1.0
25355,Golokchak,394,185.0,22.5140656,88.3473546
25356,Gotkala,395,185.0,-1.0,-1.0
25357,Bulanpur,396,185.0,22.649264,87.29291409999999
25358,Durga  daspur,397,185.0,22.6433929,87.2978852
25359,Barakuli,398,185.0,22.648046,87.30906829999999
25360,Bagara,399,185.0,23.0851537,86.730321
25361,Tilakhula,400,185.0,22.7009504,87.35749729999999
25362,Chaktarini,401,185.0,22.6378117,87.3202487
25363,Dhengasole,402,185.0,22.4819821,86.9680401
25364,Gaighata,403,185.0,22.9308609,88.7307683
25365,Tarinichak,404,185.0,22.6359705,87.2991279
25366,Pidraloha,405,185.0,-1.0,-1.0
25367,Pachakuya,406,185.0,-1.0,-1.0
25368,Shusnibera,407,185.0,22.6076232,87.29539969999999
25369,Dhansole(408),408,185.0,22.2141619,86.8571659
25370,Dubrajpur  (409),409,185.0,22.6152266,87.7537009
25371,Biridanga,410,185.0,22.4835282,87.0111932
25372,Jharbhanga,411,185.0,22.6197406,87.30782579999999
25373,Tengrasole,412,185.0,-1.0,-1.0
25374,Birbhanpur,413,185.0,22.6289209,87.3227328
25375,Mohanchak,414,185.0,22.1566814,87.86418239999999
25376,Shalbani -415,415,185.0,22.6548837,87.2729055
25377,Uparkamala,416,185.0,22.6290856,87.3326682
25378,Kamala,417,185.0,26.6941504,88.20472380000001
25379,Kamalakismat,418,185.0,22.6262313,87.3401183
25380,Shyamchak,419,185.0,22.3584217,87.21766199999999
25381,Turapara,420,185.0,22.6193571,87.3416482
25382,Bansbandhi,421,185.0,22.6071025,87.3537738
25383,Bankibandha,422,185.0,22.6009844,87.3438429
25384,Tildanga,423,185.0,24.7898225,87.8758417
25385,Jumboni,424,185.0,22.4501766,86.89979180000002
25386,Barbokra,425,185.0,36.17177650000001,-115.2707617
25387,Shaldahara,426,185.0,22.6081204,87.32521690000002
25388,Changsole,427,185.0,-1.0,-1.0
25389,Bhadkuri,428,185.0,22.5938022,87.31465879999999
25390,Madhupur,429,185.0,26.363461,89.3807678
25391,Krishnapur,430,185.0,-1.0,-1.0
25392,Dakshinshol,431,185.0,22.7321659,87.44677279999999
25393,Mohislot,432,185.0,22.7118948,88.4173644
25394,Kadaloya,433,185.0,-1.0,-1.0
25395,Birdabanpur,434,185.0,22.108309,87.8672509
25396,Nandaria,435,185.0,22.4328019,87.1709576
25397,Saiyadpur,436,185.0,21.6803437,87.5649218
25398,Banachapara,437,185.0,-1.0,-1.0
25399,Jayanarayanpur   (438),438,185.0,23.2958758,88.6291191
25400,Sundarpur -439,439,185.0,-1.0,-1.0
25401,Sarasbedia,440,185.0,22.657522,87.25312629999999
25402,Arabari,441,185.0,22.6519672,87.36618440000001
25403,Gamariya,442,185.0,22.8159296,86.09723579999999
25404,Srikrishnapur-(443),443,185.0,22.4616344,88.00940039999999
25405,Pachasamar,444,185.0,22.5832777,87.3084471
25406,Jambedia,445,185.0,23.3734537,87.0593037
25407,Nutanbankati,446,185.0,22.5746915,87.306894
25408,Asnasuli,447,185.0,22.9222537,87.3289427
25409,Chakbhangi,448,185.0,25.0421381,88.1004354
25410,Narayanchak,449,185.0,21.958579,87.3984365
25411,Bhalukchati,450,185.0,23.3701939,88.44402250000002
25412,Birbalchati,451,185.0,21.8153352,88.2971985
25413,Dharmadanga,452,185.0,25.5398027,88.3664257
25414,Shalika,453,185.0,23.8279866,87.8531339
25415,Hatimari,454,185.0,25.1819171,88.1547547
25416,Gaighata,455,185.0,22.9308609,88.7307683
25417,Kulpheni,456,185.0,22.5783045,87.3227328
25418,Sundra,457,185.0,22.1738061,87.9812516
25419,Rajbandha,458,185.0,23.4767657,87.3934761
25420,Ahamadpur,459,185.0,23.830864,87.6913936
25421,Kalichak,460,185.0,24.8601714,88.01918610000001
25422,Metal,461,185.0,22.580835,88.350608
25423,Maheswaripur,462,185.0,22.5696183,87.3376351
25424,Dainmari,463,185.0,22.5362302,86.9636601
25425,Shyamchandpur,464,185.0,22.5612558,87.32707979999999
25426,Jageswarpur,465,185.0,21.6831782,87.4071159
25427,Sitarampur,466,185.0,23.7233343,86.89477889999999
25428,Kumirmara,467,185.0,22.5512023,87.3494293
25429,Khasjangal,468,185.0,22.3264568,86.9699172
25430,Godapiashal,469,185.0,22.5292775,87.3289427
25431,Patharajuri,470,185.0,-1.0,-1.0
25432,Durgadaspur,471,185.0,23.5204443,87.3119227
25433,Rana,472,185.0,22.559906,87.7787929
25434,Benucha,473,185.0,22.5243783,87.30285579999999
25435,Jamdargarh,474,185.0,23.3466132,88.3215014
25436,Kulapachhuriya,475,185.0,-1.0,-1.0
25437,Guraipatna,476,185.0,22.527075,87.3308055
25438,Saraswatipur,477,185.0,21.7932951,87.8144427
25439,Mangalmari,478,185.0,22.2532743,87.16410379999999
25440,Mohisamuri,479,185.0,22.1835939,88.3005091
25441,Dalkati,480,185.0,22.5243832,87.3481879
25442,Shibakata,481,185.0,22.5320101,87.359359
25443,Dalkata,482,185.0,22.536436,87.3568767
25444,KakSole,483,185.0,-1.0,-1.0
25445,Shoula,484,185.0,22.0808101,87.60135679999999
25446,Nekraghai,485,185.0,22.5223427,87.3599795
25447,Chholabari,486,185.0,22.5198759,87.34570509999999
25448,lalgarh,487,185.0,22.5839713,87.04993530000002
25449,Hemanta Sinher Kala,488,185.0,-1.0,-1.0
25450,Dudakhali,489,185.0,22.3958334,88.17730879999999
25451,Birkarh,490,185.0,-1.0,-1.0
25452,DUBAGERA,491,185.0,-1.0,-1.0
25453,Khandideuli,492,185.0,22.5194667,87.3208697
25454,Kamarmuri,493,185.0,22.5239331,87.3208697
25455,Chaita,494,185.0,22.6374655,88.76262709999999
25456,Kulbera,495,185.0,22.544383,88.50091859999999
25457,Beliya,496,185.0,23.6742592,86.81952369999999
25458,Kuchakala,497,185.0,22.5182986,87.29539969999999
25459,Betkundri,498,185.0,-1.0,-1.0
25460,Krishnanagar,499,185.0,23.4008744,88.5013962
25461,Chaksrinath,500,185.0,22.4931338,87.3040984
25462,Pirchak,501,185.0,22.7236818,87.57171699999999
25463,Dhanyasole,502,185.0,21.6284896,87.5262256
25464,Karadan,503,185.0,-1.0,-1.0
25465,Jamda,504,185.0,22.9007378,86.8809909
25466,Kuturiya,505,185.0,-1.0,-1.0
25467,Ghurnidaha,506,185.0,22.4674185,87.32459589999999
25468,Kodalhara,507,185.0,22.4689688,87.32832169999999
25469,Bhandarmari,508,185.0,-1.0,-1.0
25470,Baralghata,509,185.0,22.4720284,87.3332891
25471,Meteldebi Ghata,510,185.0,22.4765767,87.3382559
25472,Bakajata,511,185.0,-1.0,-1.0
25473,Balijuri,512,185.0,23.6333325,87.3314264
25474,Khasjangal(513),513,185.0,22.3449085,87.12545449999999
25475,Baharkolabera,514,185.0,-1.0,-1.0
25476,Kaleberia Bhadutala,515,185.0,-1.0,-1.0
25477,Nishchintapur,516,185.0,22.460581,88.1730427
25478,Dhabasole,517,185.0,-1.0,-1.0
25479,Bhabrigera,518,185.0,-1.0,-1.0
25480,Jamboni,519,185.0,22.4501766,86.89979180000002
25481,Chaiboni,520,185.0,-1.0,-1.0
25482,Kismat Dhabashol,521,185.0,-1.0,-1.0
25483,Gobru,522,185.0,22.5159395,87.3326682
25484,Kismat Bankati,523,185.0,22.5130844,87.3401183
25485,Karnagarh,524,185.0,22.5072215,87.35501599999999
25486,Chanduya,525,185.0,22.4621842,87.1485232
25487,Talikhana,526,185.0,-1.0,-1.0
25488,Dangarpara,527,185.0,22.3703097,87.3047196
25489,Telijat,528,185.0,22.5636385,87.20396679999999
25491,Mahishdubi,2,186.0,22.6667321,87.3587384
25493,Sakhishol,3,186.0,22.6964885,87.0986308
25495,Urami,4,186.0,22.6544958,87.3388767
25497,Ghuchishol,6,186.0,22.6501731,87.3475672
25498,Bhatudiya,7,186.0,-1.0,-1.0
25500,Panisara,8,186.0,22.6352862,87.3475672
25502,Kenjapara,9,186.0,23.2696984,86.92171689999999
25504,Jorakeudi,10,186.0,-1.0,-1.0
25506,Guntiamara,11,186.0,-1.0,-1.0
25509,Bhandariya,12,186.0,-1.0,-1.0
25511,Gopalbandh,13,186.0,22.6433985,87.38851509999999
25513,Ekdashol,14,186.0,-1.0,-1.0
25515,Majhigarh,15,186.0,-1.0,-1.0
25517,Sankrui,16,186.0,22.6495139,87.3984365
25519,Sapadiha,17,186.0,22.6600349,87.4046363
25521,Satsole,18,186.0,22.6724881,87.3835531
25523,Maharajapur,19,186.0,22.6357379,87.66551079999999
25524,Gopinathpur,20,186.0,22.8076683,88.0534236
25526,Bantilara,21,186.0,22.6791502,87.4362422
25528,Jayakrishnachak,22,186.0,-1.0,-1.0
25531,Hatbandi,24,186.0,22.6717264,87.4374812
25533,Beldanra,25,186.0,23.9358993,88.25146509999999
25535,Toria,26,186.0,22.6619015,87.42818779999999
25537,Kalgerya,27,186.0,22.657613,87.4393397
25539,Aushberya,28,186.0,22.6398265,87.4442952
25541,Akmura,29,186.0,22.6403811,87.4270215
25543,Maipur,30,186.0,23.7762375,87.5698638
25545,Gararbaga,31,186.0,22.64846,87.4220478
25546,Paltagarh,32,186.0,22.6423694,87.4170333
25548,Kaktabahadur Nagar,33,186.0,-1.0,-1.0
25550,Shyamchandpur,34,186.0,22.5612558,87.32707979999999
25553,Sholdiha,35,186.0,22.63034,87.4095955
25554,Nayagram,36,186.0,22.0323362,87.1746957
25557,Tushakhali,37,186.0,22.3359486,88.88867839999999
25559,Dharashol,38,186.0,23.0109832,87.3847941
25561,Jampal,39,186.0,22.631392,87.42880749999999
25563,Dogerya,40,186.0,22.6276008,87.42447
25565,Madhapur,41,186.0,24.9925697,88.06564449999999
25567,Saiyadbali,42,186.0,22.6270243,87.4350032
25569,Taltala,43,186.0,-1.0,-1.0
25571,Kheduyabali,44,186.0,-1.0,-1.0
25572,Bagdani,46,186.0,22.6135858,87.432525
25574,Tilahari,47,186.0,22.6150154,87.42880749999999
25577,Sahaspur,48,186.0,23.1121585,87.670442
25579,Agar,49,186.0,22.6065992,87.4145542
25581,Sekuyashol,50,186.0,-1.0,-1.0
25583,Bhalukashol,51,186.0,23.3701939,88.44402250000002
25585,Aymamohanpur,52,186.0,22.6136132,87.408
25587,Fajilchak,53,186.0,22.6042367,87.40649599999999
25589,Nimkola,54,186.0,-1.0,-1.0
25591,Pebuya,55,186.0,-1.0,-1.0
25593,Dalang,56,186.0,22.6048113,87.3959564
