{
    "Andharia": {
        "address_components": [
            {
                "types": [
                    "locality",
                    "political"
                ],
                "long_name": "Andharia",
                "short_name": "Andharia"
            },
            {
                "types": [
                    "administrative_area_level_2",
                    "political"
                ],
                "long_name": "West Medinipur",
                "short_name": "West Medinipur"
            },
            {
                "types": [
                    "administrative_area_level_1",
                    "political"
                ],
                "long_name": "West Bengal",
                "short_name": "WB"
            },
            {
                "types": [
                    "country",
                    "political"
                ],
                "long_name": "India",
                "short_name": "IN"
            },
            {
                "types": [
                    "postal_code"
                ],
                "long_name": "721504",
                "short_name": "721504"
            }
        ],
        "place_id": "ChIJDdgjFo9-HToR2P7w8e6O2Io",
        "types": [
            "locality",
            "political"
        ],
        "geometry": {
            "location_type": "APPROXIMATE",
            "location": {
                "lat": 22.536371,
                "lng": 86.97116849999999
            },
            "bounds": {
                "northeast": {
                    "lat": 22.53849,
                    "lng": 86.97389
                },
                "southwest": {
                    "lat": 22.5341899,
                    "lng": 86.96764
                }
            },
            "viewport": {
                "northeast": {
                    "lat": 22.53849,
                    "lng": 86.97389
                },
                "southwest": {
                    "lat": 22.5341899,
                    "lng": 86.96764
                }
            }
        },
        "formatted_address": "Andharia, West Bengal 721504, India"
    },
    "Sonarpur": {
        "address_components": [
            {
                "types": [
                    "locality",
                    "political"
                ],
                "long_name": "Rajpur Sonarpur",
                "short_name": "Rajpur Sonarpur"
            },
            {
                "types": [
                    "administrative_area_level_2",
                    "political"
                ],
                "long_name": "Kolkata",
                "short_name": "Kolkata"
            },
            {
                "types": [
                    "administrative_area_level_1",
                    "political"
                ],
                "long_name": "West Bengal",
                "short_name": "WB"
            },
            {
                "types": [
                    "country",
                    "political"
                ],
                "long_name": "India",
                "short_name": "IN"
            }
        ],
        "place_id": "ChIJWTCvVPdxAjoRBW6Ccro9jFQ",
        "types": [
            "locality",
            "political"
        ],
        "geometry": {
            "location_type": "APPROXIMATE",
            "location": {
                "lat": 22.4490894,
                "lng": 88.39147310000001
            },
            "bounds": {
                "northeast": {
                    "lat": 22.47789,
                    "lng": 88.45396
                },
                "southwest": {
                    "lat": 22.38911,
                    "lng": 88.33961
                }
            },
            "viewport": {
                "northeast": {
                    "lat": 22.47789,
                    "lng": 88.45396
                },
                "southwest": {
                    "lat": 22.38911,
                    "lng": 88.33961
                }
            }
        },
        "formatted_address": "Rajpur Sonarpur, West Bengal, India"
    },
    "Gorkhara": {
        "address_components": [
            {
                "types": [
                    "route"
                ],
                "long_name": "Sonarpur Bazar Road",
                "short_name": "Sonarpur Bazar Road"
            },
            {
                "types": [
                    "neighborhood",
                    "political"
                ],
                "long_name": "Sonarpur Bazar",
                "short_name": "Sonarpur Bazar"
            },
            {
                "types": [
                    "political",
                    "sublocality",
                    "sublocality_level_2"
                ],
                "long_name": "Sonarpur",
                "short_name": "Sonarpur"
            },
            {
                "types": [
                    "political",
                    "sublocality",
                    "sublocality_level_1"
                ],
                "long_name": "Mondal Para",
                "short_name": "Mondal Para"
            },
            {
                "types": [
                    "locality",
                    "political"
                ],
                "long_name": "Kolkata",
                "short_name": "Kolkata"
            },
            {
                "types": [
                    "administrative_area_level_2",
                    "political"
                ],
                "long_name": "Kolkata",
                "short_name": "Kolkata"
            },
            {
                "types": [
                    "administrative_area_level_1",
                    "political"
                ],
                "long_name": "West Bengal",
                "short_name": "WB"
            },
            {
                "types": [
                    "country",
                    "political"
                ],
                "long_name": "India",
                "short_name": "IN"
            },
            {
                "types": [
                    "postal_code"
                ],
                "long_name": "700150",
                "short_name": "700150"
            }
        ],
        "place_id": "ChIJ0ZFBYGdyAjoR6sUCwT_UzU0",
        "types": [
            "establishment",
            "point_of_interest",
            "school"
        ],
        "geometry": {
            "location_type": "GEOMETRIC_CENTER",
            "location": {
                "lat": 22.4453433,
                "lng": 88.4342549
            },
            "viewport": {
                "northeast": {
                    "lat": 22.4466922802915,
                    "lng": 88.43560388029151
                },
                "southwest": {
                    "lat": 22.44399431970849,
                    "lng": 88.4329059197085
                }
            }
        },
        "formatted_address": "Sonarpur Bazar Road, Sonarpur Bazar, Sonarpur, Mondal Para, Kolkata, West Bengal 700150, India"
    },
    "Kishorpur": {
        "address_components": [
            {
                "types": [
                    "locality",
                    "political"
                ],
                "long_name": "Kishorpur",
                "short_name": "Kishorpur"
            },
            {
                "types": [
                    "administrative_area_level_2",
                    "political"
                ],
                "long_name": "Nadia",
                "short_name": "Nadia"
            },
            {
                "types": [
                    "administrative_area_level_1",
                    "political"
                ],
                "long_name": "West Bengal",
                "short_name": "WB"
            },
            {
                "types": [
                    "country",
                    "political"
                ],
                "long_name": "India",
                "short_name": "IN"
            },
            {
                "types": [
                    "postal_code"
                ],
                "long_name": "741165",
                "short_name": "741165"
            }
        ],
        "place_id": "ChIJw3V69JpD-TkRrtYNiklXjJg",
        "types": [
            "locality",
            "political"
        ],
        "geometry": {
            "location_type": "APPROXIMATE",
            "location": {
                "lat": 23.8902923,
                "lng": 88.54444749999999
            },
            "bounds": {
                "northeast": {
                    "lat": 23.9049499,
                    "lng": 88.56662
                },
                "southwest": {
                    "lat": 23.8731299,
                    "lng": 88.52282989999999
                }
            },
            "viewport": {
                "northeast": {
                    "lat": 23.9049499,
                    "lng": 88.56662
                },
                "southwest": {
                    "lat": 23.8731299,
                    "lng": 88.52282989999999
                }
            }
        },
        "formatted_address": "Kishorpur, West Bengal 741165, India"
    },
    "Uttar Kazirhat": {
        "address_components": [
            {
                "types": [
                    "locality",
                    "political"
                ],
                "long_name": "Uttar Kazirhat",
                "short_name": "Uttar Kazirhat"
            },
            {
                "types": [
                    "administrative_area_level_2",
                    "political"
                ],
                "long_name": "South 24 Parganas",
                "short_name": "South 24 Parganas"
            },
            {
                "types": [
                    "administrative_area_level_1",
                    "political"
                ],
                "long_name": "West Bengal",
                "short_name": "WB"
            },
            {
                "types": [
                    "country",
                    "political"
                ],
                "long_name": "India",
                "short_name": "IN"
            }
        ],
        "place_id": "ChIJ0Xx0QM1kAjoRftdcKtHB-5s",
        "types": [
            "locality",
            "political"
        ],
        "geometry": {
            "location_type": "APPROXIMATE",
            "location": {
                "lat": 22.4169867,
                "lng": 88.27288209999999
            },
            "bounds": {
                "northeast": {
                    "lat": 22.4265299,
                    "lng": 88.2804
                },
                "southwest": {
                    "lat": 22.41066,
                    "lng": 88.26782999999999
                }
            },
            "viewport": {
                "northeast": {
                    "lat": 22.4265299,
                    "lng": 88.2804
                },
                "southwest": {
                    "lat": 22.41066,
                    "lng": 88.26782999999999
                }
            }
        },
        "formatted_address": "Uttar Kazirhat, West Bengal, India"
    },
    "Kalua": {
        "address_components": [
            {
                "types": [
                    "locality",
                    "political"
                ],
                "long_name": "Kalua",
                "short_name": "Kalua"
            },
            {
                "types": [
                    "administrative_area_level_2",
                    "political"
                ],
                "long_name": "Uttar Dinajpur",
                "short_name": "Uttar Dinajpur"
            },
            {
                "types": [
                    "administrative_area_level_1",
                    "political"
                ],
                "long_name": "West Bengal",
                "short_name": "WB"
            },
            {
                "types": [
                    "country",
                    "political"
                ],
                "long_name": "India",
                "short_name": "IN"
            },
            {
                "types": [
                    "postal_code"
                ],
                "long_name": "733156",
                "short_name": "733156"
            }
        ],
        "place_id": "ChIJ66N6bsbT5DkRUckaDvI42GI",
        "types": [
            "locality",
            "political"
        ],
        "geometry": {
            "location_type": "APPROXIMATE",
            "location": {
                "lat": 25.7325424,
                "lng": 88.27288209999999
            },
            "bounds": {
                "northeast": {
                    "lat": 25.7410901,
                    "lng": 88.2852899
                },
                "southwest": {
                    "lat": 25.7163399,
                    "lng": 88.2622299
                }
            },
            "viewport": {
                "northeast": {
                    "lat": 25.7410901,
                    "lng": 88.2852899
                },
                "southwest": {
                    "lat": 25.7163399,
                    "lng": 88.2622299
                }
            }
        },
        "formatted_address": "Kalua, West Bengal 733156, India"
    },
    "Gilarchhat": {
        "partial_match": true,
        "types": [
            "route"
        ],
        "address_components": [
            {
                "types": [
                    "route"
                ],
                "long_name": "Khanra Para - Gilarchhat Road",
                "short_name": "Khanra Para - Gilarchhat Rd"
            },
            {
                "types": [
                    "locality",
                    "political"
                ],
                "long_name": "Gilarchat",
                "short_name": "Gilarchat"
            },
            {
                "types": [
                    "administrative_area_level_2",
                    "political"
                ],
                "long_name": "South 24 Parganas",
                "short_name": "South 24 Parganas"
            },
            {
                "types": [
                    "administrative_area_level_1",
                    "political"
                ],
                "long_name": "West Bengal",
                "short_name": "WB"
            },
            {
                "types": [
                    "country",
                    "political"
                ],
                "long_name": "India",
                "short_name": "IN"
            }
        ],
        "formatted_address": "Khanra Para - Gilarchhat Rd, Gilarchat, West Bengal, India",
        "geometry": {
            "location_type": "GEOMETRIC_CENTER",
            "location": {
                "lat": 22.0613356,
                "lng": 88.4545272
            },
            "bounds": {
                "northeast": {
                    "lat": 22.0683368,
                    "lng": 88.474896
                },
                "southwest": {
                    "lat": 22.0606048,
                    "lng": 88.4316369
                }
            },
            "viewport": {
                "northeast": {
                    "lat": 22.0683368,
                    "lng": 88.474896
                },
                "southwest": {
                    "lat": 22.0606048,
                    "lng": 88.4316369
                }
            }
        },
        "place_id": "ChIJ9ytfnLhHAjoR1nyWoFBA18U"
    },
    "Jalghata": {
        "partial_match": true,
        "types": [
            "locality",
            "political"
        ],
        "address_components": [
            {
                "types": [
                    "locality",
                    "political"
                ],
                "long_name": "Jal Ghata",
                "short_name": "Jal Ghata"
            },
            {
                "types": [
                    "neighborhood",
                    "political"
                ],
                "long_name": "Canning II",
                "short_name": "Canning II"
            },
            {
                "types": [
                    "administrative_area_level_2",
                    "political"
                ],
                "long_name": "South 24 Parganas",
                "short_name": "South 24 Parganas"
            },
            {
                "types": [
                    "administrative_area_level_1",
                    "political"
                ],
                "long_name": "West Bengal",
                "short_name": "WB"
            },
            {
                "types": [
                    "country",
                    "political"
                ],
                "long_name": "India",
                "short_name": "IN"
            }
        ],
        "formatted_address": "Canning II, Jal Ghata, West Bengal, India",
        "geometry": {
            "location_type": "APPROXIMATE",
            "location": {
                "lat": 22.3839771,
                "lng": 88.64041639999999
            },
            "bounds": {
                "northeast": {
                    "lat": 22.3874299,
                    "lng": 88.6452099
                },
                "southwest": {
                    "lat": 22.37778,
                    "lng": 88.63116989999999
                }
            },
            "viewport": {
                "northeast": {
                    "lat": 22.3874299,
                    "lng": 88.6452099
                },
                "southwest": {
                    "lat": 22.37778,
                    "lng": 88.63116989999999
                }
            }
        },
        "place_id": "ChIJvRHw8IMaAjoRkOKztsYrMGg"
    },
    "Chhayani": {
        "address_components": [
            {
                "types": [
                    "locality",
                    "political"
                ],
                "long_name": "Chhayani",
                "short_name": "Chhayani"
            },
            {
                "types": [
                    "administrative_area_level_2",
                    "political"
                ],
                "long_name": "South 24 Parganas",
                "short_name": "South 24 Parganas"
            },
            {
                "types": [
                    "administrative_area_level_1",
                    "political"
                ],
                "long_name": "West Bengal",
                "short_name": "WB"
            },
            {
                "types": [
                    "country",
                    "political"
                ],
                "long_name": "India",
                "short_name": "IN"
            },
            {
                "types": [
                    "postal_code"
                ],
                "long_name": "700135",
                "short_name": "700135"
            }
        ],
        "place_id": "ChIJNdGLCsULAjoRYc9VedZaSi4",
        "types": [
            "locality",
            "political"
        ],
        "geometry": {
            "location_type": "APPROXIMATE",
            "location": {
                "lat": 22.550739,
                "lng": 88.54444749999999
            },
            "bounds": {
                "northeast": {
                    "lat": 22.5589734,
                    "lng": 88.55272289999999
                },
                "southwest": {
                    "lat": 22.5464493,
                    "lng": 88.5355998
                }
            },
            "viewport": {
                "northeast": {
                    "lat": 22.5589734,
                    "lng": 88.55272289999999
                },
                "southwest": {
                    "lat": 22.5464493,
                    "lng": 88.5355998
                }
            }
        },
        "formatted_address": "Chhayani, West Bengal 700135, India"
    },
    "Jungri": {
        "address_components": [
            {
                "types": [
                    "locality",
                    "political"
                ],
                "long_name": "Jungri",
                "short_name": "Jungri"
            },
            {
                "types": [
                    "administrative_area_level_2",
                    "political"
                ],
                "long_name": "South 24 Parganas",
                "short_name": "South 24 Parganas"
            },
            {
                "types": [
                    "administrative_area_level_1",
                    "political"
                ],
                "long_name": "West Bengal",
                "short_name": "WB"
            },
            {
                "types": [
                    "country",
                    "political"
                ],
                "long_name": "India",
                "short_name": "IN"
            },
            {
                "types": [
                    "postal_code"
                ],
                "long_name": "743399",
                "short_name": "743399"
            }
        ],
        "place_id": "ChIJe21j7pVQAjoRhYjoOz3t4u0",
        "types": [
            "locality",
            "political"
        ],
        "geometry": {
            "location_type": "APPROXIMATE",
            "location": {
                "lat": 22.0191473,
                "lng": 88.26680089999999
            },
            "bounds": {
                "northeast": {
                    "lat": 22.02548,
                    "lng": 88.26935999999999
                },
                "southwest": {
                    "lat": 22.0136599,
                    "lng": 88.2633
                }
            },
            "viewport": {
                "northeast": {
                    "lat": 22.02548,
                    "lng": 88.26935999999999
                },
                "southwest": {
                    "lat": 22.0136599,
                    "lng": 88.2633
                }
            }
        },
        "formatted_address": "Jungri, West Bengal 743399, India"
    },
    "Arunberia": {
        "partial_match": true,
        "types": [
            "political",
            "sublocality",
            "sublocality_level_1"
        ],
        "address_components": [
            {
                "types": [
                    "political",
                    "sublocality",
                    "sublocality_level_1"
                ],
                "long_name": "Uluberia",
                "short_name": "Uluberia"
            },
            {
                "types": [
                    "locality",
                    "political"
                ],
                "long_name": "Howrah",
                "short_name": "Howrah"
            },
            {
                "types": [
                    "administrative_area_level_2",
                    "political"
                ],
                "long_name": "Howrah",
                "short_name": "Howrah"
            },
            {
                "types": [
                    "administrative_area_level_1",
                    "political"
                ],
                "long_name": "West Bengal",
                "short_name": "WB"
            },
            {
                "types": [
                    "country",
                    "political"
                ],
                "long_name": "India",
                "short_name": "IN"
            }
        ],
        "formatted_address": "Uluberia, Howrah, West Bengal, India",
        "geometry": {
            "location_type": "APPROXIMATE",
            "location": {
                "lat": 22.4744363,
                "lng": 88.1000377
            },
            "bounds": {
                "northeast": {
                    "lat": 22.492914,
                    "lng": 88.1244931
                },
                "southwest": {
                    "lat": 22.4458091,
                    "lng": 88.05148
                }
            },
            "viewport": {
                "northeast": {
                    "lat": 22.492914,
                    "lng": 88.1244931
                },
                "southwest": {
                    "lat": 22.4458091,
                    "lng": 88.05148
                }
            }
        },
        "place_id": "ChIJhb9R04iGAjoR-gsv3u6nOR8"
    },
    "Madankhali": {
        "partial_match": true,
        "types": [
            "locality",
            "political"
        ],
        "address_components": [
            {
                "types": [
                    "locality",
                    "political"
                ],
                "long_name": "Nodakhali",
                "short_name": "Nodakhali"
            },
            {
                "types": [
                    "administrative_area_level_2",
                    "political"
                ],
                "long_name": "South 24 Parganas",
                "short_name": "South 24 Parganas"
            },
            {
                "types": [
                    "administrative_area_level_1",
                    "political"
                ],
                "long_name": "West Bengal",
                "short_name": "WB"
            },
            {
                "types": [
                    "country",
                    "political"
                ],
                "long_name": "India",
                "short_name": "IN"
            },
            {
                "types": [
                    "postal_code"
                ],
                "long_name": "743318",
                "short_name": "743318"
            }
        ],
        "formatted_address": "Nodakhali, West Bengal 743318, India",
        "geometry": {
            "location_type": "APPROXIMATE",
            "location": {
                "lat": 22.3958334,
                "lng": 88.17730879999999
            },
            "bounds": {
                "northeast": {
                    "lat": 22.4006399,
                    "lng": 88.18186
                },
                "southwest": {
                    "lat": 22.38831,
                    "lng": 88.17336
                }
            },
            "viewport": {
                "northeast": {
                    "lat": 22.4006399,
                    "lng": 88.18186
                },
                "southwest": {
                    "lat": 22.38831,
                    "lng": 88.17336
                }
            }
        },
        "place_id": "ChIJ-52dBJhiAjoRsksHX34rTY8"
    },
    "Kariadanga": {
        "partial_match": true,
        "types": [
            "political",
            "sublocality",
            "sublocality_level_1"
        ],
        "address_components": [
            {
                "types": [
                    "political",
                    "sublocality",
                    "sublocality_level_1"
                ],
                "long_name": "Karaidanga",
                "short_name": "Karaidanga"
            },
            {
                "types": [
                    "locality",
                    "political"
                ],
                "long_name": "Gangapur",
                "short_name": "Gangapur"
            },
            {
                "types": [
                    "administrative_area_level_2",
                    "political"
                ],
                "long_name": "South 24 Parganas",
                "short_name": "South 24 Parganas"
            },
            {
                "types": [
                    "administrative_area_level_1",
                    "political"
                ],
                "long_name": "West Bengal",
                "short_name": "WB"
            },
            {
                "types": [
                    "country",
                    "political"
                ],
                "long_name": "India",
                "short_name": "IN"
            },
            {
                "types": [
                    "postal_code"
                ],
                "long_name": "743502",
                "short_name": "743502"
            }
        ],
        "formatted_address": "Karaidanga, Gangapur, West Bengal 743502, India",
        "geometry": {
            "location_type": "APPROXIMATE",
            "location": {
                "lat": 22.5028072,
                "lng": 88.51543319999999
            },
            "bounds": {
                "northeast": {
                    "lat": 22.5127221,
                    "lng": 88.52436740000002
                },
                "southwest": {
                    "lat": 22.4869417,
                    "lng": 88.5106167
                }
            },
            "viewport": {
                "northeast": {
                    "lat": 22.5127221,
                    "lng": 88.52436740000002
                },
                "southwest": {
                    "lat": 22.4869417,
                    "lng": 88.5106167
                }
            }
        },
        "place_id": "ChIJa8SYensMAjoRrrGx1RC2PG8"
    },
    "Paschim Gabberia": {
        "address_components": [
            {
                "types": [
                    "locality",
                    "political"
                ],
                "long_name": "Paschim Gabberia",
                "short_name": "Paschim Gabberia"
            },
            {
                "types": [
                    "administrative_area_level_2",
                    "political"
                ],
                "long_name": "South 24 Parganas",
                "short_name": "South 24 Parganas"
            },
            {
                "types": [
                    "administrative_area_level_1",
                    "political"
                ],
                "long_name": "West Bengal",
                "short_name": "WB"
            },
            {
                "types": [
                    "country",
                    "political"
                ],
                "long_name": "India",
                "short_name": "IN"
            },
            {
                "types": [
                    "postal_code"
                ],
                "long_name": "743372",
                "short_name": "743372"
            }
        ],
        "place_id": "ChIJUdjWRwVAAjoRuoITDtCnfIk",
        "types": [
            "locality",
            "political"
        ],
        "geometry": {
            "location_type": "APPROXIMATE",
            "location": {
                "lat": 22.2208224,
                "lng": 88.4706642
            },
            "bounds": {
                "northeast": {
                    "lat": 22.23078,
                    "lng": 88.47742
                },
                "southwest": {
                    "lat": 22.2105499,
                    "lng": 88.46272979999999
                }
            },
            "viewport": {
                "northeast": {
                    "lat": 22.23078,
                    "lng": 88.47742
                },
                "southwest": {
                    "lat": 22.2105499,
                    "lng": 88.46272979999999
                }
            }
        },
        "formatted_address": "Paschim Gabberia, West Bengal 743372, India"
    },
    "Mukhujyapara": {
        "address_components": [
            {
                "types": [
                    "locality",
                    "political"
                ],
                "long_name": "Mukhujya Para",
                "short_name": "Mukhujya Para"
            },
            {
                "types": [
                    "administrative_area_level_2",
                    "political"
                ],
                "long_name": "South 24 Parganas",
                "short_name": "South 24 Parganas"
            },
            {
                "types": [
                    "administrative_area_level_1",
                    "political"
                ],
                "long_name": "West Bengal",
                "short_name": "WB"
            },
            {
                "types": [
                    "country",
                    "political"
                ],
                "long_name": "India",
                "short_name": "IN"
            },
            {
                "types": [
                    "postal_code"
                ],
                "long_name": "743502",
                "short_name": "743502"
            }
        ],
        "place_id": "ChIJe9qtG1sbAjoR2eQXLj3RQzQ",
        "types": [
            "locality",
            "political"
        ],
        "geometry": {
            "location_type": "APPROXIMATE",
            "location": {
                "lat": 22.4075767,
                "lng": 88.7024691
            },
            "bounds": {
                "northeast": {
                    "lat": 22.411465,
                    "lng": 88.70670319999999
                },
                "southwest": {
                    "lat": 22.4041846,
                    "lng": 88.6974977
                }
            },
            "viewport": {
                "northeast": {
                    "lat": 22.411465,
                    "lng": 88.70670319999999
                },
                "southwest": {
                    "lat": 22.4041846,
                    "lng": 88.6974977
                }
            }
        },
        "formatted_address": "Mukhujya Para, West Bengal 743502, India"
    },
    "Bamunia": {
        "address_components": [
            {
                "types": [
                    "locality",
                    "political"
                ],
                "long_name": "Bamunia",
                "short_name": "Bamunia"
            },
            {
                "types": [
                    "administrative_area_level_2",
                    "political"
                ],
                "long_name": "Bardhaman",
                "short_name": "Bardhaman"
            },
            {
                "types": [
                    "administrative_area_level_1",
                    "political"
                ],
                "long_name": "West Bengal",
                "short_name": "WB"
            },
            {
                "types": [
                    "country",
                    "political"
                ],
                "long_name": "India",
                "short_name": "IN"
            },
            {
                "types": [
                    "postal_code"
                ],
                "long_name": "713103",
                "short_name": "713103"
            }
        ],
        "place_id": "ChIJJ0xRlohI-DkRYx3rLuuQn0c",
        "types": [
            "locality",
            "political"
        ],
        "geometry": {
            "location_type": "APPROXIMATE",
            "location": {
                "lat": 23.1882937,
                "lng": 87.9003778
            },
            "bounds": {
                "northeast": {
                    "lat": 23.1949651,
                    "lng": 87.90830609999999
                },
                "southwest": {
                    "lat": 23.1864443,
                    "lng": 87.8872775
                }
            },
            "viewport": {
                "northeast": {
                    "lat": 23.1949651,
                    "lng": 87.90830609999999
                },
                "southwest": {
                    "lat": 23.1864443,
                    "lng": 87.8872775
                }
            }
        },
        "formatted_address": "Bamunia, West Bengal 713103, India"
    },
    "Alipur": {
        "address_components": [
            {
                "types": [
                    "locality",
                    "political"
                ],
                "long_name": "Alipurduar",
                "short_name": "Alipurduar"
            },
            {
                "types": [
                    "administrative_area_level_2",
                    "political"
                ],
                "long_name": "Jalpaiguri",
                "short_name": "Jalpaiguri"
            },
            {
                "types": [
                    "administrative_area_level_1",
                    "political"
                ],
                "long_name": "West Bengal",
                "short_name": "WB"
            },
            {
                "types": [
                    "country",
                    "political"
                ],
                "long_name": "India",
                "short_name": "IN"
            }
        ],
        "place_id": "ChIJlx0LgT9Z4jkRRacJ50yhSew",
        "types": [
            "locality",
            "political"
        ],
        "geometry": {
            "location_type": "APPROXIMATE",
            "location": {
                "lat": 26.4918891,
                "lng": 89.52710259999999
            },
            "bounds": {
                "northeast": {
                    "lat": 26.5095972,
                    "lng": 89.54672819999999
                },
                "southwest": {
                    "lat": 26.4721097,
                    "lng": 89.5154859
                }
            },
            "viewport": {
                "northeast": {
                    "lat": 26.5095972,
                    "lng": 89.54672819999999
                },
                "southwest": {
                    "lat": 26.4721097,
                    "lng": 89.5154859
                }
            }
        },
        "formatted_address": "Alipurduar, West Bengal, India"
    },
    "Chak Banamalipur": {
        "address_components": [
            {
                "types": [
                    "locality",
                    "political"
                ],
                "long_name": "Chak Banamalipur",
                "short_name": "Chak Banamalipur"
            },
            {
                "types": [
                    "administrative_area_level_2",
                    "political"
                ],
                "long_name": "South 24 Parganas",
                "short_name": "South 24 Parganas"
            },
            {
                "types": [
                    "administrative_area_level_1",
                    "political"
                ],
                "long_name": "West Bengal",
                "short_name": "WB"
            },
            {
                "types": [
                    "country",
                    "political"
                ],
                "long_name": "India",
                "short_name": "IN"
            },
            {
                "types": [
                    "postal_code"
                ],
                "long_name": "743336",
                "short_name": "743336"
            }
        ],
        "place_id": "ChIJQyop2cVaAjoRJLyo9Y6_L7I",
        "types": [
            "locality",
            "political"
        ],
        "geometry": {
            "location_type": "APPROXIMATE",
            "location": {
                "lat": 22.069546,
                "lng": 88.3136044
            },
            "bounds": {
                "northeast": {
                    "lat": 22.0722999,
                    "lng": 88.31477
                },
                "southwest": {
                    "lat": 22.0656999,
                    "lng": 88.31056
                }
            },
            "viewport": {
                "northeast": {
                    "lat": 22.0722999,
                    "lng": 88.31477
                },
                "southwest": {
                    "lat": 22.0656999,
                    "lng": 88.31056
                }
            }
        },
        "formatted_address": "Chak Banamalipur, West Bengal 743336, India"
    },
    "Bagpota": {
        "address_components": [
            {
                "types": [
                    "political",
                    "sublocality",
                    "sublocality_level_1"
                ],
                "long_name": "Bagpota",
                "short_name": "Bagpota"
            },
            {
                "types": [
                    "locality",
                    "political"
                ],
                "long_name": "Kolkata",
                "short_name": "Kolkata"
            },
            {
                "types": [
                    "administrative_area_level_2",
                    "political"
                ],
                "long_name": "Kolkata",
                "short_name": "Kolkata"
            },
            {
                "types": [
                    "administrative_area_level_1",
                    "political"
                ],
                "long_name": "West Bengal",
                "short_name": "WB"
            },
            {
                "types": [
                    "country",
                    "political"
                ],
                "long_name": "India",
                "short_name": "IN"
            }
        ],
        "place_id": "ChIJ7-b-JKt7AjoRfMp5l_2gsY0",
        "types": [
            "political",
            "sublocality",
            "sublocality_level_1"
        ],
        "geometry": {
            "location_type": "APPROXIMATE",
            "location": {
                "lat": 22.4587987,
                "lng": 88.2826103
            },
            "bounds": {
                "northeast": {
                    "lat": 22.473964,
                    "lng": 88.2885929
                },
                "southwest": {
                    "lat": 22.449465,
                    "lng": 88.26888199999999
                }
            },
            "viewport": {
                "northeast": {
                    "lat": 22.473964,
                    "lng": 88.2885929
                },
                "southwest": {
                    "lat": 22.449465,
                    "lng": 88.26888199999999
                }
            }
        },
        "formatted_address": "Bagpota, Kolkata, West Bengal, India"
    },
    "Jhaudari": {
        "address_components": [
            {
                "types": [
                    "locality",
                    "political"
                ],
                "long_name": "Jhaudari",
                "short_name": "Jhaudari"
            },
            {
                "types": [
                    "administrative_area_level_2",
                    "political"
                ],
                "long_name": "South 24 Parganas",
                "short_name": "South 24 Parganas"
            },
            {
                "types": [
                    "administrative_area_level_1",
                    "political"
                ],
                "long_name": "West Bengal",
                "short_name": "WB"
            },
            {
                "types": [
                    "country",
                    "political"
                ],
                "long_name": "India",
                "short_name": "IN"
            },
            {
                "types": [
                    "postal_code"
                ],
                "long_name": "743368",
                "short_name": "743368"
            }
        ],
        "place_id": "ChIJSYKHaZWKAjoReqRB3rResEM",
        "types": [
            "locality",
            "political"
        ],
        "geometry": {
            "location_type": "APPROXIMATE",
            "location": {
                "lat": 22.2532629,
                "lng": 88.1498766
            },
            "bounds": {
                "northeast": {
                    "lat": 22.2595399,
                    "lng": 88.15523999999999
                },
                "southwest": {
                    "lat": 22.2462399,
                    "lng": 88.14475999999999
                }
            },
            "viewport": {
                "northeast": {
                    "lat": 22.2595399,
                    "lng": 88.15523999999999
                },
                "southwest": {
                    "lat": 22.2462399,
                    "lng": 88.14475999999999
                }
            }
        },
        "formatted_address": "Jhaudari, West Bengal 743368, India"
    },
    "Chak Himmat Khan": {
        "address_components": [
            {
                "types": [
                    "locality",
                    "political"
                ],
                "long_name": "Chak Himmatkhan",
                "short_name": "Chak Himmatkhan"
            },
            {
                "types": [
                    "administrative_area_level_2",
                    "political"
                ],
                "long_name": "South 24 Parganas",
                "short_name": "South 24 Parganas"
            },
            {
                "types": [
                    "administrative_area_level_1",
                    "political"
                ],
                "long_name": "West Bengal",
                "short_name": "WB"
            },
            {
                "types": [
                    "country",
                    "political"
                ],
                "long_name": "India",
                "short_name": "IN"
            },
            {
                "types": [
                    "postal_code"
                ],
                "long_name": "743377",
                "short_name": "743377"
            }
        ],
        "place_id": "ChIJjQJ5jlNiAjoRomgfoUrCRWQ",
        "types": [
            "locality",
            "political"
        ],
        "geometry": {
            "location_type": "APPROXIMATE",
            "location": {
                "lat": 22.3640981,
                "lng": 88.2035057
            },
            "bounds": {
                "northeast": {
                    "lat": 22.3721701,
                    "lng": 88.20772
                },
                "southwest": {
                    "lat": 22.3578299,
                    "lng": 88.19992
                }
            },
            "viewport": {
                "northeast": {
                    "lat": 22.3721701,
                    "lng": 88.20772
                },
                "southwest": {
                    "lat": 22.3578299,
                    "lng": 88.19992
                }
            }
        },
        "formatted_address": "Chak Himmatkhan, West Bengal 743377, India"
    },
    "Dakshin Chandranagar": {
        "address_components": [
            {
                "types": [
                    "locality",
                    "political"
                ],
                "long_name": "Dakshin Chandranagar",
                "short_name": "Dakshin Chandranagar"
            },
            {
                "types": [
                    "administrative_area_level_2",
                    "political"
                ],
                "long_name": "South 24 Parganas",
                "short_name": "South 24 Parganas"
            },
            {
                "types": [
                    "administrative_area_level_1",
                    "political"
                ],
                "long_name": "West Bengal",
                "short_name": "WB"
            },
            {
                "types": [
                    "country",
                    "political"
                ],
                "long_name": "India",
                "short_name": "IN"
            },
            {
                "types": [
                    "postal_code"
                ],
                "long_name": "743357",
                "short_name": "743357"
            }
        ],
        "place_id": "ChIJ9UwqCTuvAzoRkULEhRpSoc8",
        "types": [
            "locality",
            "political"
        ],
        "geometry": {
            "location_type": "APPROXIMATE",
            "location": {
                "lat": 21.6868154,
                "lng": 88.26071879999999
            },
            "bounds": {
                "northeast": {
                    "lat": 21.7061701,
                    "lng": 88.27538
                },
                "southwest": {
                    "lat": 21.6741,
                    "lng": 88.24273
                }
            },
            "viewport": {
                "northeast": {
                    "lat": 21.7061701,
                    "lng": 88.27538
                },
                "southwest": {
                    "lat": 21.6741,
                    "lng": 88.24273
                }
            }
        },
        "formatted_address": "Dakshin Chandranagar, West Bengal 743357, India"
    },
    "Dhuri": {
        "address_components": [
            {
                "types": [
                    "locality",
                    "political"
                ],
                "long_name": "Dhuri",
                "short_name": "Dhuri"
            },
            {
                "types": [
                    "administrative_area_level_2",
                    "political"
                ],
                "long_name": "South 24 Parganas",
                "short_name": "South 24 Parganas"
            },
            {
                "types": [
                    "administrative_area_level_1",
                    "political"
                ],
                "long_name": "West Bengal",
                "short_name": "WB"
            },
            {
                "types": [
                    "country",
                    "political"
                ],
                "long_name": "India",
                "short_name": "IN"
            },
            {
                "types": [
                    "postal_code"
                ],
                "long_name": "743329",
                "short_name": "743329"
            }
        ],
        "place_id": "ChIJ6ToyjSEcAjoRhrRl0mOpS-0",
        "types": [
            "locality",
            "political"
        ],
        "geometry": {
            "location_type": "APPROXIMATE",
            "location": {
                "lat": 22.3333099,
                "lng": 88.7313557
            },
            "bounds": {
                "northeast": {
                    "lat": 22.3418793,
                    "lng": 88.7360144
                },
                "southwest": {
                    "lat": 22.328085,
                    "lng": 88.7272595
                }
            },
            "viewport": {
                "northeast": {
                    "lat": 22.3418793,
                    "lng": 88.7360144
                },
                "southwest": {
                    "lat": 22.328085,
                    "lng": 88.7272595
                }
            }
        },
        "formatted_address": "Dhuri, West Bengal 743329, India"
    },
    "Hanspukuria": {
        "address_components": [
            {
                "types": [
                    "locality",
                    "political"
                ],
                "long_name": "Hanspukuria",
                "short_name": "Hanspukuria"
            },
            {
                "types": [
                    "administrative_area_level_2",
                    "political"
                ],
                "long_name": "Nadia",
                "short_name": "Nadia"
            },
            {
                "types": [
                    "administrative_area_level_1",
                    "political"
                ],
                "long_name": "West Bengal",
                "short_name": "WB"
            },
            {
                "types": [
                    "country",
                    "political"
                ],
                "long_name": "India",
                "short_name": "IN"
            }
        ],
        "place_id": "ChIJz_DKPGQV-TkRIsmAS22bS6I",
        "types": [
            "locality",
            "political"
        ],
        "geometry": {
            "location_type": "APPROXIMATE",
            "location": {
                "lat": 23.7259523,
                "lng": 88.4646107
            },
            "bounds": {
                "northeast": {
                    "lat": 23.73777,
                    "lng": 88.49459999999999
                },
                "southwest": {
                    "lat": 23.71279,
                    "lng": 88.45112999999999
                }
            },
            "viewport": {
                "northeast": {
                    "lat": 23.73777,
                    "lng": 88.49459999999999
                },
                "southwest": {
                    "lat": 23.71279,
                    "lng": 88.45112999999999
                }
            }
        },
        "formatted_address": "Hanspukuria, West Bengal, India"
    },
    "Ramjiban Nagar": {
        "address_components": [
            {
                "types": [
                    "locality",
                    "political"
                ],
                "long_name": "Ramjibannagar",
                "short_name": "Ramjibannagar"
            },
            {
                "types": [
                    "administrative_area_level_2",
                    "political"
                ],
                "long_name": "South 24 Parganas",
                "short_name": "South 24 Parganas"
            },
            {
                "types": [
                    "administrative_area_level_1",
                    "political"
                ],
                "long_name": "West Bengal",
                "short_name": "WB"
            },
            {
                "types": [
                    "country",
                    "political"
                ],
                "long_name": "India",
                "short_name": "IN"
            }
        ],
        "place_id": "ChIJ95DHcWVEAjoR9Us0y3AKhNM",
        "types": [
            "locality",
            "political"
        ],
        "geometry": {
            "location_type": "APPROXIMATE",
            "location": {
                "lat": 22.1215062,
                "lng": 88.36885269999999
            },
            "bounds": {
                "northeast": {
                    "lat": 22.1241699,
                    "lng": 88.37894
                },
                "southwest": {
                    "lat": 22.1172299,
                    "lng": 88.36444
                }
            },
            "viewport": {
                "northeast": {
                    "lat": 22.1241699,
                    "lng": 88.37894
                },
                "southwest": {
                    "lat": 22.1172299,
                    "lng": 88.36444
                }
            }
        },
        "formatted_address": "Ramjibannagar, West Bengal, India"
    },
    "Hogoldara": null,
    "Mirzapur": {
        "address_components": [
            {
                "types": [
                    "locality",
                    "political"
                ],
                "long_name": "Mirzapur",
                "short_name": "Mirzapur"
            },
            {
                "types": [
                    "administrative_area_level_2",
                    "political"
                ],
                "long_name": "Bardhaman",
                "short_name": "Bardhaman"
            },
            {
                "types": [
                    "administrative_area_level_1",
                    "political"
                ],
                "long_name": "West Bengal",
                "short_name": "WB"
            },
            {
                "types": [
                    "country",
                    "political"
                ],
                "long_name": "India",
                "short_name": "IN"
            },
            {
                "types": [
                    "postal_code"
                ],
                "long_name": "713104",
                "short_name": "713104"
            }
        ],
        "place_id": "ChIJV2BS_TFK-DkRaM6TV_5IbrA",
        "types": [
            "locality",
            "political"
        ],
        "geometry": {
            "location_type": "APPROXIMATE",
            "location": {
                "lat": 23.2817971,
                "lng": 87.88197699999999
            },
            "bounds": {
                "northeast": {
                    "lat": 23.2923154,
                    "lng": 87.8994324
                },
                "southwest": {
                    "lat": 23.2761337,
                    "lng": 87.86592759999999
                }
            },
            "viewport": {
                "northeast": {
                    "lat": 23.2923154,
                    "lng": 87.8994324
                },
                "southwest": {
                    "lat": 23.2761337,
                    "lng": 87.86592759999999
                }
            }
        },
        "formatted_address": "Mirzapur, West Bengal 713104, India"
    },
    "Andharmanik": {
        "address_components": [
            {
                "types": [
                    "locality",
                    "political"
                ],
                "long_name": "Andharmanik",
                "short_name": "Andharmanik"
            },
            {
                "types": [
                    "administrative_area_level_2",
                    "political"
                ],
                "long_name": "South 24 Parganas",
                "short_name": "South 24 Parganas"
            },
            {
                "types": [
                    "administrative_area_level_1",
                    "political"
                ],
                "long_name": "West Bengal",
                "short_name": "WB"
            },
            {
                "types": [
                    "country",
                    "political"
                ],
                "long_name": "India",
                "short_name": "IN"
            }
        ],
        "place_id": "ChIJMVMOAKlvAjoRtXaB9TBJqYs",
        "types": [
            "locality",
            "political"
        ],
        "geometry": {
            "location_type": "APPROXIMATE",
            "location": {
                "lat": 22.3701738,
                "lng": 88.3555025
            },
            "bounds": {
                "northeast": {
                    "lat": 22.3877201,
                    "lng": 88.37427
                },
                "southwest": {
                    "lat": 22.36462,
                    "lng": 88.33682999999999
                }
            },
            "viewport": {
                "northeast": {
                    "lat": 22.3877201,
                    "lng": 88.37427
                },
                "southwest": {
                    "lat": 22.36462,
                    "lng": 88.33682999999999
                }
            }
        },
        "formatted_address": "Andharmanik, West Bengal, India"
    },
    "Khorda Ratneshwarpur": null,
    "Bagbari": {
        "address_components": [
            {
                "types": [
                    "locality",
                    "political"
                ],
                "long_name": "Bagbari",
                "short_name": "Bagbari"
            },
            {
                "types": [
                    "administrative_area_level_2",
                    "political"
                ],
                "long_name": "Malda",
                "short_name": "Malda"
            },
            {
                "types": [
                    "administrative_area_level_1",
                    "political"
                ],
                "long_name": "West Bengal",
                "short_name": "WB"
            },
            {
                "types": [
                    "country",
                    "political"
                ],
                "long_name": "India",
                "short_name": "IN"
            }
        ],
        "place_id": "ChIJn-vOX0D8-jkRmsZeL_wrKoU",
        "types": [
            "locality",
            "political"
        ],
        "geometry": {
            "location_type": "APPROXIMATE",
            "location": {
                "lat": 25.0139781,
                "lng": 88.1169354
            },
            "bounds": {
                "northeast": {
                    "lat": 25.02378,
                    "lng": 88.1232801
                },
                "southwest": {
                    "lat": 25.0012099,
                    "lng": 88.1005701
                }
            },
            "viewport": {
                "northeast": {
                    "lat": 25.02378,
                    "lng": 88.1232801
                },
                "southwest": {
                    "lat": 25.0012099,
                    "lng": 88.1005701
                }
            }
        },
        "formatted_address": "Bagbari, West Bengal, India"
    },
    "Shajinatala": {
        "address_components": [
            {
                "types": [
                    "locality",
                    "political"
                ],
                "long_name": "Sajinatala",
                "short_name": "Sajinatala"
            },
            {
                "types": [
                    "administrative_area_level_2",
                    "political"
                ],
                "long_name": "South 24 Parganas",
                "short_name": "South 24 Parganas"
            },
            {
                "types": [
                    "administrative_area_level_1",
                    "political"
                ],
                "long_name": "West Bengal",
                "short_name": "WB"
            },
            {
                "types": [
                    "country",
                    "political"
                ],
                "long_name": "India",
                "short_name": "IN"
            },
            {
                "types": [
                    "postal_code"
                ],
                "long_name": "743312",
                "short_name": "743312"
            }
        ],
        "place_id": "ChIJ7Q6a7KYhAjoRVyAq0XJu-ZI",
        "types": [
            "locality",
            "political"
        ],
        "geometry": {
            "location_type": "APPROXIMATE",
            "location": {
                "lat": 22.188827,
                "lng": 88.73737129999999
            },
            "bounds": {
                "northeast": {
                    "lat": 22.1972099,
                    "lng": 88.7424499
                },
                "southwest": {
                    "lat": 22.1831701,
                    "lng": 88.73056
                }
            },
            "viewport": {
                "northeast": {
                    "lat": 22.1972099,
                    "lng": 88.7424499
                },
                "southwest": {
                    "lat": 22.1831701,
                    "lng": 88.73056
                }
            }
        },
        "formatted_address": "Sajinatala, West Bengal 743312, India"
    },
    "Purba Barisha": {
        "address_components": [
            {
                "types": [
                    "political",
                    "sublocality",
                    "sublocality_level_1"
                ],
                "long_name": "Purba Barisha",
                "short_name": "Purba Barisha"
            },
            {
                "types": [
                    "locality",
                    "political"
                ],
                "long_name": "Kolkata",
                "short_name": "Kolkata"
            },
            {
                "types": [
                    "administrative_area_level_2",
                    "political"
                ],
                "long_name": "Kolkata",
                "short_name": "Kolkata"
            },
            {
                "types": [
                    "administrative_area_level_1",
                    "political"
                ],
                "long_name": "West Bengal",
                "short_name": "WB"
            },
            {
                "types": [
                    "country",
                    "political"
                ],
                "long_name": "India",
                "short_name": "IN"
            }
        ],
        "place_id": "ChIJkweezHp6AjoRJtqRq6dyZ3c",
        "types": [
            "political",
            "sublocality",
            "sublocality_level_1"
        ],
        "geometry": {
            "location_type": "APPROXIMATE",
            "location": {
                "lat": 22.4780706,
                "lng": 88.3201654
            },
            "bounds": {
                "northeast": {
                    "lat": 22.48537,
                    "lng": 88.328964
                },
                "southwest": {
                    "lat": 22.467843,
                    "lng": 88.309828
                }
            },
            "viewport": {
                "northeast": {
                    "lat": 22.48537,
                    "lng": 88.328964
                },
                "southwest": {
                    "lat": 22.467843,
                    "lng": 88.309828
                }
            }
        },
        "formatted_address": "Purba Barisha, Kolkata, West Bengal, India"
    },
    "Karunarhati": {
        "partial_match": true,
        "types": [
            "locality",
            "political"
        ],
        "address_components": [
            {
                "types": [
                    "locality",
                    "political"
                ],
                "long_name": "Karunarhati",
                "short_name": "Karunarhati"
            },
            {
                "types": [
                    "administrative_area_level_2",
                    "political"
                ],
                "long_name": "South 24 Parganas",
                "short_name": "South 24 Parganas"
            },
            {
                "types": [
                    "administrative_area_level_1",
                    "political"
                ],
                "long_name": "West Bengal",
                "short_name": "WB"
            },
            {
                "types": [
                    "country",
                    "political"
                ],
                "long_name": "India",
                "short_name": "IN"
            },
            {
                "types": [
                    "postal_code"
                ],
                "long_name": "743502",
                "short_name": "743502"
            }
        ],
        "formatted_address": "Karunarhati, West Bengal 743502, India",
        "geometry": {
            "location_type": "APPROXIMATE",
            "location": {
                "lat": 22.4555296,
                "lng": 88.5589473
            },
            "bounds": {
                "northeast": {
                    "lat": 22.4637901,
                    "lng": 88.56797
                },
                "southwest": {
                    "lat": 22.4461101,
                    "lng": 88.5535601
                }
            },
            "viewport": {
                "northeast": {
                    "lat": 22.4637901,
                    "lng": 88.56797
                },
                "southwest": {
                    "lat": 22.4461101,
                    "lng": 88.5535601
                }
            }
        },
        "place_id": "ChIJi1x40HYOAjoRtOz2nvd_9X0"
    },
    "Harimul": {
        "address_components": [
            {
                "types": [
                    "locality",
                    "political"
                ],
                "long_name": "Harimul",
                "short_name": "Harimul"
            },
            {
                "types": [
                    "administrative_area_level_2",
                    "political"
                ],
                "long_name": "South 24 Parganas",
                "short_name": "South 24 Parganas"
            },
            {
                "types": [
                    "administrative_area_level_1",
                    "political"
                ],
                "long_name": "West Bengal",
                "short_name": "WB"
            },
            {
                "types": [
                    "country",
                    "political"
                ],
                "long_name": "India",
                "short_name": "IN"
            },
            {
                "types": [
                    "postal_code"
                ],
                "long_name": "743376",
                "short_name": "743376"
            }
        ],
        "place_id": "ChIJA9vHx78WAjoRhoFOtjLGprY",
        "types": [
            "locality",
            "political"
        ],
        "geometry": {
            "location_type": "APPROXIMATE",
            "location": {
                "lat": 22.3051971,
                "lng": 88.5746498
            },
            "bounds": {
                "northeast": {
                    "lat": 22.3103701,
                    "lng": 88.579
                },
                "southwest": {
                    "lat": 22.2997399,
                    "lng": 88.56922999999999
                }
            },
            "viewport": {
                "northeast": {
                    "lat": 22.3103701,
                    "lng": 88.579
                },
                "southwest": {
                    "lat": 22.2997399,
                    "lng": 88.56922999999999
                }
            }
        },
        "formatted_address": "Harimul, West Bengal 743376, India"
    },
    "Burul": {
        "address_components": [
            {
                "types": [
                    "locality",
                    "political"
                ],
                "long_name": "Burul",
                "short_name": "Burul"
            },
            {
                "types": [
                    "administrative_area_level_2",
                    "political"
                ],
                "long_name": "South 24 Parganas",
                "short_name": "South 24 Parganas"
            },
            {
                "types": [
                    "administrative_area_level_1",
                    "political"
                ],
                "long_name": "West Bengal",
                "short_name": "WB"
            },
            {
                "types": [
                    "country",
                    "political"
                ],
                "long_name": "India",
                "short_name": "IN"
            }
        ],
        "place_id": "ChIJ3Vsj7iCJAjoRtUxvBECawYo",
        "types": [
            "locality",
            "political"
        ],
        "geometry": {
            "location_type": "APPROXIMATE",
            "location": {
                "lat": 22.3674751,
                "lng": 88.10717029999999
            },
            "bounds": {
                "northeast": {
                    "lat": 22.3820301,
                    "lng": 88.12543
                },
                "southwest": {
                    "lat": 22.3549099,
                    "lng": 88.08762
                }
            },
            "viewport": {
                "northeast": {
                    "lat": 22.3820301,
                    "lng": 88.12543
                },
                "southwest": {
                    "lat": 22.3549099,
                    "lng": 88.08762
                }
            }
        },
        "formatted_address": "Burul, West Bengal, India"
    },
    "Anantapur": {
        "address_components": [
            {
                "types": [
                    "locality",
                    "political"
                ],
                "long_name": "Anantapur",
                "short_name": "Anantapur"
            },
            {
                "types": [
                    "administrative_area_level_2",
                    "political"
                ],
                "long_name": "Murshidabad",
                "short_name": "Murshidabad"
            },
            {
                "types": [
                    "administrative_area_level_1",
                    "political"
                ],
                "long_name": "West Bengal",
                "short_name": "WB"
            },
            {
                "types": [
                    "country",
                    "political"
                ],
                "long_name": "India",
                "short_name": "IN"
            }
        ],
        "place_id": "ChIJh53t9qKA-TkRgO2T29mxDgQ",
        "types": [
            "locality",
            "political"
        ],
        "geometry": {
            "location_type": "APPROXIMATE",
            "location": {
                "lat": 24.1233506,
                "lng": 88.10717029999999
            },
            "bounds": {
                "northeast": {
                    "lat": 24.12992,
                    "lng": 88.1158899
                },
                "southwest": {
                    "lat": 24.11633,
                    "lng": 88.10011
                }
            },
            "viewport": {
                "northeast": {
                    "lat": 24.12992,
                    "lng": 88.1158899
                },
                "southwest": {
                    "lat": 24.11633,
                    "lng": 88.10011
                }
            }
        },
        "formatted_address": "Anantapur, West Bengal, India"
    },
    "Uttar Diarak": {
        "partial_match": true,
        "types": [
            "locality",
            "political"
        ],
        "address_components": [
            {
                "types": [
                    "locality",
                    "political"
                ],
                "long_name": "Uttar Diarak",
                "short_name": "Uttar Diarak"
            },
            {
                "types": [
                    "administrative_area_level_2",
                    "political"
                ],
                "long_name": "South 24 Parganas",
                "short_name": "South 24 Parganas"
            },
            {
                "types": [
                    "administrative_area_level_1",
                    "political"
                ],
                "long_name": "West Bengal",
                "short_name": "WB"
            },
            {
                "types": [
                    "country",
                    "political"
                ],
                "long_name": "India",
                "short_name": "IN"
            },
            {
                "types": [
                    "postal_code"
                ],
                "long_name": "743375",
                "short_name": "743375"
            }
        ],
        "formatted_address": "Uttar Diarak, West Bengal 743375, India",
        "geometry": {
            "location_type": "APPROXIMATE",
            "location": {
                "lat": 22.2454247,
                "lng": 88.24976889999999
            },
            "bounds": {
                "northeast": {
                    "lat": 22.25362,
                    "lng": 88.25574
                },
                "southwest": {
                    "lat": 22.23702,
                    "lng": 88.24074999999999
                }
            },
            "viewport": {
                "northeast": {
                    "lat": 22.25362,
                    "lng": 88.25574
                },
                "southwest": {
                    "lat": 22.23702,
                    "lng": 88.24074999999999
                }
            }
        },
        "place_id": "ChIJye1f80xnAjoR4dFijtxCuqc"
    },
    "Satsa": {
        "address_components": [
            {
                "types": [
                    "locality",
                    "political"
                ],
                "long_name": "Satsa",
                "short_name": "Satsa"
            },
            {
                "types": [
                    "administrative_area_level_2",
                    "political"
                ],
                "long_name": "South 24 Parganas",
                "short_name": "South 24 Parganas"
            },
            {
                "types": [
                    "administrative_area_level_1",
                    "political"
                ],
                "long_name": "West Bengal",
                "short_name": "WB"
            },
            {
                "types": [
                    "country",
                    "political"
                ],
                "long_name": "India",
                "short_name": "IN"
            }
        ],
        "place_id": "ChIJgauWrmViAjoRl93FtTbBPN0",
        "types": [
            "locality",
            "political"
        ],
        "geometry": {
            "location_type": "APPROXIMATE",
            "location": {
                "lat": 22.3608753,
                "lng": 88.1815744
            },
            "bounds": {
                "northeast": {
                    "lat": 22.36636,
                    "lng": 88.18428999999999
                },
                "southwest": {
                    "lat": 22.3574699,
                    "lng": 88.17721999999999
                }
            },
            "viewport": {
                "northeast": {
                    "lat": 22.36636,
                    "lng": 88.18428999999999
                },
                "southwest": {
                    "lat": 22.3574699,
                    "lng": 88.17721999999999
                }
            }
        },
        "formatted_address": "Satsa, West Bengal, India"
    },
    "Phulmalancha": {
        "address_components": [
            {
                "types": [
                    "locality",
                    "political"
                ],
                "long_name": "Phul Malancha",
                "short_name": "Phul Malancha"
            },
            {
                "types": [
                    "administrative_area_level_2",
                    "political"
                ],
                "long_name": "South 24 Parganas",
                "short_name": "South 24 Parganas"
            },
            {
                "types": [
                    "administrative_area_level_1",
                    "political"
                ],
                "long_name": "West Bengal",
                "short_name": "WB"
            },
            {
                "types": [
                    "country",
                    "political"
                ],
                "long_name": "India",
                "short_name": "IN"
            },
            {
                "types": [
                    "postal_code"
                ],
                "long_name": "743329",
                "short_name": "743329"
            }
        ],
        "place_id": "ChIJPd488ugeAjoR7M4ETqVwxPU",
        "types": [
            "locality",
            "political"
        ],
        "geometry": {
            "location_type": "APPROXIMATE",
            "location": {
                "lat": 22.2991435,
                "lng": 88.7445888
            },
            "bounds": {
                "northeast": {
                    "lat": 22.3087899,
                    "lng": 88.76016
                },
                "southwest": {
                    "lat": 22.2821,
                    "lng": 88.70599
                }
            },
            "viewport": {
                "northeast": {
                    "lat": 22.3087899,
                    "lng": 88.76016
                },
                "southwest": {
                    "lat": 22.2821,
                    "lng": 88.70599
                }
            }
        },
        "formatted_address": "Phul Malancha, West Bengal 743329, India"
    },
    "Ranigarh": {
        "partial_match": true,
        "types": [
            "locality",
            "political"
        ],
        "address_components": [
            {
                "types": [
                    "locality",
                    "political"
                ],
                "long_name": "Raniganj",
                "short_name": "Raniganj"
            },
            {
                "types": [
                    "administrative_area_level_2",
                    "political"
                ],
                "long_name": "Bardhaman",
                "short_name": "Bardhaman"
            },
            {
                "types": [
                    "administrative_area_level_1",
                    "political"
                ],
                "long_name": "West Bengal",
                "short_name": "WB"
            },
            {
                "types": [
                    "country",
                    "political"
                ],
                "long_name": "India",
                "short_name": "IN"
            }
        ],
        "formatted_address": "Raniganj, West Bengal, India",
        "geometry": {
            "location_type": "APPROXIMATE",
            "location": {
                "lat": 23.6290575,
                "lng": 87.0923906
            },
            "bounds": {
                "northeast": {
                    "lat": 23.6519148,
                    "lng": 87.13857650000001
                },
                "southwest": {
                    "lat": 23.5811369,
                    "lng": 87.061329
                }
            },
            "viewport": {
                "northeast": {
                    "lat": 23.6519148,
                    "lng": 87.13857650000001
                },
                "southwest": {
                    "lat": 23.5811369,
                    "lng": 87.061329
                }
            }
        },
        "place_id": "ChIJY6Ht0z0R9zkRVc8_eNLBVRE"
    },
    "Gar Deoyani": null,
    "Kantabunia": {
        "partial_match": true,
        "types": [
            "locality",
            "political"
        ],
        "address_components": [
            {
                "types": [
                    "locality",
                    "political"
                ],
                "long_name": "Kantabania",
                "short_name": "Kantabania"
            },
            {
                "types": [
                    "administrative_area_level_2",
                    "political"
                ],
                "long_name": "Balasore",
                "short_name": "BLS"
            },
            {
                "types": [
                    "administrative_area_level_1",
                    "political"
                ],
                "long_name": "Odisha",
                "short_name": "OD"
            },
            {
                "types": [
                    "country",
                    "political"
                ],
                "long_name": "India",
                "short_name": "IN"
            },
            {
                "types": [
                    "postal_code"
                ],
                "long_name": "756037",
                "short_name": "756037"
            }
        ],
        "formatted_address": "Kantabania, Odisha 756037, India",
        "geometry": {
            "location_type": "APPROXIMATE",
            "location": {
                "lat": 21.6322047,
                "lng": 87.43376409999999
            },
            "bounds": {
                "northeast": {
                    "lat": 21.63826,
                    "lng": 87.4393
                },
                "southwest": {
                    "lat": 21.6273898,
                    "lng": 87.4288399
                }
            },
            "viewport": {
                "northeast": {
                    "lat": 21.63826,
                    "lng": 87.4393
                },
                "southwest": {
                    "lat": 21.6273898,
                    "lng": 87.4288399
                }
            }
        },
        "place_id": "ChIJ6ct3FjvOHDoRwSPj8kFnHck"
    },
    "Dakshin Kajzirhat": null,
    "Garkhali": {
        "partial_match": true,
        "types": [
            "locality",
            "political"
        ],
        "address_components": [
            {
                "types": [
                    "locality",
                    "political"
                ],
                "long_name": "Garkhali",
                "short_name": "Garkhali"
            },
            {
                "types": [
                    "administrative_area_level_2",
                    "political"
                ],
                "long_name": "South 24 Parganas",
                "short_name": "South 24 Parganas"
            },
            {
                "types": [
                    "administrative_area_level_1",
                    "political"
                ],
                "long_name": "West Bengal",
                "short_name": "WB"
            },
            {
                "types": [
                    "country",
                    "political"
                ],
                "long_name": "India",
                "short_name": "IN"
            }
        ],
        "formatted_address": "Garkhali, West Bengal, India",
        "geometry": {
            "location_type": "APPROXIMATE",
            "location": {
                "lat": 22.3077838,
                "lng": 88.23029559999999
            },
            "bounds": {
                "northeast": {
                    "lat": 22.3115,
                    "lng": 88.23895
                },
                "southwest": {
                    "lat": 22.3036699,
                    "lng": 88.2195
                }
            },
            "viewport": {
                "northeast": {
                    "lat": 22.3115,
                    "lng": 88.23895
                },
                "southwest": {
                    "lat": 22.3036699,
                    "lng": 88.2195
                }
            }
        },
        "place_id": "ChIJCSEAy0NhAjoR1tqrROZ9zME"
    },
    "Taltala": {
        "address_components": [
            {
                "types": [
                    "political",
                    "sublocality",
                    "sublocality_level_1"
                ],
                "long_name": "Taltala",
                "short_name": "Taltala"
            },
            {
                "types": [
                    "locality",
                    "political"
                ],
                "long_name": "Kolkata",
                "short_name": "Kolkata"
            },
            {
                "types": [
                    "administrative_area_level_2",
                    "political"
                ],
                "long_name": "Kolkata",
                "short_name": "Kolkata"
            },
            {
                "types": [
                    "administrative_area_level_1",
                    "political"
                ],
                "long_name": "West Bengal",
                "short_name": "WB"
            },
            {
                "types": [
                    "country",
                    "political"
                ],
                "long_name": "India",
                "short_name": "IN"
            }
        ],
        "place_id": "ChIJfTeQkQN3AjoRTZ9YgapX-8I",
        "types": [
            "political",
            "sublocality",
            "sublocality_level_1"
        ],
        "geometry": {
            "location_type": "APPROXIMATE",
            "location": {
                "lat": 22.561227,
                "lng": 88.3582718
            },
            "bounds": {
                "northeast": {
                    "lat": 22.5653124,
                    "lng": 88.36716799999999
                },
                "southwest": {
                    "lat": 22.5489331,
                    "lng": 88.35011899999999
                }
            },
            "viewport": {
                "northeast": {
                    "lat": 22.5653124,
                    "lng": 88.36716799999999
                },
                "southwest": {
                    "lat": 22.5489331,
                    "lng": 88.35011899999999
                }
            }
        },
        "formatted_address": "Taltala, Kolkata, West Bengal, India"
    },
    "Uttar Bishnupur": {
        "address_components": [
            {
                "types": [
                    "locality",
                    "political"
                ],
                "long_name": "Uttar Bishnupur",
                "short_name": "Uttar Bishnupur"
            },
            {
                "types": [
                    "administrative_area_level_2",
                    "political"
                ],
                "long_name": "South 24 Parganas",
                "short_name": "South 24 Parganas"
            },
            {
                "types": [
                    "administrative_area_level_1",
                    "political"
                ],
                "long_name": "West Bengal",
                "short_name": "WB"
            },
            {
                "types": [
                    "country",
                    "political"
                ],
                "long_name": "India",
                "short_name": "IN"
            }
        ],
        "place_id": "ChIJR6au9rhnAjoRSgBmiOcNu5A",
        "types": [
            "locality",
            "political"
        ],
        "geometry": {
            "location_type": "APPROXIMATE",
            "location": {
                "lat": 22.261638,
                "lng": 88.3038832
            },
            "bounds": {
                "northeast": {
                    "lat": 22.27025,
                    "lng": 88.30859
                },
                "southwest": {
                    "lat": 22.2538,
                    "lng": 88.29731000000001
                }
            },
            "viewport": {
                "northeast": {
                    "lat": 22.27025,
                    "lng": 88.30859
                },
                "southwest": {
                    "lat": 22.2538,
                    "lng": 88.29731000000001
                }
            }
        },
        "formatted_address": "Uttar Bishnupur, West Bengal, India"
    },
    "Surjyanagar": {
        "partial_match": true,
        "types": [
            "locality",
            "political"
        ],
        "address_components": [
            {
                "types": [
                    "locality",
                    "political"
                ],
                "long_name": "Suryanagar",
                "short_name": "Suryanagar"
            },
            {
                "types": [
                    "administrative_area_level_2",
                    "political"
                ],
                "long_name": "South 24 Parganas",
                "short_name": "South 24 Parganas"
            },
            {
                "types": [
                    "administrative_area_level_1",
                    "political"
                ],
                "long_name": "West Bengal",
                "short_name": "WB"
            },
            {
                "types": [
                    "country",
                    "political"
                ],
                "long_name": "India",
                "short_name": "IN"
            },
            {
                "types": [
                    "postal_code"
                ],
                "long_name": "743374",
                "short_name": "743374"
            }
        ],
        "formatted_address": "Suryanagar, West Bengal 743374, India",
        "geometry": {
            "location_type": "APPROXIMATE",
            "location": {
                "lat": 21.9691561,
                "lng": 88.1901046
            },
            "bounds": {
                "northeast": {
                    "lat": 21.9961601,
                    "lng": 88.20233999999999
                },
                "southwest": {
                    "lat": 21.9475699,
                    "lng": 88.18029
                }
            },
            "viewport": {
                "northeast": {
                    "lat": 21.9961601,
                    "lng": 88.20233999999999
                },
                "southwest": {
                    "lat": 21.9475699,
                    "lng": 88.18029
                }
            }
        },
        "place_id": "ChIJuSP1NUFWAjoRFFOaB4kTPcc"
    },
    "Amreshwar": {
        "address_components": [
            {
                "types": [
                    "locality",
                    "political"
                ],
                "long_name": "Amreswar",
                "short_name": "Amreswar"
            },
            {
                "types": [
                    "administrative_area_level_2",
                    "political"
                ],
                "long_name": "South 24 Parganas",
                "short_name": "South 24 Parganas"
            },
            {
                "types": [
                    "administrative_area_level_1",
                    "political"
                ],
                "long_name": "West Bengal",
                "short_name": "WB"
            },
            {
                "types": [
                    "country",
                    "political"
                ],
                "long_name": "India",
                "short_name": "IN"
            },
            {
                "types": [
                    "postal_code"
                ],
                "long_name": "743502",
                "short_name": "743502"
            }
        ],
        "place_id": "ChIJk36Za34OAjoR4FzndPL6xC8",
        "types": [
            "locality",
            "political"
        ],
        "geometry": {
            "location_type": "APPROXIMATE",
            "location": {
                "lat": 22.4674474,
                "lng": 88.5589473
            },
            "bounds": {
                "northeast": {
                    "lat": 22.47565,
                    "lng": 88.5717899
                },
                "southwest": {
                    "lat": 22.46181,
                    "lng": 88.54901
                }
            },
            "viewport": {
                "northeast": {
                    "lat": 22.47565,
                    "lng": 88.5717899
                },
                "southwest": {
                    "lat": 22.46181,
                    "lng": 88.54901
                }
            }
        },
        "formatted_address": "Amreswar, West Bengal 743502, India"
    },
    "Bagi": {
        "address_components": [
            {
                "types": [
                    "locality",
                    "political"
                ],
                "long_name": "Bagi",
                "short_name": "Bagi"
            },
            {
                "types": [
                    "administrative_area_level_2",
                    "political"
                ],
                "long_name": "South 24 Parganas",
                "short_name": "South 24 Parganas"
            },
            {
                "types": [
                    "administrative_area_level_1",
                    "political"
                ],
                "long_name": "West Bengal",
                "short_name": "WB"
            },
            {
                "types": [
                    "country",
                    "political"
                ],
                "long_name": "India",
                "short_name": "IN"
            }
        ],
        "place_id": "ChIJ1UMOKy9lAjoRB_XLnT3ocpM",
        "types": [
            "locality",
            "political"
        ],
        "geometry": {
            "location_type": "APPROXIMATE",
            "location": {
                "lat": 22.4112338,
                "lng": 88.2923363
            },
            "bounds": {
                "northeast": {
                    "lat": 22.42901,
                    "lng": 88.2997101
                },
                "southwest": {
                    "lat": 22.39291,
                    "lng": 88.28034
                }
            },
            "viewport": {
                "northeast": {
                    "lat": 22.42901,
                    "lng": 88.2997101
                },
                "southwest": {
                    "lat": 22.39291,
                    "lng": 88.28034
                }
            }
        },
        "formatted_address": "Bagi, West Bengal, India"
    },
    "Panchuakhali": {
        "partial_match": true,
        "types": [
            "locality",
            "political"
        ],
        "address_components": [
            {
                "types": [
                    "locality",
                    "political"
                ],
                "long_name": "Panchrakhi",
                "short_name": "Panchrakhi"
            },
            {
                "types": [
                    "administrative_area_level_2",
                    "political"
                ],
                "long_name": "Hooghly",
                "short_name": "Hooghly"
            },
            {
                "types": [
                    "administrative_area_level_1",
                    "political"
                ],
                "long_name": "West Bengal",
                "short_name": "WB"
            },
            {
                "types": [
                    "country",
                    "political"
                ],
                "long_name": "India",
                "short_name": "IN"
            }
        ],
        "formatted_address": "Panchrakhi, West Bengal, India",
        "geometry": {
            "location_type": "APPROXIMATE",
            "location": {
                "lat": 22.9197163,
                "lng": 88.3518608
            },
            "bounds": {
                "northeast": {
                    "lat": 22.92373,
                    "lng": 88.36489000000002
                },
                "southwest": {
                    "lat": 22.91109,
                    "lng": 88.34338
                }
            },
            "viewport": {
                "northeast": {
                    "lat": 22.92373,
                    "lng": 88.36489000000002
                },
                "southwest": {
                    "lat": 22.91109,
                    "lng": 88.34338
                }
            }
        },
        "place_id": "ChIJow-gbTeS-DkRC4497sOMa04"
    },
    "Padmerhat": {
        "address_components": [
            {
                "types": [
                    "locality",
                    "political"
                ],
                "long_name": "Padmerhat",
                "short_name": "Padmerhat"
            },
            {
                "types": [
                    "administrative_area_level_2",
                    "political"
                ],
                "long_name": "South 24 Parganas",
                "short_name": "South 24 Parganas"
            },
            {
                "types": [
                    "administrative_area_level_1",
                    "political"
                ],
                "long_name": "West Bengal",
                "short_name": "WB"
            },
            {
                "types": [
                    "country",
                    "political"
                ],
                "long_name": "India",
                "short_name": "IN"
            }
        ],
        "place_id": "ChIJxWns1o5qAjoRZ4iKXLKkFV4",
        "types": [
            "locality",
            "political"
        ],
        "geometry": {
            "location_type": "APPROXIMATE",
            "location": {
                "lat": 22.2474122,
                "lng": 88.4464452
            },
            "bounds": {
                "northeast": {
                    "lat": 22.25526,
                    "lng": 88.45233999999999
                },
                "southwest": {
                    "lat": 22.2370701,
                    "lng": 88.43890999999999
                }
            },