id,name,jl_number,block_id,latitude,longitude
29951,Binkar,10,217.0,24.0119759,88.2388162
29952,Mahishasthli,11,217.0,22.1813597,87.9898205
29953,Gopinathpur,12,217.0,22.8076683,88.0534236
29954,Goyalpara,13,217.0,25.3099413,88.08763359999999
29955,Pulinda,14,217.0,24.0064708,88.2777465
29956,Nawda,15,217.0,23.9072888,88.4573454
29957,Sahapur,16,217.0,22.5171539,88.17060470000001
29958,Ratanpur,17,217.0,22.7985332,88.44402250000002
29959,Betberia,18,217.0,22.3528939,88.57706499999999
29960,Kheyali,19,217.0,22.329039,88.12448660000001
29961,Bil Bhandardah,20,217.0,-1.0,-1.0
29962,Paluighata,21,217.0,26.780032,88.2412504
29963,Jafarabad,22,217.0,23.9666221,88.3032755
29964,Sattarpur,23,217.0,23.9889046,88.3020602
29965,Chaitanyapur,24,217.0,22.1375089,88.0799371
29966,Kaharpara,25,217.0,23.9842978,88.2886893
29967,Bhadur,26,217.0,22.9286651,87.7443457
29968,Daluya,27,217.0,-1.0,-1.0
29969,Rameswarpur,28,217.0,23.0296791,88.1949782
29970,Nalkunda,29,217.0,23.9668435,88.2564608
29971,Bhabtakharida,30,217.0,23.9801658,88.25159409999999
29972,Maheshpur,31,217.0,22.2816125,88.3633918
29973,Ratangopbati,32,217.0,22.8434071,87.5984931
29974,Sujapur,33,217.0,25.0690815,88.13767899999999
29975,Radhaballabhpur,34,217.0,22.6942321,88.15719349999999
29976,Banmalipur,35,217.0,-1.0,-1.0
29977,Bhabanandapur,36,217.0,24.2923556,87.75296
29978,Jalalpur Diar,37,217.0,23.9601411,88.1907138
29979,Baralu,38,217.0,-1.0,-1.0
29980,Harinarayanpur,39,217.0,22.2237114,88.4609782
29981,Shibpur,40,217.0,22.5723094,88.3117819
29982,Shrikrishnapur,41,217.0,22.8977074,88.5384045
29983,Jalalpur,42,217.0,24.8936308,88.0700482
29984,Char Diar,43,217.0,-1.0,-1.0
29985,Kumarpur,44,217.0,23.6959678,86.9386238
29986,Araji Giridharipur,45,217.0,-1.0,-1.0
29987,Dayanagar,46,217.0,23.9716078,88.21812039999999
29988,Araji Jalalpur,47,217.0,-1.0,-1.0
29989,Jhunka,48,217.0,23.9629688,88.2424674
29990,Debkundu,49,217.0,23.9481874,88.24976889999999
29991,Madda,50,217.0,23.8913567,87.92183589999999
29992,Beldanga,51,217.0,-1.0,-1.0
29993,Hareknagar,52,217.0,23.9230681,88.2631517
29994,Bishannanagar,53,217.0,22.5867296,88.41709879999999
29995,Manik Nagar,54,217.0,23.3111546,88.3457906
29996,Kajisaha,55,217.0,23.9201938,88.29277499999999
29997,Begunbari,56,217.0,23.9187582,88.2765304
29998,Chak Hijuli,57,217.0,23.1851337,88.57334310000002
29999,Andiran,58,217.0,23.9185674,88.2595023
30000,Saruliya,59,217.0,-1.0,-1.0
30001,Barua,60,217.0,22.4638497,87.3339099
30002,Majhyampur,61,217.0,23.9396686,88.2227061
30003,Giridharipur,62,217.0,24.0926336,87.91509309999999
30004,Meliani,63,217.0,23.9344051,88.21446720000002
30005,Mirjapur,64,217.0,23.2817971,87.88197699999999
30006,Char Mirjapur,65,217.0,23.9016734,88.2120315
30007,Nawpukuriya,120,217.0,22.4191218,86.96472639999999
30008,Kapasdanga,125,217.0,-1.0,-1.0
30009,Char Kamnagar,66,218.0,23.9224003,88.20472380000001
30010,Kamnagar,67,218.0,23.9161693,88.1803557
30011,Nagar,68,218.0,24.0921434,87.9898205
30012,Maklishpur,69,218.0,23.8969444,88.18888609999999
30013,Saharbati,70,218.0,23.9022257,88.1955873
30014,Saharbati Diar,71,218.0,23.8962652,88.194369
30015,Alikpur,72,218.0,23.8941134,88.2010694
30016,Mashimpur,73,218.0,-1.0,-1.0
30017,Sekendarpur,74,218.0,22.756538,87.8954717
30018,Bazar Sau,75,218.0,23.8731015,88.1840118
30019,Ismalipur,76,218.0,26.2546438,88.19741479999999
30020,Kataikona,77,218.0,23.8624215,88.16085149999999
30021,Mian,78,218.0,23.8446391,88.16572839999999
30022,Shaktipur,79,218.0,23.8595911,88.19877679999999
30023,Santoshpur,80,218.0,22.4896872,88.38947689999999
30024,Chandpur,81,218.0,-1.0,-1.0
30025,Chandpur Diar,82,218.0,23.8616046,88.21812039999999
30026,Char Shaktipur,83,218.0,23.8577542,88.2065508
30027,Mahata,84,218.0,23.4845528,87.8046111
30028,Panchkatia,85,218.0,23.8398146,88.1980239
30029,Baidyapur,86,218.0,23.1597449,88.24490139999999
30030,Gholla,87,218.0,23.8226387,88.191323
30031,Jaykrishnapur,88,218.0,24.6366877,87.9592096
30032,Dopukharia,89,218.0,-1.0,-1.0
30033,Garduara,90,218.0,23.8399417,88.20898679999999
30034,Arazi Jaykrishnapur,91,218.0,23.8354955,88.2102047
30035,Manikahar,92,218.0,23.8271983,88.1998512
30036,Chak Rangapara,93,218.0,23.8197218,88.1961965
30037,Palitpara,94,218.0,23.8168895,88.2083778
30038,Narkelbari,95,218.0,23.8399248,88.23588
30039,Mahammadpur,96,218.0,22.1879672,87.9224488
30040,Sompara,97,218.0,-1.0,-1.0
30041,Mahatpur,98,218.0,23.4824161,88.50817649999999
30042,Bachhara,99,218.0,23.7931279,88.2108137
30043,Dakshin Bachhara,100,218.0,23.782621,88.20228759999999
30044,Sujapur,101,218.0,25.0690815,88.13767899999999
30045,Char Ererdanga,102,218.0,-1.0,-1.0
30046,Kadkhali,103,218.0,23.7695048,88.22542589999999
30047,Ramnagar,104,218.0,21.6786436,87.5631613
30048,Bidupara,105,218.0,23.8067471,88.23151299999999
30049,Chak Bidupara,106,218.0,-1.0,-1.0
30050,Char Mahammadpur,107,218.0,23.821809,88.2485521
30051,Manganpara,108,218.0,25.0147579,88.06197859999999
30052,Rejinagar,109,218.0,23.8501267,88.2546358
30053,Rampara Faridpur,110,218.0,23.8453206,88.2242084
30054,Chak Chandpur,111,218.0,23.8786996,88.03386309999999
30055,Pilkhana,112,218.0,22.5926949,88.34003589999999
30056,Takipur,113,218.0,22.8641529,87.927352
30057,Ramnadadpur,114,218.0,-1.0,-1.0
30058,Jalkar Dadpur,115,218.0,23.8729569,88.2357734
30059,Masimpur Diar,116,218.0,-1.0,-1.0
30060,Sadatpur,117,218.0,22.345005,87.26058909999999
30061,Sadhukhali,118,218.0,23.8805009,88.2455099
30062,Chhatiani,119,218.0,23.8930057,88.2339475
30063,Maradighi,121,218.0,23.8858622,88.2595023
30064,Amarpur,122,218.0,22.0499237,87.5272212
30065,Janpur,123,218.0,-1.0,-1.0
30066,Jagamohanpur,124,218.0,23.8741324,88.2740982
30067,Bikalnagar,126,218.0,22.5867296,88.41709879999999
30068,Hariganj,127,218.0,23.8480807,88.2710578
30069,Jaynagar,128,218.0,22.1771902,88.4258483
30070,Loknathapur,129,218.0,23.8182357,88.261327
30071,Ekdala,130,218.0,25.4823856,88.4640053
30072,Tegharia,131,218.0,22.940958,88.3906897
30073,Najirpur,132,218.0,-1.0,-1.0
30074,Kulbaria,133,218.0,24.1382538,88.3700662
30075,Gopalpur,134,218.0,23.4976267,87.3959564
30076,Kashipur,135,218.0,23.4341206,86.6678714
30077,Jhikra,136,218.0,22.8912488,88.6506644
30078,Shukurpukur,137,218.0,23.8480624,88.3372909
30079,Andulbaria,138,218.0,23.48,88.88
30080,Lakshmanpur,1,219.0,22.6359557,88.2740982
30081,Diha,2,219.0,-1.0,-1.0
30082,Natungram,3,219.0,23.6041114,88.1346291
30083,Debidaspur,4,219.0,24.143343,88.2260347
30084,Khili,5,219.0,24.1468808,88.2108137
30085,Fatepur,6,219.0,22.2846143,88.232467
30086,Bahara,7,219.0,24.4087746,88.1266983
30087,Bagmara,8,219.0,24.1374839,88.23333889999999
30088,Nawda,9,219.0,23.9072888,88.4573454
30089,Raniswar,10,219.0,24.1376374,88.24672679999999
30090,Lakshminarayanpur,11,219.0,21.9776321,88.28625780000002
30091,Bundaipara,12,219.0,23.6796238,87.6894999
30092,Nialishpara,13,219.0,24.1205012,88.2424674
30093,Tikiapara,14,219.0,22.5947903,88.3251456
30094,Goyaljan,15,219.0,-1.0,-1.0
30095,Araji Budharpara,16,219.0,-1.0,-1.0
30096,Budharpara,17,219.0,24.1123078,88.2406419
30097,Gopjan,18,219.0,-1.0,-1.0
30098,Muktarpur,19,219.0,22.795877,87.7234185
30099,Balarampur,20,219.0,23.0943913,86.22029619999999
30100,Andharmanik,21,219.0,22.3701738,88.3555025
30101,Basudebkhali,22,219.0,-1.0,-1.0
30102,Jagannathpur,23,219.0,22.7462731,88.4467528
30103,Sahajadpur,24,219.0,-1.0,-1.0
30104,Kandibanda,25,219.0,-1.0,-1.0
30105,Nishchintapur,26,219.0,22.460581,88.1730427
30106,Bahurul,27,219.0,22.3674751,88.10717029999999
30107,Bil Chauti,28,219.0,24.0545242,88.191323
30108,Majhira,29,219.0,24.0454928,88.1815744
30109,Gobindapur,30,219.0,22.3781175,88.4052416
30110,Araji Madhupur,31,219.0,24.0290153,88.17060470000001
30111,Dabkai,32,219.0,24.0194923,88.18218379999999
30112,Kodla,33,219.0,-1.0,-1.0
30113,Araji Chhiruti,34,219.0,-1.0,-1.0
30114,Uttar Hijal,35,219.0,23.993172,88.1559741
30115,Kanthaliya,36,219.0,22.1272024,87.4195123
30116,Dakshin Hijal,37,219.0,23.9768665,88.15963219999999
30117,Chourigachha,38,219.0,23.0339067,88.6168969
30118,Bara Satui,39,219.0,23.9518442,88.1803557
30119,Bhagabanbati,40,219.0,23.1297379,87.5531823
30120,Chhoto Satui,41,219.0,-1.0,-1.0
30121,Sona Diar,42,219.0,23.9387091,88.2010694
30122,Basabari,43,219.0,23.9740677,88.1742616
30123,Gangadharpur,44,219.0,22.5870314,88.15963219999999
30124,Char Bhabanandapur,45,219.0,23.9771841,88.186449
30125,Char Sujapur,46,219.0,23.9805821,88.2229909
30126,Chak Kanthaliya,47,219.0,22.7592872,88.3906897
30127,Char Dangapara,48,219.0,26.5107586,88.71204879999999
30128,Chhiruti,49,219.0,-1.0,-1.0
30129,Rangamati Chandpara,50,219.0,24.0187995,88.186449
30130,Pakamati Mahula,51,219.0,24.0129119,88.191323
30131,Char Mahula,52,219.0,23.9998056,88.21446720000002
30132,Par Halalpur,53,219.0,24.0132242,88.21812039999999
30133,Par Khidirpur,54,219.0,22.5648685,88.3831967
30134,Jadupur,55,219.0,25.0799986,88.1460433
30135,Char Halalpur,56,219.0,24.010167,88.2108137
30136,Char Khidirpur,57,219.0,22.5344835,88.3228358
30137,Chak Chandpara,58,219.0,-1.0,-1.0
30138,Pratappur Chandpara,59,219.0,24.0248015,88.191323
30139,Samaskar,60,219.0,24.0411921,88.1949782
30140,Sungai,61,219.0,24.0458354,88.2108137
30141,Fatesingh Diar,62,219.0,-1.0,-1.0
30142,Mankara,63,219.0,24.0373386,88.2473352
30143,Math Binkar,64,219.0,24.0261991,88.2479436
30144,Baninathpur,65,219.0,24.0292682,88.2564608
30145,Bejpara,66,219.0,-1.0,-1.0
30146,Baikunthpur,67,219.0,26.4715608,88.8679229
30147,Bhatpara,68,219.0,22.8562412,88.406454
30148,Sundipur,69,219.0,24.0421947,88.2826103
30149,Nawpara,70,219.0,22.5611026,87.9837
30150,Simuliya,71,219.0,23.7644548,88.05220130000001
30151,Panch Beriya,72,219.0,23.2225238,88.6051183
30152,Rajdharpara,73,219.0,24.0602443,88.3020602
30153,Purba Narayanpur,74,219.0,-1.0,-1.0
30154,Kharsadanga,75,219.0,24.0779699,88.2923363
30155,Nawda Panur,76,219.0,-1.0,-1.0
30156,Kaya,77,219.0,23.3201131,88.49728920000001
30157,Tarakpur,78,219.0,24.0778616,88.2826103
30158,Shibdanga Badarpur,79,219.0,24.0956396,88.2777465
30159,Pakuria,80,219.0,22.6197151,88.2874736
30160,Chaltia,81,219.0,24.0657544,88.2631517
30161,Bairgachhi,82,219.0,-1.0,-1.0
30162,Pashchim Narayanpur,83,219.0,24.0497969,88.2321216
30163,Char Narayanpur,84,219.0,24.0474766,88.2242084
30164,Bairgachhi Kanandiar,85,219.0,-1.0,-1.0
30165,Char Begpur,86,219.0,24.0578935,88.22542589999999
30166,Haridasmati,87,219.0,24.071422,88.2388162
30167,Beliakhari,88,219.0,-1.0,-1.0
30168,Ayodhyanagar,89,219.0,-1.0,-1.0
30169,Gorabazar,90,219.0,24.0852019,88.2495048
30170,Gar Baharampur,91,219.0,24.0872954,88.2625435
30171,Madhupur,92,219.0,26.363461,89.3807678
30172,Bishnupur,93,219.0,23.0678795,87.3165222
30173,Bil Bishnupur,94,219.0,-1.0,-1.0
30174,Khagra Joychand,95,219.0,24.1102919,88.2614475
30175,Baha Kanshari Bazar,96,219.0,-1.0,-1.0
30176,Khagra,97,219.0,24.107308,88.2582857
30177,Kanta nagar,98,219.0,24.3427081,88.3190717
30178,Kalikapur,99,219.0,-1.0,-1.0
30179,Saidabad,100,219.0,24.1262387,88.2492657
30180,Kalikapur Kadamkhandi,101,219.0,-1.0,-1.0
30181,Cossimbazar,102,219.0,24.1179699,88.2813944
30182,Nagpara,103,219.0,24.1210773,88.2935519
30183,Shibpur,104,219.0,22.5723094,88.3117819
30184,Banjetia,105,219.0,24.1109141,88.2860168
30185,Madapur,106,219.0,24.1019077,88.3069213
30186,Pashchim Gopinathpur,107,219.0,22.8076683,88.0534236
30187,Kariagachhi,108,219.0,24.0907693,88.3075289
30188,Putijole,109,219.0,-1.0,-1.0
30189,Udaynagar,110,219.0,-1.0,-1.0
30190,Hatinagar,111,219.0,-1.0,-1.0
30191,Janmahammadpur,112,219.0,24.1281215,88.3440732
30192,Ustiya,113,219.0,-1.0,-1.0
30193,Muli Araji,114,219.0,-1.0,-1.0
30194,Harirampur,115,219.0,-1.0,-1.0
30195,Baliadanga,116,219.0,23.9373131,88.6470477
30196,Purandarpur,117,219.0,23.8559912,87.5819618
30197,Edilpur,118,219.0,23.3941836,88.3587251
30198,Chhota Garbasa,119,219.0,24.1181871,88.36945949999999
30199,Muli,120,219.0,24.1130055,88.3712796
30200,Jhanjha,121,219.0,24.068208,88.49607929999999
30201,Benidaspur,122,219.0,24.1202673,88.3555025
30202,Garabasa,123,219.0,-1.0,-1.0
30203,Maharajpur,124,219.0,-1.0,-1.0
30204,Hanumantanagar,125,219.0,24.3579894,88.3560339
30205,Gouripur,126,219.0,22.0756355,88.2546358
30206,Ruhia,127,219.0,24.1501925,88.37491969999999
30207,Kulberiya,128,219.0,22.544383,88.50091859999999
30208,Daulatabad,129,219.0,-1.0,-1.0
30209,Mukundapur,130,219.0,22.4923566,88.4086493
30210,Garaipur,131,219.0,-1.0,-1.0
30211,Sadipur,132,219.0,23.1282478,87.9751299
30212,Chhutipur,133,219.0,23.6916708,88.1815744
30213,Purba Gopinathpur,134,219.0,21.7935846,87.836556
30214,Selamatpur,135,219.0,24.0940558,88.406454
30215,Dadpur,136,219.0,-1.0,-1.0
30216,Gangaprasad,137,219.0,24.1144226,88.436148
30217,Natunpara,138,219.0,22.3710326,88.4428112
30218,Madanpur,139,219.0,-1.0,-1.0
30219,Ruharpara,140,219.0,24.1255984,88.4391768
30220,Baliharpur,141,219.0,24.0910992,87.51237970000001
30221,Habipur,142,219.0,23.1697666,88.5159743
30222,Dhanaipur,143,219.0,-1.0,-1.0
30223,Mirpur,144,219.0,22.7093319,88.3117819
30224,Sundalpur,145,219.0,24.0133897,88.6771771
30225,Hogaldanga,146,219.0,24.1681251,88.384625
30226,Chhaighori,147,219.0,23.0298605,88.8575011
30227,Hajidanga,148,219.0,24.1685289,88.4234245
30228,Baradaha,149,219.0,24.1626849,88.4331189
30229,Kaladanga,150,219.0,-1.0,-1.0
30230,Ganyati Baishnab Charan,151,219.0,-1.0,-1.0
30231,Char Islampur,152,219.0,24.1510433,88.4573454
30232,Garamgari,153,219.0,24.1405563,88.4488677
30233,Nidhinagar Sarsabad,154,219.0,24.1272193,88.4525012
30234,Char Harharia,155,219.0,24.1408473,88.4779272
30235,Char Panchananpur,156,219.0,24.1273166,88.46218909999999
30236,Dakshin Hanumantanagar,1,220.0,-1.0,-1.0
30237,Kantanagar,2,220.0,24.3427081,88.3190717
30238,Meoakhana,3,220.0,24.3558725,88.3008448
30239,Diar Shyampur,4,220.0,24.3469617,88.3008448
30240,Mahishasthali,6,220.0,24.3278293,88.3166419
30241,Belia Shyampur,7,220.0,24.3394408,88.2923363
30242,Mahatpur,8,220.0,23.4824161,88.50817649999999
30243,Dostina,9,220.0,-1.0,-1.0
30244,Upar Orahar,10,220.0,24.3345586,88.2546358
30245,Sundarpur,11,220.0,23.8730463,87.9420584
30246,Basantapur,12,220.0,23.0514043,88.0191871
30247,Sadashib,13,220.0,22.2127243,87.4209102
30248,Pashchim Gobindapur,14,220.0,24.3049096,88.2595023
30249,Lalitakuri,15,220.0,23.5511811,86.9836798
30250,Chak Mahammadpur,16,220.0,-1.0,-1.0
30251,Mahammadpur,17,220.0,22.1879672,87.9224488
30252,Malipara,18,220.0,25.1464087,88.2199469
30253,Saoragachhi,19,220.0,22.6945154,87.99410429999999
30254,Gobindatola,20,220.0,24.2891817,88.2479436
30255,Pashchim Rampur,21,220.0,25.6263228,88.2971985
30256,Naodapara,22,220.0,24.2797006,88.2631517
30257,Chainpara,23,220.0,-1.0,-1.0
30258,Rameshwarbati,24,220.0,22.3017721,88.22542589999999
30259,Bil Gobra,25,220.0,22.6911517,88.2826103
30260,Digha,26,220.0,21.6266172,87.5074315
30261,Ramna Gobra,27,220.0,24.2902496,88.2765304
30262,Barbariya,28,220.0,22.7465378,88.4573454
30263,Chengta,29,220.0,24.3050753,88.2740982
30264,Chak Sundarpur,30,220.0,-1.0,-1.0
30265,Pashchim Kashipur,31,220.0,-1.0,-1.0
30266,Telia,32,220.0,22.6393532,88.6277537
30267,Purbba Kashipur,33,220.0,22.3302115,87.92183589999999
30268,Bhudar kismat,34,220.0,22.4269056,88.3019391
30269,Kismat Tatla,35,220.0,24.3038493,88.2971985
30270,Gobra,36,220.0,22.5397507,88.3789178
30271,Arazi Kulgachhi,37,220.0,-1.0,-1.0
30272,Bajitpur,38,220.0,22.7081418,88.8527026
30273,Subarnamrigi,39,220.0,24.2793884,88.3014525
30274,Ramchandrapur,40,220.0,22.8911172,88.4706642
30275,Balarampur,41,220.0,23.0943913,86.22029619999999
30276,Palashbati,42,220.0,-1.0,-1.0
30277,Balia Hosennagar,45,220.0,-1.0,-1.0
30278,Chhakkanagar,46,220.0,-1.0,-1.0
30279,Arazi Paikpara,47,220.0,26.5117699,88.2339475
30280,Math Barenda,48,220.0,22.5182292,88.35658869999999
30281,Kochgiria,49,220.0,24.2684158,88.3166419
30282,Madapur,50,220.0,24.1019077,88.3069213
30283,Chandipur Ramkantapur,51,220.0,-1.0,-1.0
30284,Kulgacchi,52,220.0,23.4204846,88.56861099999999
30285,Madhya Gobindapur,53,220.0,-1.0,-1.0
30286,Maheshpur,54,220.0,22.2816125,88.3633918
30287,Habaspur,55,220.0,-1.0,-1.0
30288,Kasba Bahadurpur,56,220.0,24.2983894,88.3409338
30289,Patti Bahadurpur,57,220.0,24.2968115,88.3324332
30290,Sultanpur,58,220.0,22.7733524,87.7098723
30291,Purbba Rampur,60,220.0,-1.0,-1.0
30292,Rasulpur,61,220.0,-1.0,-1.0
30293,UttarBasudebpur,62,220.0,23.0040508,88.16694749999999
30294,Dakshin Naya kharida Babupur,67,220.0,-1.0,-1.0
30295,Dakshin Purbba Nirmmalchar,68,220.0,-1.0,-1.0
30296,Ramnapara,43,221.0,24.2430149,88.3032755
30297,Amdahara Haji Ganja,44,221.0,-1.0,-1.0
30298,Malipur,59,221.0,-1.0,-1.0
30299,Anup Nagar,63,221.0,24.6795342,87.9457342
30300,Baligram,64,221.0,24.2382182,88.27288209999999
30301,Mehadipur,65,221.0,24.3089574,88.3567163
30302,Nashipur,66,221.0,24.3195752,88.37734619999999
30303,Dihi Dumuria,69,221.0,24.3439473,88.4355422
30304,Khamar-Diar,70,221.0,24.3200831,88.4258483
30305,Hasanpur,71,221.0,-1.0,-1.0
30306,Alaipur,72,221.0,23.0117591,88.4742958
30307,Shankarpur,73,221.0,21.6491352,87.5698638
30308,Saidpur,74,221.0,22.8426204,87.9316419
30309,Goalpara,75,221.0,25.3099413,88.08763359999999
30310,Nazirpur,76,221.0,-1.0,-1.0
30311,Fulpur,77,221.0,24.279637,88.3931154
30312,Jhikra,78,221.0,22.8912488,88.6506644
30313,Ranitala,79,221.0,24.2771712,88.3706729
30314,Balijana,80,221.0,24.2808265,88.3652122
30315,Nandanpur,81,221.0,22.647108,87.8402405
30316,Jibanpur,82,221.0,23.3654013,86.7630057
30317,Rajapur,83,221.0,-1.0,-1.0
30318,Khagjana,84,221.0,-1.0,-1.0
30319,Kalyan Nagar,85,221.0,22.7205902,88.3931154
30320,Faridpur,86,221.0,-1.0,-1.0
30321,Jot Sahabaj,87,221.0,24.2673141,88.3518608
30322,Topidanga,88,221.0,24.2516443,88.34518349999999
30323,Kolan Radhakantapur,89,221.0,-1.0,-1.0
30324,Bhandara,90,221.0,-1.0,-1.0
30325,Dakshin Basudebpur,91,221.0,22.9114067,88.13767899999999
30326,Arazi Nista,92,221.0,24.2314775,88.3348621
30327,Palashi Sonadanga,93,221.0,24.2330815,88.3457906
30328,Dhwajamati,94,221.0,-1.0,-1.0
30329,Kamalchak,95,221.0,24.2495925,88.3615713
30330,Boalia,96,221.0,23.2770329,88.5057574
30331,Sahari,97,221.0,-1.0,-1.0
30332,Mathurapur,98,221.0,22.1202674,88.39432819999999
30333,Jogapur,99,221.0,-1.0,-1.0
30334,Daulatpur,100,221.0,25.3290095,88.3269552
30335,Jafrabad,101,221.0,24.2797893,88.4076664
30336,Sahapur,102,221.0,22.5171539,88.17060470000001
30337,Arazi-Alaipur,103,221.0,24.2953673,88.40584779999999
30338,Saralpur,104,221.0,24.2872291,88.4088788
30339,Giridharipur,105,221.0,-1.0,-1.0
30340,Munsarpur,106,221.0,24.3127437,88.4343306
30341,Akheriganja,107,221.0,24.3076502,88.4446282
30342,Rajagola,108,221.0,24.3058027,88.44553669999999
30343,Mabarakganja,109,221.0,-1.0,-1.0
30344,Kasiadanga,110,221.0,23.5492211,88.3457906
30345,Gopiramanpur,111,221.0,24.3038811,88.4391768
30346,Benipur,112,221.0,22.7064285,88.2491605
30347,Pukhuria,113,221.0,25.1314084,88.02897159999999
30348,Debaipur,114,221.0,24.2815874,88.4379653
30349,Pirojpur,115,221.0,24.5183641,88.1047287
30350,Purba Gobindapur,116,221.0,22.2032629,88.2083778
30351,Kamari,117,221.0,23.7102986,88.24976889999999
30352,Rajabati,118,221.0,24.2642485,88.4131218
30353,Jayrampur,119,221.0,22.5930997,88.16938569999999
30354,Harirampur,120,221.0,-1.0,-1.0
30355,Lahari,121,221.0,24.2531008,88.4125157
30356,Arazi Harirampur,122,221.0,24.255285,88.40827259999999
30357,Chhatai,123,221.0,24.245534,88.3991789
30358,Dakshin Sahar,124,221.0,24.2394899,88.38947689999999
30359,Char Molladanga,125,221.0,24.2890518,88.44159979999999
30360,Kuthibari,126,221.0,23.6538442,86.82046509999999
30361,Jazira Char Dumuria,127,221.0,24.3324576,88.4742958
30362,Uttar-Purbba Nirmalchar,128,221.0,-1.0,-1.0
30363,Dakshin Bhatpara Arazi,129,221.0,-1.0,-1.0
30364,Dakshin Char Jhaubona,130,221.0,-1.0,-1.0
30365,Dakshin Jajira Char Dumuria,131,221.0,24.3252592,88.49728920000001
30366,Raghunathpur Palisha,1,222.0,23.93071,88.0326403
30367,Gunanandabati,2,222.0,23.9255931,88.0393654
30368,Bhatera,3,222.0,23.9297465,88.0445613
30369,Britti Gangedda,4,222.0,-1.0,-1.0
30370,Baidyapur,5,222.0,23.1597449,88.24490139999999
30371,Matiara,6,222.0,23.873506,87.66057909999999
30372,Ajitpur,7,222.0,23.9165658,88.030806
30373,Shaktipur,8,222.0,23.8595911,88.19877679999999
30374,Jajan,9,222.0,23.9068338,88.0253027
30375,Akta,10,222.0,23.9088989,88.01245899999999
30376,Sardanga,11,222.0,23.4635942,88.2692335
30377,Harishchandrapur,12,222.0,-1.0,-1.0
30378,Bindarpur,13,222.0,24.0941672,88.2789625
30379,Chakchandapur,14,222.0,23.8786996,88.03386309999999
30380,Jadabpur,15,222.0,22.4939728,88.37067119999999
30381,Ruha,16,222.0,23.8913738,88.03692
30382,Gundiria,17,222.0,23.9100554,88.0448669
30383,Hamidpur,18,222.0,22.8762263,88.4706642
30384,Sripatipur,19,222.0,24.1350229,88.49002949999999
30385,Gangedda,20,222.0,23.9213808,88.0589234
30386,Simulgachhi,21,222.0,22.7105145,88.58913919999999
30387,Rajarampur,22,222.0,24.3573495,88.1860087
30388,Kamlakantapur,23,222.0,23.7025359,87.6593461
30389,Mandalpur,24,222.0,24.4149511,88.0012373
30390,Chamardani,25,222.0,23.92547,88.0888549
30391,Sank Palisa,26,222.0,-1.0,-1.0
30392,Arazi Chuator,27,222.0,23.9142536,88.0833588
30393,Arazi Jagadishbati,28,222.0,-1.0,-1.0
30394,Bhabanipur,29,222.0,22.4224226,88.4422055
30395,Sankar Marui,30,222.0,23.9104844,88.07908359999999
30396,Chuator,31,222.0,23.9185457,88.069921
30397,Baje Chuator,32,222.0,23.9133355,88.0693101
30398,Arazi Bhbanipur,33,222.0,23.1084947,88.4706642
30399,Ibrahimpur,34,222.0,25.4868641,88.3979663
30400,Chhatrapur,35,222.0,25.6363916,88.1510962
30401,Jakhani,36,222.0,23.8923102,88.05220130000001
30402,Kolla,37,222.0,22.9898326,88.3652122
30403,Kharchandpur,38,222.0,23.8743485,88.0424219
30404,Ruha Palisha,39,222.0,23.8804181,88.05220130000001
30405,Santoshpur,40,222.0,-1.0,-1.0
30406,Manoharpur,41,222.0,22.6108262,87.59147899999999
30407,Talgram,42,222.0,23.8624559,88.0424219
30408,Bil Panchthupi,43,222.0,23.8665574,88.01429399999999
30409,Gadda,44,222.0,22.7931994,87.355015
30410,Singhari,45,222.0,24.0190302,87.75296
30411,Shyampur,46,222.0,22.299502,88.02774869999999
30412,Chanchhoan,47,222.0,25.3830475,88.01674059999999
30413,Balichuna,48,222.0,-1.0,-1.0
30414,Kashipur,49,222.0,23.4341206,86.6678714
30415,Gidgram,50,222.0,23.8354861,88.0228303
30416,Sahabajpur,51,222.0,24.8264967,88.06564449999999
30417,Bharadanga Serpur,52,222.0,23.8504081,88.0301946
30418,Gaysabad,53,222.0,23.8550372,88.04067049999999
30419,Shunuti,54,222.0,-1.0,-1.0
30420,Manpara,55,222.0,23.8295639,88.02774869999999
30421,Atkula,56,222.0,23.5851384,87.8721602
30422,Dechapra,62,222.0,23.5155347,88.54928129999999
30423,Kharinda,63,222.0,-1.0,-1.0
30424,Parbbatpur,64,222.0,-1.0,-1.0
30425,Karandi,65,222.0,23.8568776,88.0717537
30426,Masundi,66,222.0,23.7040084,87.9763543
30427,Brahmandihi,67,222.0,23.7663338,87.9108016
30428,Bharatpur,68,222.0,23.8837878,88.0839695
30429,Alugram,69,222.0,23.9032785,88.097403
30430,Shunia,70,222.0,21.7748929,87.4628736
30431,Sehalai,71,222.0,-1.0,-1.0
30432,Chak Ballabhpur,72,222.0,23.9286234,88.1035078
30433,Madanpur Dafarpur,73,222.0,23.9227674,88.1108325
30434,Gobindapur,74,222.0,-1.0,-1.0
30435,Berbari,75,222.0,-1.0,-1.0
30436,Bulchandpur,76,222.0,22.9783217,87.7824821
30437,Uttar Sahapur,77,222.0,-1.0,-1.0
30438,Masla,78,222.0,23.9042683,88.1175456
30439,Korea,79,222.0,23.8979097,88.1141892
30440,Podmur,80,222.0,23.8954972,88.1297488
30441,Sijgram,81,222.0,23.8840884,88.108391
30442,Bholta,82,222.0,23.8723444,88.1205967
30443,Saiyad Kulutia,83,222.0,23.8647179,88.1047287
30444,Binodia,84,222.0,23.8615344,88.08763359999999
30445,Munsurpur,123,222.0,23.8493089,88.12120689999999
30446,Sahapur,124,222.0,22.5171539,88.17060470000001
30447,Bilkarul,125,222.0,-1.0,-1.0
30448,Ekdala,126,222.0,25.4823856,88.4640053
30449,Kanchan Garia,127,222.0,23.8814412,88.13523909999999
30450,Narayanpur,128,222.0,22.6453065,88.46218909999999
30451,Bhaluipara,129,222.0,23.9031209,88.1456078
30452,Amlai,130,222.0,23.9052848,88.1401188
30453,Lohadaha,131,222.0,23.884562,88.1788323
30454,Khayra,132,222.0,22.4941969,87.8199721
30455,Ghoshkura,133,222.0,23.8729004,88.16694749999999
30456,Katai Kona,134,222.0,-1.0,-1.0
30457,Haranandapur,135,222.0,23.777377,87.9028307
30458,Rautari,57,223.0,-1.0,-1.0
30459,Masadda,58,223.0,23.8991618,87.6864647
30460,Nabagram,59,223.0,23.111247,88.04364439999999
30461,Ayajuni,60,223.0,-1.0,-1.0
30462,Salu,61,223.0,22.2695028,87.2866995
30463,Raigram,85,223.0,-1.0,-1.0
30464,Gulutia,86,223.0,-1.0,-1.0
30465,Gopgram,87,223.0,24.1657213,88.17060470000001
30466,Katundi,88,223.0,23.8040313,88.06625540000002
30467,Khanrera,89,223.0,-1.0,-1.0
30468,Dhur Sunda,90,223.0,23.7823582,88.05709019999999
30469,Dattabarutia,91,223.0,23.6861641,87.9763543
30470,Shimulia,92,223.0,-1.0,-1.0
30471,Erera,93,223.0,23.7510657,88.0583362
30472,Shirpara,94,223.0,23.7519917,88.06625540000002
30473,Jaulia,95,223.0,23.7400506,88.0625896
30474,Sonarundi,96,223.0,23.7286063,88.0638742
30475,Jalsuti,97,223.0,23.7290728,88.0766404
30476,Punasi,98,223.0,23.7425912,88.08763359999999
30477,Dakshin Khanda,99,223.0,23.6164822,87.2173042
30478,Kuluri,100,223.0,-1.0,-1.0
30479,Harinya,101,223.0,23.7531646,88.101066
30480,Salar,102,223.0,-1.0,-1.0
30481,Hamidhati Pilkhandi,103,223.0,23.7651646,88.10569149999999
30482,Kagram,104,223.0,23.7551969,88.14621770000001
30483,Dhandanga,105,223.0,23.8435943,87.8264221
30484,Bahara,106,223.0,24.4087746,88.1266983
30485,Talibpur-(107),107,223.0,-1.0,-1.0
30486,Purbbagram,108,223.0,24.2130271,88.1510962
30487,Hat Pilkhandi,109,223.0,-1.0,-1.0
30488,Matoa,110,223.0,-1.0,-1.0
30489,Madhaipur,111,223.0,23.9051521,87.4083557
30490,Kechunia,112,223.0,23.7833659,88.0191871
30491,Malihati,113,223.0,23.8084311,88.12181710000002
30492,Kandara,114,223.0,-1.0,-1.0
30493,Ghanashyampur,115,223.0,22.3166425,88.2229909
30494,Ujunia Shishua,116,223.0,23.7902319,88.0925186
30495,Senpara,117,223.0,23.968047,88.5927608
30496,Aocha,118,223.0,23.7959376,88.07297539999999
30497,Chunsahar,119,223.0,23.7984019,88.09190799999999
30498,Parchati,120,223.0,23.2414008,88.0986241
30499,Prasadpur,121,223.0,-1.0,-1.0
30500,Salinda,122,223.0,23.8267554,88.1004555
30501,Bara Baidyapur,136,223.0,23.8326295,88.1559741
30502,Nawapara,137,223.0,-1.0,-1.0
30503,Ghoshpara,138,223.0,22.645211,88.3355267
30504,Korgram,139,223.0,23.8189712,88.1327991
30505,Tenya,140,223.0,-1.0,-1.0
30506,Barahati,141,223.0,-1.0,-1.0
30507,Chak Gupura,142,223.0,23.8045107,88.16694749999999
30508,Sarmastapur,143,223.0,-1.0,-1.0
30509,Ramna Barakhari,144,223.0,23.7794487,88.1852304
30510,Jhikarhati,1,224.0,24.0321631,87.89363170000001
30511,Kalikapur,2,224.0,22.5009134,88.39493449999999
30512,Shital Gram,3,224.0,24.2464503,87.9751299
30513,Kunia,4,224.0,-1.0,-1.0
30514,daspara,5,224.0,26.4079015,88.4331189
30515,Siddheshwari,6,224.0,24.0139629,87.921223
30516,Bahara,7,224.0,24.4087746,88.1266983
30517,Kalyanpur,8,224.0,22.5006615,87.91509309999999
30518,Aikalpara,9,224.0,23.999571,87.9009911
30519,Kapsa,10,224.0,24.0046131,87.88933829999999
30520,Padmalabhbati,11,224.0,24.0000033,87.8782959
30521,Kundal,12,224.0,-1.0,-1.0
30522,Badda,13,224.0,23.9894484,87.8672509
30523,Bichhur,14,224.0,23.9896514,87.88197699999999
30524,Mallikpur,15,224.0,22.3245165,88.12791849999999
30525,Andi,16,224.0,23.9908022,87.9086264
30526,Mahishgram,17,224.0,23.5669009,87.9543099
30527,Debagram,18,224.0,23.6886494,88.3093517
30528,Kapsakismat,19,224.0,23.9776274,87.8721602
30529,Belgaon,20,224.0,23.9700439,87.8611136
30530,Mahula,21,224.0,23.9999181,88.2242084
30531,Mishra Taloa,22,224.0,-1.0,-1.0
30532,Fulsikhar,23,224.0,23.947904,87.8721602
30533,Biprasekhar,24,224.0,23.9541182,87.8917917
30534,Kamarmuni,25,224.0,23.9616662,87.9003778
30535,Amritamuni,26,224.0,23.9677442,87.9101885
30536,Baratia,27,224.0,23.68721,86.973343
30537,Haldi,28,224.0,23.3400989,87.793548
30538,Kharjuna,29,224.0,23.9836381,87.9316419
30539,Bhabaninagar,30,224.0,24.1093181,87.99655200000001
30540,Lakshminarayanpur,31,224.0,21.9776321,88.28625780000002
30541,Haribati,32,224.0,23.9830343,87.9420584
30542,Mudda,33,224.0,-1.0,-1.0
30543,Ruithanpur,34,224.0,23.9771876,87.94940969999999
30544,Rojkhara,35,224.0,23.9770897,87.9420584
30545,Kuli,36,224.0,23.9714052,87.9616593
30546,Ramrampur,37,224.0,24.1901836,87.7738735
30547,Komodda,38,224.0,-1.0,-1.0
30548,Rahigram,39,224.0,24.1284975,88.04364439999999
30549,Gopipur,40,224.0,23.9412892,87.9322547
30550,Kurulia,41,224.0,23.1792814,88.934203
30551,Sabaldaha,42,224.0,24.1350348,87.9193841
30552,Kantur,43,224.0,23.9409257,87.9052834
30553,Shrinarayanpur,44,224.0,22.2237114,88.4609782
30554,Karbelia,45,224.0,23.9341959,87.90221749999999
30555,Baugram,46,224.0,23.9437313,87.8930184
30556,Durjjaypalsa,47,224.0,-1.0,-1.0
30557,Ghoshpalsa,48,224.0,23.9375847,87.8782959
30558,Surjyabati,49,224.0,-1.0,-1.0
30559,Samatari,50,224.0,23.9256608,87.8758417
30560,Ekpaharia,51,224.0,23.9235072,87.88136349999999
30561,Akundi,52,224.0,23.9340288,87.88995159999999
30562,Shrihatti,53,224.0,-1.0,-1.0
30563,Salpa,54,224.0,23.9291351,87.9126409
30564,Ruhina,55,224.0,23.9425613,87.9163191
30565,Barwan,56,224.0,23.9294316,87.93470579999999
30566,Simulia,57,224.0,23.7644548,88.05220130000001
30567,Ekamba,58,224.0,23.9468741,87.9610469
30568,Katna,59,224.0,23.9559208,87.9708442
30569,Chouki,60,224.0,-1.0,-1.0
30570,Nabagram,61,224.0,23.111247,88.04364439999999
30571,Monaikandra,62,224.0,23.994245,87.9617645
30572,Kapasdanga,63,224.0,23.9113389,88.2777465
30573,Faridpur,64,224.0,22.5618146,87.80952719999999
30574,Badua,65,224.0,23.9835203,87.978803
30575,Kumrai,66,224.0,27.0024623,88.827501
30576,Nabadurga,67,224.0,23.954595,87.9830879
30577,Golahat,68,224.0,-1.0,-1.0
30578,Kalla,69,224.0,23.7034445,86.9953578
30579,Singadda,70,224.0,23.9425604,87.9720688
30580,Raniara Masadda,71,224.0,23.9357672,87.96410879999999
30581,Gopalnagar,72,224.0,23.0613166,88.76178700000001
30582,Babarpur,73,224.0,-1.0,-1.0
30583,Lalitapur,74,224.0,22.8590876,87.2462844
30584,Konch Bandha,75,224.0,-1.0,-1.0
30585,Banshbere,76,224.0,22.9633531,88.3967536
30586,Hapina,77,224.0,-1.0,-1.0
30587,Rabi Surjyabati,78,224.0,-1.0,-1.0
30588,Jugashwara,79,224.0,22.608377,88.44135829999999
30589,Kayalipara,80,224.0,23.911266,87.9101885
30590,Panpardaha,81,224.0,23.9081603,87.9003778
30591,Kurcha,82,224.0,-1.0,-1.0
30592,Sainjuli,83,224.0,23.9021147,87.8930184
30593,Paikpara,84,224.0,22.613223,88.3804976
30594,Sadpur,85,224.0,22.8562156,88.73737129999999
30595,Panpara,86,224.0,23.1122143,88.7229325
30596,Rayhat,87,224.0,23.913669,87.86847829999999
30597,Ranipur,88,224.0,23.4782489,86.54764109999999
30598,Majiara,89,224.0,23.7168199,87.01744409999999
30599,Kalidaspur,90,224.0,-1.0,-1.0
30600,Sahora,91,224.0,23.8883163,87.8623411
30601,Shukuria,92,224.0,26.7551661,88.3797726
30602,Jagannathpur,93,224.0,22.7462731,88.4467528
30603,Ghasiara,94,224.0,22.4410844,88.4464452
30604,Tita,95,224.0,23.894532,87.88197699999999
30605,Bhagulia,96,224.0,23.884043,87.8758417
30606,Panuti,97,224.0,23.8817037,87.86786459999999
30607,Dewar,98,224.0,-1.0,-1.0
30608,Bhastor,99,224.0,23.870682,87.8770689
30609,Talbona,100,224.0,23.0827254,88.21264049999999
30610,Jhilera,101,224.0,23.884211,87.8881115
30611,Senai,102,224.0,22.9636854,87.6950899
30612,Mandra,103,224.0,22.798255,88.75300759999999
30613,Mansara,104,224.0,23.8694135,87.8930184
30614,Margram,105,224.0,-1.0,-1.0
30615,Kunnarun,106,224.0,23.8516422,87.8979248
30616,Chak Palashi,107,224.0,23.8517088,87.9028307
30617,Srirampur,108,224.0,22.748331,88.3385053
30618,Kogram,109,224.0,23.5555925,87.8868846
30619,Petari,110,224.0,23.8829082,87.9016043
30620,Kakra,111,224.0,22.0953527,87.7886302
30621,Sahebnagar,112,224.0,-1.0,-1.0
30622,Mahurakandi,113,224.0,23.9015133,87.9034439
30623,Pashupatibati,114,224.0,23.9054858,87.9224488
30624,Mirzzapur,115,224.0,23.2817971,87.88197699999999
30625,Dhanghara,116,224.0,21.8988832,87.6913936
30626,Gourinagar,117,224.0,23.9109096,87.9389949
30627,Bolpara,118,224.0,23.9008724,87.93868859999999
30628,Parshalika,119,224.0,-1.0,-1.0
30629,Rameshwarpur,120,224.0,22.2908582,88.05220130000001
30630,Gramshalika,121,224.0,23.9060077,87.9616593
30631,Ekghoria,122,224.0,23.9098767,87.9732932
30632,Srihatta,123,224.0,23.9231737,87.9671705
30633,Ojhara,124,224.0,23.9180278,87.9714565
30634,Bichkandi,125,224.0,-1.0,-1.0
30635,Nandibaneshwar,126,224.0,-1.0,-1.0
30636,Sabalpur,127,224.0,23.9129776,87.9830879
30637,Ballavpur,128,224.0,23.5806249,87.1260781
30638,Satitara,129,224.0,23.9062328,87.978803
30639,Nimabahadurpur,130,224.0,-1.0,-1.0
30640,Fatepur,131,224.0,22.2846143,88.232467
30641,Pachhipara,132,224.0,23.893726,87.9322547
30642,Andulia,133,224.0,23.9580186,88.0766404
30643,Madda,134,224.0,-1.0,-1.0
30644,Rajyadharpur,135,224.0,22.7480607,88.3271737
30645,Rajhat siuli,136,224.0,23.8712154,87.9163191
30646,Gafulia,137,224.0,23.8638325,87.91999700000001
30647,Hastinapur,138,224.0,23.8474971,87.921223
30648,Bharwan,139,224.0,23.8536401,87.9359313
30649,Chaitpur,140,224.0,23.9790742,88.50091859999999
30650,Hatishala,141,224.0,23.6415625,88.50454769999999
30651,Belgram,142,224.0,-1.0,-1.0
30652,Phupra,143,224.0,23.8912723,87.9714565
30653,Tagra,144,224.0,23.1250815,88.8479035
30654,Achhoan,145,224.0,-1.0,-1.0
30655,Shibrambati,146,224.0,23.8854546,87.9812516
30656,Janarddanpur,147,224.0,24.0916513,88.46218909999999
30657,Muniadihi,148,224.0,23.8946278,88.0008352
30658,Panchthupi,149,224.0,23.8885232,87.98859650000001
30659,Pulia,150,224.0,-1.0,-1.0
30660,Maliandi,151,224.0,-1.0,-1.0
30661,Beharkhanda-Nabagram,152,224.0,23.8695976,87.9622717
30662,Sundarpur,153,224.0,23.8730463,87.9420584
30663,Baidyanathpur,154,224.0,23.7186496,87.27924089999999
30664,Sonabharai,155,224.0,23.8538353,87.9506348
30665,Tarapur,156,224.0,23.5550522,87.1098612
30666,Jaoahari,157,224.0,22.5841989,88.35667989999999
30667,Bill-langalhata,158,224.0,-1.0,-1.0
30668,Majlishpur,159,224.0,25.9808118,87.87645529999999
30669,Mamudpur,160,224.0,-1.0,-1.0
30670,Panchananpur,1,225.0,24.1319314,88.4779272
30671,Char Panchananpur,2,225.0,-1.0,-1.0
30672,Dakshin Panchananpur,3,225.0,-1.0,-1.0
30673,Char Shyampur,4,225.0,24.0976923,88.4718747
30674,Gokulpur Gobindapur,5,225.0,24.1097724,88.49123949999999
30675,Baniakhali,6,225.0,-1.0,-1.0
30676,Shripatipur,7,225.0,22.7822731,88.1730427
30677,Kalabaria,8,225.0,23.9610783,88.64463649999999
30678,Masimpur,9,225.0,-1.0,-1.0
30679,Hetanpur,10,225.0,23.7778569,87.3991413
30680,Bagharpur Ramana,11,225.0,-1.0,-1.0
30681,Bajitpur,12,225.0,22.7081418,88.8527026
30682,Shambhu Nagar,13,225.0,24.2396545,88.2763396
30683,Mahabub Nagar,14,225.0,24.1535058,88.55773909999999
30684,Jitpur,15,225.0,23.9790742,88.50091859999999
30685,Radhakantapur,16,225.0,-1.0,-1.0
30686,Dhulauri,17,225.0,24.2267039,88.6000031
30687,Paikmari,18,225.0,24.2028431,88.5903465
30688,Daser Chak,19,225.0,24.2059693,88.6072441
30689,Jotkanai,20,225.0,24.1882702,88.62172249999999
30690,Gokulchak,21,225.0,22.2410509,87.66181209999999
30691,Bajeapti Paikmari,22,225.0,-1.0,-1.0
30692,Par Raghunathpur,23,225.0,24.1820635,88.5927608
30693,Debottar Lakshminarayanpur,24,225.0,24.1553832,88.6000031
30694,Taraf Rasulpur Patnipara,25,225.0,24.1314298,88.58068759999999
30695,Shekhalipara,27,225.0,23.6796238,87.6894999
30696,Bilaspur,28,225.0,25.7073947,88.03753139999999
30697,Raypur,29,225.0,-1.0,-1.0
30698,Katakopra,30,225.0,24.0825978,88.6036238
30699,Naroj Pur,31,225.0,-1.0,-1.0
30700,Mamudpur,32,225.0,22.8894533,88.4525012
30701,Chak Bhikhari,33,225.0,24.0993724,88.56921489999999
30702,Gobindapur,34,225.0,22.3781175,88.4052416
30703,Bhatshala,35,225.0,25.1851515,88.75060239999999
30704,Batkamari,36,225.0,24.0968533,88.5384045
30705,Jorgachha,37,225.0,-1.0,-1.0
30706,Ramana Et-barnagar Basantapur,38,225.0,-1.0,-1.0
30707,Ajimganj Gola,39,225.0,24.191368,88.26828400000001
30708,Jayrampur,40,225.0,-1.0,-1.0
30709,Maniknagar,41,225.0,23.9266596,88.3190717
30710,Domkal,42,225.0,24.1236488,88.543239
30711,Lakshminathpur,43,225.0,-1.0,-1.0
30712,Ganrabaria,44,225.0,-1.0,-1.0
30713,Malati Pur,45,225.0,24.8054474,88.04364439999999
30714,Bhagirathpur,46,225.0,24.0875164,88.4948694
30715,Char Kaludiarh,47,225.0,-1.0,-1.0
30716,Char Sundalpur,48,225.0,23.1677564,88.44159979999999
30717,Shibnagar Laskarpur,49,225.0,24.071345,88.5130144
30718,Brindabanpur Chak,50,225.0,-1.0,-1.0
30719,Shabdal Pur,51,225.0,25.5261976,88.3409338
30720,Char Salikadaha,52,225.0,24.0503258,88.49123949999999
30721,Chak Laskarpur,53,225.0,24.0400046,88.4997089
30722,Char Padmanabhapur,54,225.0,24.0399337,88.49244949999999
30723,Arazi Garibpur,55,225.0,24.0329476,88.5000113
30724,Char Sahajadpur,56,225.0,24.0131084,88.48518899999999
30725,Garibpur,57,225.0,-1.0,-1.0
30726,Chandpur,58,225.0,22.6851815,88.42706020000001
30727,Pardiar,59,225.0,23.9643261,88.5130144
30728,Dakshin Jitpur,60,225.0,23.9776931,88.51180500000001
30729,Char Jitpur,61,225.0,23.9850201,88.50091859999999
30730,Char Kushbaria,62,225.0,23.9917972,88.5099908
30731,Charunagar,63,225.0,23.9964993,88.5178602
30732,Char Juranpur,64,225.0,24.0081245,88.5075717
30733,Bil Damas,65,225.0,-1.0,-1.0
30734,Bil Nayankhali,66,225.0,24.0326787,88.5105955
30735,Juranpur,67,225.0,23.708072,88.1852304
30736,Kalyanpur,68,225.0,22.5006615,87.91509309999999
30737,Kushabaria,69,225.0,24.003183,88.5347783
30738,Pirojpur,70,225.0,24.5183641,88.1047287
30739,Madhurkol,71,225.0,24.0330024,88.54444749999999
30740,Bagdanga,72,225.0,-1.0,-1.0
30741,Sultanpur,73,225.0,22.7733524,87.7098723
30742,Juginda,74,225.0,24.0805629,88.54444749999999
30743,Dakshin Nagar,75,225.0,25.2011819,88.9042582
30744,Jhauberia,76,225.0,22.5539574,88.1327991
30745,Aminabad,77,225.0,24.0481146,88.5710266
30746,Masdanga,78,225.0,23.4211125,88.1961965
30747,Momenpur,79,225.0,22.5286521,88.319903
30748,Char Momenpur,80,225.0,24.0022918,88.5987961
30749,Garaimari,81,225.0,-1.0,-1.0
30750,Kuchemora,82,225.0,24.0454302,88.60241690000001
30751,Saha Diar,83,225.0,24.057144,88.58310259999999
30752,Shri Krishnapur,84,225.0,22.8977074,88.5384045
30753,Mohanpur,85,225.0,21.8398171,87.4232306
30754,Khidirpara,86,225.0,22.54206,88.3189579
30755,Harishankarpur,87,225.0,22.2334522,88.38947689999999
30756,Kupila,88,225.0,24.0695992,88.6458421
30757,Arazi Jotsundar,1,226.0,-1.0,-1.0
30758,Nagri,2,226.0,23.0165352,86.9448841
30759,JotSundar,3,226.0,24.7743955,87.8340995
30760,Chandur,4,226.0,22.8918564,87.99838779999999
30761,Bagdabra,5,226.0,24.7507691,87.8414686
30762,Talipur,6,226.0,24.7508394,87.8463807
30763,Nimaitok,7,226.0,24.7539811,87.85865849999999
30764,Pasupara,8,226.0,-1.0,-1.0
30765,Sudna,9,226.0,24.7674527,87.8672509
30766,Bahadurpur,10,226.0,23.6924569,87.1447831
30767,Baza Osmanpur,11,226.0,24.445882,88.1394304
30768,Bhairabdanga,12,226.0,23.3281646,87.3127954
30769,Abhla,13,226.0,24.7483257,87.8782959
30770,Uttar Jamalpur,14,226.0,25.2963207,88.9473718
30771,Rajipur,15,226.0,22.9685234,88.0583123
30772,Jot Raghu,16,226.0,-1.0,-1.0
30773,Sahabazpur,17,226.0,24.8264967,88.06564449999999
30774,Anuppur,18,226.0,24.3825033,88.0448669
30775,Alaipur,19,226.0,23.0117591,88.4742958
30776,Damodarpur,20,226.0,22.7796573,87.7344988
30777,Tulsipukur,21,226.0,25.2600716,88.8539023
30778,Ghasania,22,226.0,24.7514303,87.8881115
30779,Lakshmipur,23,226.0,24.801475,87.96778280000001
30780,Kalaidanga,24,226.0,-1.0,-1.0
30781,Bhrigurampur,25,226.0,24.7700833,87.896085
30782,Kendua,26,226.0,24.9695767,88.24490139999999
30783,Uttar Bhabanipur,27,226.0,24.7897879,87.8733874
30784,Birkendua,28,226.0,24.7838898,87.8758417
30785,Dohitpur,29,226.0,24.7899608,87.88565779999999
30786,Fatepur,30,226.0,22.2846143,88.232467
30787,Beoa,31,226.0,-1.0,-1.0
30788,Sikarpur,32,226.0,23.0267171,88.4815582
30789,Jadabpur Nimtala,33,226.0,24.8376945,87.9052834
30790,Bharatpur,34,226.0,23.8837878,88.0839695
30791,Gobindarampur,35,226.0,24.8305346,87.92367469999999
30792,Srimantapur,36,226.0,22.3181709,87.4418175
30793,Puran Chandipur,37,226.0,24.7856659,87.8966983
30794,Sahebnagar,38,226.0,23.809688,88.4068147
30795,Chandipur,39,226.0,-1.0,-1.0
30796,Andhua,40,226.0,24.7739368,87.9065098
30797,Chauki,41,226.0,24.7814383,87.9126409
30798,Langaldahi Ramnagar,42,226.0,-1.0,-1.0
30799,Srirampur,43,226.0,22.748331,88.3385053
30800,Kasinagar,44,226.0,21.9155189,88.1901046
30801,Sahanagar,45,226.0,23.2357978,88.12791849999999
30802,Fatepur,46,226.0,22.2846143,88.232467
30803,Jafarganj,47,226.0,-1.0,-1.0
30804,Samaspur,48,226.0,25.6969308,88.2631517
30805,Ballalpur,49,226.0,24.7391039,87.9083492
30806,Laharia,50,226.0,23.1922067,86.7339156
30807,Ballalpur Brahmattar,51,226.0,-1.0,-1.0
30808,Kalupara,52,226.0,-1.0,-1.0
30809,Imamnagar,53,226.0,24.7400407,87.9224488
30810,Baikunthapur,54,226.0,22.378963,88.4155462
30811,Beniagram,55,226.0,24.7773433,87.93838219999999
30812,Asua,56,226.0,24.7670774,87.9469594
30813,Hosenpur,57,226.0,23.2366203,88.6458421
30814,Kuli,58,226.0,23.9714052,87.9616593
30815,Bhabanipur,59,226.0,22.4224226,88.4422055
30816,Pachulagram,60,226.0,24.7161358,87.9101885
30817,Sankarpur,61,226.0,21.6491352,87.5698638
30818,Mamrejpur,62,226.0,24.6969346,87.9163191
30819,Mahadebnagar,63,226.0,-1.0,-1.0
30820,Paranpara,93,226.0,24.703339,87.9506348
30821,Jigrikulgachhi,94,226.0,24.6992529,87.9230618
30822,Sibnagar,95,226.0,24.0038916,88.24672679999999
30823,Arjjunpur,96,226.0,-1.0,-1.0
30824,Sankhopara,97,226.0,24.7137406,87.9518599
30825,Deonapur,98,226.0,24.7073182,88.0265257
30826,Par Debidaspur,126,226.0,24.7532597,87.9671705
30827,Bochadangga,1,227.0,-1.0,-1.0
30828,Gobindapur,2,227.0,22.3781175,88.4052416
30829,Bainpur,3,227.0,24.0728174,88.3652122
30830,Balarampur,4,227.0,23.0943913,86.22029619999999
30831,Khalsi,5,227.0,-1.0,-1.0
30832,Saharbasa,6,227.0,24.0952245,88.376133
30833,Mamlatpur,7,227.0,24.0886331,88.38523149999999
30834,Chotta Sahar Basa,8,227.0,24.0894333,88.3906897
30835,Raypur,9,227.0,23.631129,87.65687989999999
30836,Jitarpur,10,227.0,24.0669758,88.37491969999999
30837,Harishpur,11,227.0,23.6039022,87.17967929999999
30838,Khosalpur,12,227.0,23.2456428,87.5432941
30839,Mashurdanga,13,227.0,-1.0,-1.0
30840,Baruipara,14,227.0,22.762214,88.24368439999999
30841,Khidirpur,15,227.0,22.54206,88.3189579
30842,Simulia Jot,16,227.0,24.0374153,88.320894
30843,Kismat Imadpur,17,227.0,24.0342023,88.3676393
30844,Jamalpur,18,227.0,23.061089,87.9925839
30845,Pradipdangga,19,227.0,-1.0,-1.0
30846,Lalnagar,20,227.0,24.0247889,88.3215014
30847,Tekpara,21,227.0,-1.0,-1.0
30848,Bil Bhandardaha,22,227.0,23.9972858,88.320894
30849,Mahishmara,23,227.0,23.9728068,88.3251456
30850,Rampara,24,227.0,22.7325841,88.1254781
30851,Bhandardaha,25,227.0,-1.0,-1.0
30852,Jagannathpur,26,227.0,22.7462731,88.4467528
30853,Biharia,27,227.0,23.9602968,88.3366837
30854,Tehatta,28,227.0,23.7295581,88.5299428
30855,Pratappur,29,227.0,23.4707709,87.30285579999999
30856,Rukunpur,30,227.0,24.0017675,88.4084984
30857,Nasipur,31,227.0,24.3195752,88.37734619999999
30858,Hariharpara,32,227.0,24.0437012,88.4234245
30859,Dasturpara,33,227.0,-1.0,-1.0
30860,Hosenpur,34,227.0,23.2366203,88.6458421
30861,Jamira,35,227.0,22.591891,87.619872
30862,Fatepur Gobindapur,36,227.0,24.0853639,88.42827199999999
30863,Kumripur Patharghata,37,227.0,-1.0,-1.0
30864,Shankarpur,38,227.0,21.6491352,87.5698638
30865,Ramkrishnapur,39,227.0,25.2757475,88.9713045
30866,Char Tekona,40,227.0,24.1133742,88.4797427
30867,Tekona,41,227.0,-1.0,-1.0
30868,Janarddanpur,42,227.0,24.0916513,88.46218909999999
30869,Khamarbati,43,227.0,24.0871323,88.45613440000001
30870,Jamlabad,44,227.0,25.2618515,88.54928129999999
30871,Dharampur,45,227.0,22.8768695,88.384625
30872,Dharampur Ramna,46,227.0,24.0705766,88.4355422
30873,Lochanmati Dangapara,47,227.0,24.061831,88.4525012
30874,Tartipur,48,227.0,-1.0,-1.0
30875,Char Bhagirathpur,49,227.0,24.0964094,88.49244949999999
30876,Kaludiar,50,227.0,24.0911545,88.4870042
30877,Sundalpur,51,227.0,24.0133897,88.6771771
30878,Jhanjha,52,227.0,24.068208,88.49607929999999
30879,Siddhinandi,53,227.0,24.072464,88.47550629999999
30880,Swaruppur,54,227.0,24.0576737,88.48276849999999
30881,Char Shibnagar,55,227.0,24.0459968,88.50454769999999
30882,Padmanabhpur,56,227.0,-1.0,-1.0
30883,Jaykrishnapur,57,227.0,24.1847384,87.8082982
30884,Sarbbangapur,58,227.0,-1.0,-1.0
30885,Choa,59,227.0,24.0283384,88.4490084
30886,Shripur,60,227.0,22.7713699,87.5477832
30887,Gaznipur,61,227.0,23.1364148,88.7710424
30888,Sahajadpur,62,227.0,24.0085658,88.47671679999999
30889,Char Malopara,63,227.0,24.0251178,88.49728920000001
30890,Bil Bharat Gobindapur,1,228.0,-1.0,-1.0
30891,Damasbil,2,228.0,24.201184,88.653678
30892,Khayramari,3,228.0,24.1795911,88.6482533
30893,Debipur,4,228.0,23.1421728,88.1585029
30894,Natial,5,228.0,24.2478305,88.63619589999999
30895,Dhanirampur,6,228.0,26.6257356,89.0633155
30896,Kazipara,7,228.0,22.7138144,88.50485789999999
30897,Sahebnagar,8,228.0,23.809688,88.4068147
30898,Arazi Shibnagar,9,228.0,-1.0,-1.0
30899,Sagarpara,10,228.0,-1.0,-1.0
30900,Azimpur,11,228.0,24.8841925,88.05464580000002
30901,Udaynagar Diar,12,228.0,24.2159125,88.7253393
30902,Ram Narayan Para,13,228.0,22.4791284,88.1799233
30903,Godagari,14,228.0,24.1949695,88.7084888
30904,Paraspur,15,228.0,24.1749045,88.70788689999999
30905,Dayarampur,16,228.0,-1.0,-1.0
30906,Raghunathpur,17,228.0,23.5343795,86.6686635
30907,Ghanashyam Chak,18,228.0,24.1666042,88.6928358
30908,Narasingpur,19,228.0,26.6847794,89.0776364
30909,Arazi Sipahi Chak,20,228.0,24.2165793,88.672659
30910,Baromasia,21,228.0,26.105587,89.2887013
30911,Chak Ramprasad,22,228.0,24.1998977,88.67657469999999
30912,Harekrishnapur,23,228.0,22.5780307,87.7474017
30913,Ramprasad Chak Arazi,24,228.0,-1.0,-1.0
30914,Barabil Raghunathpur,25,228.0,24.1559846,88.667538
30915,Muradpur Arazi,26,228.0,24.1456763,88.6783818
30916,Nandlalpur Arazi,27,228.0,-1.0,-1.0
30917,Nandalalpur,28,228.0,24.7816513,88.038754
30918,Jaykrishnapur,29,228.0,24.1847384,87.8082982
30919,Muradpur Jalangi,30,228.0,24.1354489,88.69885690000001
30920,Uttar Ikuri,31,228.0,24.1310618,88.70728489999999
30921,Madhubona,32,228.0,-1.0,-1.0
30922,Paschim Sahebrampur,33,228.0,24.1066255,88.68602779999999
30923,Harishankarpur,34,228.0,22.2334522,88.38947689999999
30924,Arazi Sadipur,35,228.0,24.139586,88.6615125
30925,Paranpur,36,228.0,25.1576548,87.997164
30926,Sadikhanr Diar,37,228.0,24.1290886,88.6506644
30927,Bilaspur Nachharerpara,38,228.0,24.1126029,88.63499
30928,Sadipur,39,228.0,23.1282478,87.9751299
30929,Faridpur,40,228.0,-1.0,-1.0
30930,Tikarberia Kalkihara,41,228.0,-1.0,-1.0
30931,Bhaduriapara,42,228.0,24.1794078,88.2712421
30932,Char Gopalpurkhasmhal,43,228.0,-1.0,-1.0
30933,Char Chandanpur Sahar,44,228.0,24.2605048,88.727746
30934,Hazrahati Mirganj,45,228.0,24.2396849,88.7253393
30935,Sarkarpara,46,228.0,-1.0,-1.0
30936,Dakshin Ikuri,47,228.0,24.1012576,88.69765269999999
30937,Godagari Diar,48,228.0,24.1913406,88.7187203
30938,Parshpur Diar,49,228.0,-1.0,-1.0
30939,Muradpur Diar,50,228.0,24.155536,88.7018671
30940,Pashchim Char Badra,51,228.0,-1.0,-1.0
30941,Udaynagar Khanda,52,228.0,-1.0,-1.0
30942,Pashchim Udaynagar,53,228.0,-1.0,-1.0
30943,Khordda  Narayanpur,1,229.0,24.1038079,88.0888549
30944,Bil Madgarya,2,229.0,24.0978644,88.0888549
30945,Bahadurpur,3,229.0,23.6924569,87.1447831
30946,Gatla,4,229.0,19.0513347,72.9022583
30947,Belun,5,229.0,22.2887363,87.5618327
30948,Sholpara,6,229.0,-1.0,-1.0
30949,Durlabhpur,7,229.0,24.0646197,88.10411820000002
30950,Kumarsanda,8,229.0,-1.0,-1.0
30951,Noapara,9,229.0,-1.0,-1.0
30952,Mandarhati,10,229.0,-1.0,-1.0
30953,Bijaynagar,11,229.0,23.6966636,87.1310668
30954,Bil Amalbandha,12,229.0,24.0355136,88.0937397
30955,Araji Gokarna,13,229.0,-1.0,-1.0
30956,Ranagram,14,229.0,24.0213729,88.09190799999999
30957,Dakshin Lakshminarayanpur,15,229.0,24.0174982,88.07908359999999
30958,Parbbatipur,16,229.0,22.6548287,88.2290783
30959,Chiakhali,17,229.0,22.2995064,88.7926739
30960,Khoshbaspur,18,229.0,23.870714,87.4826825
30961,Gokarna,19,229.0,-1.0,-1.0
30962,Mahalandi,20,229.0,24.0745107,88.12303750000001
30963,Jamna,21,229.0,22.2766742,87.55194639999999
30964,Alampur,22,229.0,22.5831787,88.21446720000002
30965,Ashua,23,229.0,24.1033893,88.1151046
30966,Patna,24,229.0,-1.0,-1.0
30967,Tentuliya,25,229.0,22.7856288,88.8575011
30968,Ugura,26,229.0,-1.0,-1.0
30969,Bhatpara,27,229.0,22.8562412,88.406454
30970,Bhatpara Palashi,28,229.0,22.9376162,88.43485
30971,Bilbegampur,29,229.0,24.1010374,88.166338
30972,Uttar Lakshminarayanpur,30,229.0,22.0693461,88.3676393
30973,Uday Chandpur,31,229.0,-1.0,-1.0
30974,Durgapur,32,229.0,-1.0,-1.0
30975,Nisad Bag Jhaubari,33,229.0,24.0751273,88.1742616
30976,Jiadara,34,229.0,24.0800442,88.15048639999999
30977,Nabagram,35,229.0,23.111247,88.04364439999999
30978,Motura,36,229.0,24.2065089,88.7132347
30979,Marura,37,229.0,22.9863536,88.1815744
30980,Patenda,38,229.0,24.0301658,88.14255849999999
30981,Arazi Chandpara,39,229.0,24.0118009,88.1602419
30982,Gobarhati,40,229.0,-1.0,-1.0
30983,Hijal,41,229.0,23.9543228,88.1388989
30984,Benipur,42,229.0,22.7064285,88.2491605
30985,Gopalnagar,43,229.0,23.0613166,88.76178700000001
30986,Baje Gopalnagar,44,229.0,24.0051458,88.10167650000001
30987,Indata,45,229.0,-1.0,-1.0
30988,Chatar,46,229.0,22.5390974,88.35873319999999
30989,Chandraprasadpur,47,229.0,-1.0,-1.0
30990,Bundai,48,229.0,23.999725,88.0839695
30991,Purandarpur,49,229.0,23.8559912,87.5819618
30992,Shrikanthapur,50,229.0,22.2858764,87.7787929
30993,Harinagar,51,229.0,23.9902234,88.09679249999999
30994,Gobindapur,52,229.0,22.3781175,88.4052416
30995,Chandnagar,53,229.0,22.8647723,88.36326
30996,Santoshpur,54,229.0,-1.0,-1.0
30997,Jitpur,55,229.0,23.9790742,88.50091859999999
30998,Rajarampur,56,229.0,24.3573495,88.1860087
30999,Gopalpur,57,229.0,23.4976267,87.3959564
31000,Monoharpur,58,229.0,21.9928887,87.30906829999999
31001,Gandharbbapur,59,229.0,22.7067459,88.8658973
31002,Rayabati,60,229.0,-1.0,-1.0
31003,Bati,61,229.0,24.1788923,88.4197886
31004,Boltali,62,229.0,-1.0,-1.0
31005,Kandi,63,229.0,23.9468005,88.0497145
31006,Kalyanpur,64,229.0,22.5006615,87.91509309999999
31007,Sadpur,65,229.0,22.8562156,88.73737129999999
31008,Bamandasbati,66,229.0,23.9570261,88.027443
31009,Jashahari,67,229.0,24.2223434,87.8414686
31010,Rambhadrabati,68,229.0,23.957917,88.0100121
31011,Munigram,69,229.0,-1.0,-1.0
31012,Rudrabati,70,229.0,23.9491251,88.0197987
31013,Raghupur,71,229.0,24.1676815,88.2108137
31014,Laharpara,72,229.0,23.939283,88.0057298
31015,Anukha,73,229.0,23.9235257,87.99410429999999
31016,Ratuni,74,229.0,23.9209761,87.9980818
31017,Mahadebbati,75,229.0,23.9072071,87.99655200000001
31018,Singhadda,76,229.0,23.906887,88.0005293
31019,Molla,77,229.0,-1.0,-1.0
31020,Kaya,78,229.0,24.0538656,88.2631517
31021,Kayemba,79,229.0,22.6816413,88.52510679999999
31022,Brahmanpara,80,229.0,23.7978238,87.8758417
31023,Bahara,81,229.0,24.4087746,88.1266983
31024,Bhandara,82,229.0,24.2268748,88.3215014
31025,Baje Dohalia,83,229.0,23.9492971,88.0332517
31026,Dohalia,84,229.0,-1.0,-1.0
31027,Ruppur,85,229.0,23.664483,87.60135679999999
31028,Raghunathpur,86,229.0,23.5343795,86.6686635
31029,Shibrambati,87,229.0,23.8854546,87.9812516
31030,Boalia,88,229.0,23.2770329,88.5057574
31031,Rasara,89,229.0,22.0416047,87.2829703
31032,Araji Shibrambati,90,229.0,-1.0,-1.0
31033,Baghdanga,91,229.0,23.951093,88.05770129999999
31034,Shaspara,92,229.0,26.4079015,88.4331189
31035,Jemo,93,229.0,23.9580364,88.05939219999999
31036,Mahadia,94,229.0,23.9667836,88.0644225
31037,Durgapur,95,229.0,23.5204443,87.3119227
31038,Lakshmikantapur,96,229.0,22.1098673,88.3208731
31039,Andulia,97,229.0,23.9580186,88.0766404
31040,Hijal Thakuranirchak,98,229.0,22.5049346,88.37831589999999
31041,Jayrampur,99,229.0,22.5930997,88.16938569999999
31042,Bhabanandapur,100,229.0,-1.0,-1.0
31043,Ranipur,101,229.0,23.4782489,86.54764109999999
31044,Raypur,1,230.0,23.631129,87.65687989999999
31045,Jhilli,2,230.0,-1.0,-1.0
31046,Khaspur,3,230.0,-1.0,-1.0
31047,Shripur,4,230.0,22.7713699,87.5477832
31048,Mirhati,5,230.0,22.7751904,88.4948694
31049,Chakbhatina,6,230.0,-1.0,-1.0
31050,Siata,7,230.0,24.1571277,87.96043449999999
31051,Kamarpur,8,230.0,22.8976163,87.6556468
31052,Nonadanga,9,230.0,24.1757706,87.9659458
31053,Titidanga,10,230.0,24.1869689,87.970232
31054,Dhanigram,11,230.0,24.1751494,87.9751299
31055,Jadabpur,12,230.0,22.4939728,88.37067119999999
31056,Digha,13,230.0,21.6266172,87.5074315
31057,Kelai,14,230.0,-1.0,-1.0
31058,Shanigram,15,230.0,24.1632648,87.9751299
31059,Hazipur,16,230.0,-1.0,-1.0
31060,Bajitpur,17,230.0,-1.0,-1.0
31061,Mashadanga,18,230.0,-1.0,-1.0
31062,Basantapur,19,230.0,23.0514043,88.0191871
31063,Anandanagar,20,230.0,22.8577809,88.26801720000002
31064,Biswanathpur,21,230.0,-1.0,-1.0
31065,Jhajhra,22,230.0,24.1566012,87.921223
31066,Padam Kandi,23,230.0,24.152662,87.90467029999999
31067,Sarbomangalapur,24,230.0,-1.0,-1.0
31068,Sabaldaha,25,230.0,24.1350348,87.9193841
31069,Deshalpur,26,230.0,23.8854934,87.5704815
31070,Palashi,27,230.0,23.7832868,88.26071879999999
31071,Gaphul,28,230.0,-1.0,-1.0
31072,Punrapara,29,230.0,24.1276231,87.92061
31073,Jaypur,30,230.0,23.0551658,87.44801149999999
31074,Purbba Shrikrishnapur,31,230.0,24.1333573,87.96043449999999
31075,Nabipur,32,230.0,-1.0,-1.0
31076,Bautipara,33,230.0,24.1301565,87.9711504
31077,Matai,34,230.0,24.1324578,87.9766604
31078,Bhalkundi,35,230.0,24.1300227,87.98920849999999
31079,Matanda,36,230.0,24.1326827,87.9937984
31080,Diara,37,230.0,22.7982179,88.26801720000002
31081,Ramchandrapur,38,230.0,22.8911172,88.4706642
31082,Khansamadanga,39,230.0,-1.0,-1.0
31083,Indrani,40,230.0,24.1348459,88.01735219999999
31084,Sarmastapur,41,230.0,22.404837,88.3955409
31085,Rahimanagar,42,230.0,24.1402583,88.03386309999999
31086,Rahigram,43,230.0,24.1284975,88.04364439999999
31087,Uttar Gangarampur,44,230.0,24.1278711,88.0528124
31088,Sadal,45,230.0,-1.0,-1.0
31089,Bhatkanda,46,230.0,-1.0,-1.0
31090,Surkhali,47,230.0,24.0894401,88.0686992
31091,Shankarpur,48,230.0,21.6491352,87.5698638
31092,Jahangirpur,49,230.0,-1.0,-1.0
31093,Raghunathpur,50,230.0,23.5343795,86.6686635
31094,Amjuya,51,230.0,-1.0,-1.0
31095,Churigram,52,230.0,24.1105432,88.03386309999999
31096,Durgarampur,53,230.0,24.1178937,88.02774869999999
31097,Gobindapur,54,230.0,-1.0,-1.0
31098,Sherpur,55,230.0,22.9817742,88.71474289999999
31099,Asalpur,56,230.0,24.1205491,88.00328259999999
31100,Sahapara,57,230.0,25.2775313,88.4876093
31101,Bil Belun,58,230.0,-1.0,-1.0
31102,Bagrain,59,230.0,24.1057231,88.0057298
31103,Bhabaninagar,60,230.0,24.1093181,87.99655200000001
31104,Kandra,61,230.0,23.7292069,87.970232
31105,Chhatrapur,62,230.0,-1.0,-1.0
31106,Palsanda,63,230.0,24.1892579,88.1510962
31107,Chandibati,64,230.0,23.4091895,87.9518599
31108,Telsundi,65,230.0,-1.0,-1.0
31109,Samandi,66,230.0,24.1037076,87.96533350000001
31110,Ghanashyampur,67,230.0,22.3166425,88.2229909
31111,Pilsima,68,230.0,24.1077891,87.9371568
31112,Dasdebagram,69,230.0,-1.0,-1.0
31113,Pashchim Shrikrishnapur,70,230.0,22.5040562,87.62110609999999
31114,Jashorpara,71,230.0,-1.0,-1.0
31115,Uttar Gopinathpur,72,230.0,24.1089936,87.9163191
31116,Giridharipur,73,230.0,24.0926336,87.91509309999999
31117,Parulia,74,230.0,23.446217,88.3129969
31118,Jethia,75,230.0,22.9191401,88.4428112
31119,Ishanpur,76,230.0,24.0794766,87.9310291
31120,Punia,77,230.0,-1.0,-1.0
31121,Keshiadanga,78,230.0,24.0894053,87.9512474
31122,Mahammadpur,79,230.0,22.1879672,87.9224488
31123,Hazrabati,80,230.0,24.0904162,87.9714565
31124,Bhatgram,81,230.0,23.1731041,87.12358359999999
31125,Gopalpur,82,230.0,23.4976267,87.3959564
31126,Shibpur,83,230.0,22.5723094,88.3117819
31127,Jot Seha,84,230.0,24.0816301,87.9812516
31128,Nagar,85,230.0,24.0921434,87.9898205
31129,Atai,86,230.0,-1.0,-1.0
31130,Dunigram,87,230.0,24.2115144,87.9175451
31131,Margram,88,230.0,24.1495747,87.84269669999999
31132,Pathai,89,230.0,24.075492,88.0234681
31133,Margram Arazi,90,230.0,24.0793557,88.03508590000001
31134,Sundarpur,91,230.0,23.8730463,87.9420584
31135,Kalidaspur,92,230.0,22.1929683,88.8982666
31136,Bibinagar,93,230.0,24.0572377,88.0485343
31137,Kheshar,94,230.0,-1.0,-1.0
31138,Sahapur,95,230.0,22.5171539,88.17060470000001
31139,Kashigram,96,230.0,24.0651018,87.9956342
31140,Mandalsar,97,230.0,24.9578801,87.98005049999999
31141,Kirttipur,98,230.0,22.6645605,88.5373424
31142,Budharapara,99,230.0,-1.0,-1.0
31143,Podda,100,230.0,24.0818452,87.9414457
31144,Ayra,101,230.0,24.0616461,87.9310291
31145,Bharata,102,230.0,24.0688936,87.9175451
31146,Augram,103,230.0,-1.0,-1.0
31147,Upalai,104,230.0,24.0509631,87.9101885
31148,Shimuliya Chak,105,230.0,23.4666277,88.69569539999999
31149,Eroali,106,230.0,24.0440119,87.9457342
31150,Atgharia,107,230.0,24.0201704,87.940833
31151,Gayeshpur,108,230.0,22.955387,88.49607929999999
31152,Jatarpur,109,230.0,-1.0,-1.0
31153,Kanduri,110,230.0,24.1570367,87.7418842
31154,Durgapur,111,230.0,23.5204443,87.3119227
31155,Ninur,112,230.0,24.0491318,87.9959401
31156,Katigram,113,230.0,24.0472078,87.7492683
31157,Gurulia,114,230.0,23.3320779,86.365208
31158,Garutia,115,230.0,24.0310221,88.0320289
31159,Bil Shankura,116,230.0,24.0502779,88.02713720000001
31160,Dakshin Gangarampur,117,230.0,24.0496989,88.0399767
31161,Ratanpur Arazi,118,230.0,-1.0,-1.0
31162,Naldipi,119,230.0,24.0437548,88.0399767
31163,Jalkar Bilnarua,120,230.0,24.040845,88.0448669
31164,Nirisinghapur,121,230.0,23.2296386,88.3785594
31165,Gaharia,122,230.0,-1.0,-1.0
31166,Bilpatan,123,230.0,23.5476728,87.2931389
31167,Dakshin Shibpur,124,230.0,22.7302841,88.72714429999999
31168,Dakshin Raypur,125,230.0,22.40373,88.1510962
31169,Harinagar,126,230.0,23.9902234,88.09679249999999
31170,Keshabpur,127,230.0,-1.0,-1.0
31171,Rameshwarpur,128,230.0,22.2908582,88.05220130000001
31172,Sujapur,129,230.0,25.0690815,88.13767899999999
31173,Borai,130,230.0,21.8255363,87.3674253
31174,Harinarayanpur,131,230.0,22.2237114,88.4609782
31175,Mandalpur,132,230.0,24.4149511,88.0012373
31176,Chandkhali,133,230.0,-1.0,-1.0
31177,Dangapara,134,230.0,-1.0,-1.0
31178,Banur,135,230.0,23.9983275,88.0320289
31179,Goai,136,230.0,23.6543706,88.1090014
31180,Jamuni,137,230.0,24.0163721,88.0194929
31181,Kalgram,138,230.0,24.0158784,88.0100121
31182,Khargram,139,230.0,24.0266978,87.9849242
31183,Lakshminarayanpur Arazi,140,230.0,24.0160863,87.9690074
31184,Dakshin Gopinathpur,141,230.0,24.0103029,87.9812516
31185,Manikpur,142,230.0,-1.0,-1.0
31186,Haladharpur Arazi,143,230.0,24.0021853,87.9855362
31187,Rasulpur,144,230.0,23.1840099,88.0301946
31188,Mahisar,145,230.0,23.9830406,87.99899959999999
31189,Haripur,146,230.0,23.6773318,87.1934619
31190,Haladharpur,147,230.0,23.3273546,88.0693101
31191,Barar,148,230.0,23.1297622,88.097403
31192,Thira,149,230.0,23.9876417,88.0100121
31193,Batur,150,230.0,-1.0,-1.0
31194,Nitaipur,151,230.0,22.5862367,87.2630764
31195,Bele,152,230.0,23.076088,88.6747675
31196,Bil Dabeshwar,153,230.0,-1.0,-1.0
31197,Chandsinghabati,154,230.0,-1.0,-1.0
31198,Kharsa,155,230.0,23.9667259,88.0305003
31199,Miyapur,1,231.0,24.4573092,88.0474859
31200,Maiya,2,231.0,24.439238,88.1901046
31201,Boyra,3,231.0,-1.0,-1.0
31202,Radhakrishnapur,4,231.0,22.4560915,87.50124550000001
31203,Malatipur,5,231.0,24.8054474,88.04364439999999
31204,Khalifabad,6,231.0,-1.0,-1.0
31205,Sahabajapur,7,231.0,24.8264967,88.06564449999999
31206,Kalkali,8,231.0,24.4358783,88.2199469
31207,Paharpur,9,231.0,22.5244929,88.2971985
31208,Bil-Domakul,10,231.0,24.4142126,88.2083778
31209,Shimuliya,11,231.0,-1.0,-1.0
31210,Domakal,12,231.0,24.1236488,88.543239
31211,Mridadpur,13,231.0,24.404004,88.2242084
31212,Chakdihiganeshpur,14,231.0,-1.0,-1.0
31213,Gauridaspur,15,231.0,24.2536352,87.74557639999999
31214,Ramnabag Sarai,16,231.0,24.3848834,88.2400333
31215,Deoyan Sarai,17,231.0,-1.0,-1.0
31216,Gaukhana,18,231.0,24.3877122,88.2278608
31217,Chakamarkunda,19,231.0,-1.0,-1.0
31218,Kaliagachhi,20,231.0,24.3743048,88.2242084
31219,Mulidanga,21,231.0,-1.0,-1.0
31220,Khosal Pur,22,231.0,-1.0,-1.0
31221,Laskarpur,23,231.0,22.3609568,88.18888609999999
31222,Amarkundu,24,231.0,-1.0,-1.0
31223,Kulgachhi,25,231.0,-1.0,-1.0
31224,Bil Nasipur,26,231.0,24.3992776,88.2010694
31225,Chamunda,27,231.0,24.3215609,88.15963219999999
31226,Makimnagar,28,231.0,24.4111567,88.2010694
31227,Paranpur,29,231.0,25.1576548,87.997164
31228,Fatepur,30,231.0,-1.0,-1.0
31229,Ilimpur,31,231.0,-1.0,-1.0
31230,Keshabpur,32,231.0,22.8861165,87.8991514
31231,Mahisasthal,33,231.0,22.1813597,87.9898205
31232,Araji Keshbpur,34,231.0,-1.0,-1.0
31233,Araji Badgade,35,231.0,-1.0,-1.0
31234,Badgade,36,231.0,23.2944614,87.56554129999999
31235,Singha,37,231.0,22.9090778,88.6458421
31236,Salmara,38,231.0,-1.0,-1.0
31237,Jagarpara,39,231.0,24.3910312,88.194369
31238,Janardanpur,40,231.0,22.0765279,87.4170333
31239,Haripur,41,231.0,23.6773318,87.1934619
31240,Nasipur,42,231.0,24.3195752,88.37734619999999
31241,Kuchhidanga,43,231.0,-1.0,-1.0
31242,Basumti,44,231.0,24.4084855,88.1638996
31243,Niamatpur,45,231.0,-1.0,-1.0
31244,Jhamra Nayagram,46,231.0,-1.0,-1.0
31245,Panisala,47,231.0,26.2592445,89.5356094
31246,Rianpur,48,231.0,24.3750529,88.1620708
31247,Shyampur,49,231.0,22.299502,88.02774869999999
31248,Sarpakhiya,50,231.0,-1.0,-1.0
31249,Jhawdanga,51,231.0,22.9464377,88.8527026
31250,Rajarampur,52,231.0,24.3573495,88.1860087
31251,Satpakhiya,53,231.0,-1.0,-1.0
31252,Paikpara,54,231.0,-1.0,-1.0
31253,Tejaraipur,55,231.0,-1.0,-1.0
31254,Rampal,56,231.0,24.345989,88.215685
31255,Gayeshpur,57,231.0,22.955387,88.49607929999999
31256,Jagannathpur,58,231.0,22.7462731,88.4467528
31257,Sagiya,59,231.0,-1.0,-1.0
31258,Araji Mulidangga,60,231.0,-1.0,-1.0
31259,Nadaipur,61,231.0,-1.0,-1.0
31260,Namo Orahar,62,231.0,-1.0,-1.0
31261,Kajla,63,231.0,21.8194883,87.7677235
31262,Bausi,64,231.0,24.3576965,88.2590864
31263,Alijhata,65,231.0,23.2209023,87.890565
31264,Sahapur,66,231.0,22.5171539,88.17060470000001
31265,Jotvikan,67,231.0,24.3548052,88.27048580000002
31266,Uparfatepur,68,231.0,24.3688688,88.26801720000002
31267,Ekdaliya,69,231.0,22.5229903,88.368246
31268,Narayanpur,70,231.0,22.6453065,88.46218909999999
31269,Ganeshpur,71,231.0,22.7123525,88.179137
31270,Araji Narayanpur,72,231.0,-1.0,-1.0
31271,Durgapur,73,231.0,23.5204443,87.3119227
31272,Krishnapur,74,231.0,22.6627899,88.2765304
31273,Ramchandrapur,75,231.0,22.8911172,88.4706642
31274,Kartickpur,76,231.0,22.6976145,88.6389828
31275,Kalmegha,77,231.0,23.0780905,88.83530309999999
31276,Bansgara,78,231.0,24.4119471,88.2692335
31277,Gatijaganath Sing,79,231.0,-1.0,-1.0
31278,Lalgola,80,231.0,-1.0,-1.0
31279,Bilbara Kopra,81,231.0,24.4399875,88.2337546
31280,Dakshindurlabhapur,82,231.0,22.7824194,88.4718747
31281,Paschim Kodalkati,83,231.0,24.4400899,88.2631517
31282,Paschimdiarmanikchak,84,231.0,-1.0,-1.0
31283,Dakshinasariadaha,85,231.0,22.6549087,88.3575307
31284,Krishnapur,86,231.0,22.6627899,88.2765304
31285,Haji Mahammadpur,87,231.0,22.1902204,87.9197136
31286,Pashchimdurbarpara,88,231.0,-1.0,-1.0
31287,Krishnapur Dinurpara,89,231.0,24.382685,88.30813649999999
31288,Brahamaltar Manickchak,90,231.0,-1.0,-1.0
31289,Bajupur & Madhupur,91,231.0,-1.0,-1.0
31290,Radhakantapur,92,231.0,23.7096018,88.3215014
31291,Diar Fatepur,93,231.0,-1.0,-1.0
31292,Siteshnagar,94,231.0,24.3148999,88.2242084
31293,Haidarpur,1,232.0,-1.0,-1.0
31294,Dhamua,2,232.0,22.2841782,88.3967536
31295,Gurda Haveli,3,232.0,-1.0,-1.0
31296,Dahapara,4,232.0,24.1919856,88.2570691
31297,Farrabag,5,232.0,24.1890695,88.26193529999999
31298,Rosnaiganj,6,232.0,24.183904,88.2649763
31299,Raitanbag,7,232.0,24.1779612,88.2649763
31300,Elahiganj,8,232.0,24.1764754,88.2649763
31301,Arazi Saikuli,9,232.0,-1.0,-1.0
31302,Saikuli,10,232.0,24.174074,88.24976889999999
31303,Diarchaitanpur,11,232.0,24.1563832,88.26193529999999
31304,Khosbag,12,232.0,24.1607992,88.2582857
31305,Budhra,13,232.0,25.7939219,87.9849242
31306,Belun,14,232.0,-1.0,-1.0
31307,Chainpara,15,232.0,22.9763159,88.78143250000001
31308,Sanyasidanga,16,232.0,24.4252041,87.9889025
31309,Talgachhi,17,232.0,-1.0,-1.0
31310,Ukta,18,232.0,23.5412019,87.7098723
31311,Ayesbag,19,232.0,24.1449325,88.3008448
31312,Gobindapur Lakheraj,20,232.0,24.1568191,88.3008448
31313,Banshbari,21,232.0,22.9633531,88.3967536
31314,Baramganj,22,232.0,24.1368475,88.3087441
31315,Gopinathpur,23,232.0,-1.0,-1.0
31316,Chunakhali,24,232.0,-1.0,-1.0
31317,Tiktikipara,25,232.0,24.1414119,88.3184643
31318,Bali,26,232.0,22.645734,88.34786
31319,Hanribhanga,27,232.0,24.1497761,88.33607649999999
31320,Birampur,28,232.0,22.4901889,87.9114147
31321,Prasadpur,29,232.0,22.7246926,88.08763359999999
31322,Arazi Mthurapur,30,232.0,25.1067271,87.9034439
31323,Gauripur Khastaluk,31,232.0,-1.0,-1.0
31324,Gauribag,32,232.0,27.2148397,78.0195308
31325,Rambhadrapur,33,232.0,22.1472002,87.66057909999999
31326,Topkhana,34,232.0,27.0776013,88.4847075
31327,Sani Baharapara,35,232.0,24.1673939,88.3166419
31328,Mathurapur,36,232.0,22.1202674,88.39432819999999
31329,Bele,37,232.0,23.076088,88.6747675
31330,Pashchim Gobindapur,38,232.0,24.3049096,88.2595023
31331,Khanpur,39,232.0,22.6729089,88.2598404
31332,Hamdampur,40,232.0,-1.0,-1.0
31333,Kumarpara,41,232.0,22.6430317,88.4194855
31334,Matijhil,42,232.0,24.1603238,88.2820024
31335,Sahamatganj,43,232.0,24.1602008,88.2710578
31336,Lalabag,44,232.0,24.1713183,88.2765098
31337,Haipatganj,45,232.0,24.1737784,88.2735405
31338,Haramatijhil,46,232.0,-1.0,-1.0
31339,Pilkhana,47,232.0,22.5926949,88.34003589999999
31340,Kadamsharif,48,232.0,24.178957,88.2874736
31341,Hosennagar,49,232.0,23.6582124,86.9227995
31342,Golapbag,50,232.0,23.7574329,87.55565399999999
31343,Sahanagar,51,232.0,23.2357978,88.12791849999999
31344,Kella Nezamat,52,232.0,-1.0,-1.0
31345,Rajabazar,53,232.0,22.5729891,88.37560189999999
31346,Budhaspara,54,232.0,26.7229826,88.4371948
31347,Naginabag,55,232.0,-1.0,-1.0
31348,Sabjikatra,56,232.0,24.1834549,88.2911207
31349,Bazar Mansur Khan,57,232.0,-1.0,-1.0
31350,Kumrapur,58,232.0,23.6959678,86.9386238
31351,Urddubazar,59,232.0,22.5573936,88.35757269999999
31352,Mogultuli,60,232.0,-1.0,-1.0
31353,Shyampur Haydarganj,61,232.0,-1.0,-1.0
31354,Jafraganj,62,232.0,24.7560689,87.9016043
31355,Nasipur,63,232.0,-1.0,-1.0
31356,Karimabadganj,64,232.0,-1.0,-1.0
31357,Kurmitola,65,232.0,24.1959813,88.2820024
31358,Ransagar,66,232.0,24.1952862,88.28625780000002
31359,Aliganj,67,232.0,26.2363779,88.1535352
31360,Akherighata,68,232.0,24.2101699,88.2886893
31361,Chirakuti Samserganj,69,232.0,-1.0,-1.0
31362,Karimabad,70,232.0,-1.0,-1.0
31363,Mahimapur,71,232.0,24.215811,88.26193529999999
31364,Naoda,72,232.0,23.9976883,88.289905
31365,Akbarpur,73,232.0,24.2220819,88.2911207
31366,Dilalpur,74,232.0,-1.0,-1.0
31367,Baranda Shibnagar,75,232.0,24.2090473,88.3215014
31368,Kalikapur,76,232.0,22.5009134,88.39493449999999
31369,Hasnabad,77,232.0,22.5745221,88.9174366
31370,Shashidharpur,78,232.0,23.7828157,87.6593461
31371,Bhatpara,79,232.0,22.8562412,88.406454
31372,Ramdaspur,80,232.0,23.5659168,88.2101848
31373,Kamalpur,81,232.0,23.3009283,86.84650359999999
31374,Jafrabad,82,232.0,24.2797893,88.4076664
31375,Kapasdanga,83,232.0,23.9113389,88.2777465
31376,Gopalnagar,84,232.0,-1.0,-1.0
31377,Gudhia,85,232.0,26.8198334,88.24490139999999
31378,Nesta,86,232.0,-1.0,-1.0
31379,Kumirdaha,87,232.0,23.6679405,87.265862
31380,Tentulia,88,232.0,-1.0,-1.0
31381,Charchatra,89,232.0,24.2201897,88.3906897
31382,Dharmmapur,90,232.0,-1.0,-1.0
31383,Kanksa,91,232.0,23.4600581,87.4628736
31384,Singa,92,232.0,24.180912,88.33000419999999
31385,Benoaripur,93,232.0,22.3596751,88.4317758
31386,Begamnagar,94,232.0,24.176652,88.3482188
31387,Bhartadoba,95,232.0,24.1772306,88.3330405
31388,Palashdanga,96,232.0,23.3993469,87.38851509999999
31389,Neoai Khamarpara,97,232.0,24.1680226,88.37491969999999
31390,Purbba Gobindapur,98,232.0,-1.0,-1.0
31391,Rampur,99,232.0,25.3470758,88.632578
31392,Hulaspur,100,232.0,25.4658184,87.9003778
31393,Hasenpur,101,232.0,24.1742716,88.40402910000002
31394,Dangapara,102,232.0,24.1863087,88.4185765
31395,Bati,103,232.0,24.1788923,88.4197886
31396,Char Ramipur,104,232.0,24.1849599,88.43190729999999
31397,Uttar Ganeshpur,201,232.0,25.6384619,88.198633
31398,Payasti Katiganga,202,232.0,-1.0,-1.0
31399,Sadekbag,203,232.0,-1.0,-1.0
31400,Debipur,204,232.0,23.1421728,88.1585029
31401,Kashiganj,205,232.0,26.0917422,87.93838219999999
31402,Jiaganj,206,232.0,24.2441053,88.26801720000002
31403,Durgapur,207,232.0,23.5204443,87.3119227
31404,Raghunandanbati,208,232.0,22.5889983,88.353955
31405,Thikamahal Nejamatganj,209,232.0,-1.0,-1.0
31406,Bhrigurambati,210,232.0,24.2478397,88.2698416
31407,Fayejpur,211,232.0,24.0811089,87.73080569999999
31408,Saiduganj,212,232.0,-1.0,-1.0
31409,Nehalia,213,232.0,21.74088,87.4789689
31410,Goljarbag,214,232.0,24.2462991,88.2649763
31411,Bahadurpur,215,232.0,23.6924569,87.1447831
31412,Tantipara,216,232.0,23.9045658,87.3736292
31413,Chaipara,217,232.0,-1.0,-1.0
31414,Sadek Sarai,218,232.0,24.266456,88.2740982
31415,Gujasti Rampur,219,232.0,24.2723701,88.2716659
31416,Narayanpur,220,232.0,22.6453065,88.46218909999999
31417,Jayenpur,221,232.0,-1.0,-1.0
31418,Beliapukur,222,232.0,24.2605964,88.2813944
31419,Raichandpur,223,232.0,24.2516015,88.2740982
31420,Chandipur,224,232.0,22.1022227,87.8574308
31421,Bilkandi,225,232.0,-1.0,-1.0
31422,Ambarnagar,226,232.0,24.2488488,88.2935519
31423,Bagdahar,227,232.0,23.21468,88.8862809
31424,Kanchannagar,228,232.0,23.2370718,87.82535730000001
31425,Begampur,229,232.0,22.7474019,88.2509857
31426,Ramnagar,230,232.0,21.6786436,87.5631613
31427,Amaipara,231,232.0,24.2396715,88.27933829999999
31428,Ramtanugram,232,232.0,-1.0,-1.0
31429,Bhelladanga,233,232.0,23.9358993,88.25146509999999
31430,Mirnasirerpol,234,232.0,-1.0,-1.0
31431,Enatalibag,235,232.0,-1.0,-1.0
31432,Panishali,236,232.0,23.2293317,88.6639228
31433,Fatejangpur Diar,237,232.0,24.2268905,88.2564608
31434,Manshurganj,238,232.0,-1.0,-1.0
31435,Azimganj,239,232.0,24.2351094,88.26071879999999
31436,Baranagar,240,232.0,-1.0,-1.0
31437,Kusumkhola,241,232.0,24.2436595,88.2290783
31438,Chhalimpur,242,232.0,24.2363304,88.2375991
31439,Asanpur,243,232.0,23.4230223,88.1367641
31440,Fatejangpur,244,232.0,24.2327493,88.2491605
31441,Kaltapara,245,232.0,24.2311941,88.2430759
31442,Mahinagar,246,232.0,23.3580209,87.79846529999999
31443,Mahinagar Diar,247,232.0,24.221698,88.2570691
31444,Mirpur,248,232.0,-1.0,-1.0
31445,Char Mahimapur,249,232.0,24.215811,88.26193529999999
31446,Lalkuthi,250,232.0,24.2157002,88.2522024
31447,Madhusudanbati,251,232.0,24.2141171,88.24368439999999
31448,Chandabag,252,232.0,24.2244462,88.2375991
31449,Benipur,253,232.0,22.7064285,88.2491605
31450,Bil Chandpur,254,232.0,24.2087704,88.23090429999999
31451,Darura,255,232.0,24.2066192,88.2375991
31452,Jakhirabag,256,232.0,-1.0,-1.0
31453,Fauzbag,257,232.0,24.2044816,88.2455099
31454,Aminabazar,258,232.0,24.2067866,88.2522024
31455,Sati Chauraha,259,232.0,24.2015938,88.25281079999999
31456,Kashibati,260,232.0,25.4756231,88.1937598
31457,Bageshwarbati,261,232.0,23.6796238,87.6894999
31458,Rajbari,262,232.0,22.6429924,88.42234549999999
31459,Ghanashyampur,263,232.0,22.3166425,88.2229909
31460,Mukundabag,264,232.0,-1.0,-1.0
31461,Satlakshmi,265,232.0,24.1902912,88.2388162
31462,Dakshin Ganeshpur,266,232.0,21.8889383,88.2120315
31463,Targram,1,233.0,24.2372056,88.00634160000001
31464,Mobarakpur,2,233.0,23.8429827,88.5734421
31465,Buradanga,3,233.0,24.2227338,88.0164738
31466,Mehanadanga,4,233.0,-1.0,-1.0
31467,Kharikadanga,5,233.0,24.2188838,88.0253027
31468,Tentuliya,6,233.0,-1.0,-1.0
31469,Pundi,7,233.0,24.2533458,88.0485343
31470,Ayra,8,233.0,24.0616461,87.9310291
31471,Mahalo,9,233.0,24.2419567,88.08763359999999
31472,Baniapara,10,233.0,24.2263826,88.0894655
31473,Jaykrishnabati,11,233.0,24.2144378,88.08458019999999
31474,Pashla,12,233.0,23.4866746,87.9616593
31475,Kushmore,13,233.0,24.3530236,87.91461129999999
31476,Nimgram,14,233.0,-1.0,-1.0
31477,Amirabad,15,233.0,24.2298279,88.0680883
31478,Korgram,16,233.0,23.8189712,88.1327991
31479,Bilol,17,233.0,24.2176963,88.0485343
31480,Kishorpur,18,233.0,23.8902923,88.54444749999999
31481,Chakjafrabad,19,233.0,24.191426,88.02713720000001
31482,Maheshpur,20,233.0,22.2816125,88.3633918
31483,Chupor,21,233.0,-1.0,-1.0
31484,Sahebnagar,22,233.0,-1.0,-1.0
31485,Panchgram,23,233.0,24.2053088,88.00940039999999
31486,Kutubpur,24,233.0,24.1079959,87.7406534
31487,Rasulpur,25,233.0,23.1840099,88.0301946
31488,Fakir Pur,26,233.0,22.1963457,88.1795526
31489,Saiyadpur,27,233.0,21.6803437,87.5649218
31490,Jhulunpur,28,233.0,-1.0,-1.0
31491,Jurankandi,29,233.0,24.1463884,88.0485343
31492,Radhanagar,30,233.0,22.7263702,87.8660235
31493,Arazi Saiyadpur,31,233.0,24.1582739,88.0485343
31494,Singar,32,233.0,-1.0,-1.0
31495,Bilbasia,33,233.0,24.1777267,88.0595345
31496,Uste,34,233.0,24.170159,88.0485343
31497,Gura,35,233.0,24.1956462,88.0668664
31498,Nabagram,36,233.0,23.111247,88.04364439999999
31499,Karjora,37,233.0,23.6122328,87.14727649999999
31500,Ikrol,38,233.0,24.2208766,88.0984648
31501,Suki,39,233.0,-1.0,-1.0
31502,Karai,40,233.0,25.3377817,88.58913919999999
31503,Milki Palasi,41,233.0,24.2305565,88.1266983
31504,Tiknara,42,233.0,24.2232037,88.1327991
31505,Bishnupur,43,233.0,-1.0,-1.0
31506,Purbbagram,44,233.0,24.2130271,88.1510962
31507,Jarulia,45,233.0,24.1997012,88.1547547
31508,Palsanda,46,233.0,-1.0,-1.0
31509,Sajaimati,47,233.0,24.1906698,88.144998
31510,Dakshin Gram,48,233.0,24.3672749,88.0155173
31511,Arulia Danga,49,233.0,24.2055552,88.1474374
31512,Majhigram,50,233.0,24.2084376,88.1401188
31513,Shiara,51,233.0,-1.0,-1.0
31514,Chanak,52,233.0,-1.0,-1.0
31515,Amar,53,233.0,23.2900239,87.83041449999999
31516,Baidyabati,54,233.0,22.795783,88.3190717
31517,Kanfala,55,233.0,24.2022271,88.11815589999999
31518,Maminabad,56,233.0,24.1872812,88.1108325
31519,Itasaran,57,233.0,24.1768367,88.10717029999999
31520,Chandpur,58,233.0,22.6851815,88.42706020000001
31521,Bahala,59,233.0,24.1890212,88.131579
31522,Panchananda Pur,60,233.0,-1.0,-1.0
31523,Jalukhan,61,233.0,24.1713121,88.14133869999999
31524,Bichhuti,62,233.0,-1.0,-1.0
31525,Mugrol Danga,63,233.0,24.1542487,88.1431684
31526,Bramhapur,64,233.0,22.4602448,88.364436
31527,Palsha,65,233.0,23.2513467,88.0002234
31528,Gorara,66,233.0,-1.0,-1.0
31529,Hizrol,67,233.0,24.1619411,88.10457910000001
31530,Ishanpur,68,233.0,24.0794766,87.9310291
31531,Ishan Nagar,69,233.0,22.6624531,88.40844589999999
31532,Mururia,70,233.0,24.151535,88.1035078
31533,Rajkhanda,71,233.0,24.1381784,88.1047287
31534,Daspara,72,233.0,26.4079015,88.4331189
31535,Hasenabad,73,233.0,-1.0,-1.0
31536,Mahurul,74,233.0,24.1075757,88.09312919999999
31537,Digari,75,233.0,24.1159966,88.1132737
31538,Anantapur,76,233.0,24.1233506,88.10717029999999
31539,Gramdighi,77,233.0,24.1294737,88.12181710000002
31540,Achhra,78,233.0,23.7947598,86.89979180000002
31541,Amarkunda,79,233.0,22.8258277,88.2059418
31542,Kanakpara,80,233.0,24.1224147,88.1523157
31543,Bagor,81,233.0,-1.0,-1.0
31544,Nandigram,82,233.0,21.9997628,88.0020589
31545,Bilbagor,83,233.0,-1.0,-1.0
31546,Madhunia,84,233.0,24.1241195,88.17060470000001
31547,Chayannagar,85,233.0,24.1351977,88.1651188
31548,Sankuria,86,233.0,-1.0,-1.0
31549,Rainda,87,233.0,24.1506595,88.1535352
31550,Gopgram,88,233.0,-1.0,-1.0
31551,Pamia,89,233.0,-1.0,-1.0
31552,Narayanpur,90,233.0,22.6453065,88.46218909999999
31553,Bundaidanga,91,233.0,24.1998184,88.1645092
31554,Itor,92,233.0,24.1985508,88.1827931
31555,Khajuria,93,233.0,24.2132615,88.17060470000001
31556,Nagara,94,233.0,24.2240568,88.1870874
31557,Kethor,95,233.0,-1.0,-1.0
31558,Garsama,96,233.0,-1.0,-1.0
31559,Shibrambati,97,233.0,22.7901986,88.215685
31560,Mathura Pur,98,233.0,22.1202674,88.39432819999999
31561,Tiadanga,99,233.0,-1.0,-1.0
31562,Kongarpur,100,233.0,24.212251,88.2108137
31563,Kiriteshwari,101,233.0,24.187174,88.22156079999999
31564,Damrul,102,233.0,24.1987808,88.20228759999999
31565,Pathanpara,103,233.0,23.9256748,87.9316419
31566,Bagmara,104,233.0,-1.0,-1.0
31567,Rajdharpur,105,233.0,24.1678794,88.2278608
31568,Bilbari,106,233.0,23.2677434,88.1236476
31569,Raghupur,107,233.0,24.1676815,88.2108137
31570,Garra,108,233.0,22.8408976,86.7893889
31571,Khekul,109,233.0,24.1777807,88.1852304
31572,Jaykrishnapur,110,233.0,24.1847384,87.8082982
31573,Shrirampur,111,233.0,-1.0,-1.0
31574,Gangarampur,112,233.0,25.40091,88.53236059999999
31575,Shibpur,113,233.0,-1.0,-1.0
31576,Mukundapur,114,233.0,22.4923566,88.4086493
31577,Mahadipur,115,233.0,24.852468,88.1254781
31578,Dafarpur,116,233.0,24.4441063,88.1022869
31579,Biltelkar,117,233.0,24.1065199,88.1901046
31580,Faphar,118,233.0,24.0961614,88.1937598
31581,Ghoramara,1,234.0,-1.0,-1.0
31582,Arazi Biharia,2,234.0,23.9602968,88.3366837
31583,Chandabad,3,234.0,23.9655451,88.3409338
31584,Kedar Chandpur,4,234.0,23.9298168,88.33607649999999
31585,Alampur,5,234.0,22.5831787,88.21446720000002
31586,Ramna Chandpur,6,234.0,23.8988703,88.3615713
31587,Dudhsar,7,234.0,23.9004978,88.37491969999999
31588,Sarbbangapur,8,234.0,-1.0,-1.0
31589,Dakatiapota,9,234.0,-1.0,-1.0
31590,Bali,10,234.0,22.645734,88.34786
31591,Tungi,11,234.0,23.8311576,88.42706020000001
31592,Goghata,12,234.0,22.8864233,87.70494529999999
31593,Bhagabanpur,13,234.0,22.097831,87.7517295
31594,Sonatikri,14,234.0,22.9701885,88.3372909
31595,Pareshnathpur,15,234.0,23.9125434,88.38947689999999
31596,Bundainagar,16,234.0,23.9274852,88.3967536
31597,Raypur,17,234.0,-1.0,-1.0
31598,Madhupur,18,234.0,26.363461,89.3807678
31599,Chandkati,19,234.0,23.9728912,88.47671679999999
31600,Gangadhari,20,234.0,23.9978632,88.4883122
31601,Char Garibpur,21,234.0,23.9968646,88.49607929999999
31602,Moktarpur,22,234.0,22.8425556,87.9849242
31603,Char Fazilnagar,23,234.0,23.9388076,88.4876093
31604,Char Madhupur,24,234.0,23.9416857,88.4779272
31605,Char Surangapur,25,234.0,-1.0,-1.0
31606,Surangapur,26,234.0,23.9204128,88.43190729999999
31607,Kanapara,27,234.0,23.9213334,88.4494733
31608,Sakua,28,234.0,23.9129919,88.4331189
31609,Jagaipur,29,234.0,23.9090271,88.48276849999999
31610,Pashchim CharBrindabanpur,30,234.0,23.903269,88.50212839999999
31611,Char Narayanpur,31,234.0,24.0474766,88.2242084
31612,Purba Char Brindabanpur,32,234.0,22.045151,87.9689968
31613,Edrakpur,33,234.0,-1.0,-1.0
31614,Shibnagar,34,234.0,24.0038916,88.24672679999999
31615,Mahammadpur,35,234.0,22.1879672,87.9224488
31616,Patikabari,36,234.0,23.865708,88.46218909999999
31617,Char Kanainagar,37,234.0,23.8583817,88.4730853
31618,Chandpur,38,234.0,22.6851815,88.42706020000001
31619,Char Radhanagar,39,234.0,23.8247527,88.45552889999999
31620,Kanupur,1,235.0,24.4982124,88.03753139999999
31621,Khidirpur,2,235.0,22.54206,88.3189579
31622,Gadaipur,3,235.0,-1.0,-1.0
31623,Sonatikuri,4,235.0,24.4661719,88.0567847
31624,Balighata,5,235.0,22.5667378,88.39298749999999
31625,Raghunathganj,6,235.0,24.4583661,88.05586799999999
31626,Jangipur,7,235.0,24.4589833,88.1047287
31627,Bhabanipur,8,235.0,22.4224226,88.4422055
31628,Enyetnagar,9,235.0,22.3694722,88.2874736
31629,Joyrampur,18,235.0,22.85984,87.8267292
31630,Chhotkaliya,19,235.0,-1.0,-1.0
31631,Raninagar Dwipchar,90,235.0,24.4399398,88.1254781
31632,Chardafarpur,91,235.0,24.4457882,88.11815589999999
31633,Dafarpur,92,235.0,24.4441063,88.1022869
31634,Charka,93,235.0,24.4482689,88.07908359999999
31635,Sujapur,94,235.0,25.0690815,88.13767899999999
31636,Basudebpur,95,235.0,21.8248993,87.62110609999999
31637,Dewli,96,235.0,22.204139,87.7923186
31638,Mangoljon,97,235.0,-1.0,-1.0
31639,Ghorshala,98,235.0,24.4609888,88.02897159999999
31640,Bagha,99,235.0,23.8220767,87.9101885
31641,Takshak,100,235.0,24.4607337,88.00940039999999
31642,Hasanpur,101,235.0,24.1742716,88.40402910000002
31643,Bandhya,102,235.0,23.4952086,86.47501199999999
31644,Nait Baidra,103,235.0,24.4367223,87.9898205
31645,Sahebnagar,104,235.0,23.809688,88.4068147
31646,Birthumba,105,235.0,-1.0,-1.0
31647,Sandajamuyar,106,235.0,-1.0,-1.0
31648,Mondalpur,107,235.0,22.9935908,88.7854646
31649,Barala,108,235.0,24.4296046,88.0130707
31650,Shakhalipara,109,235.0,24.9862873,88.13943979999999
31651,Jarur,110,235.0,24.4327332,88.0253027
31652,Umarpur,111,235.0,24.4476749,88.0326403
31653,Sadhua,112,235.0,24.4417363,88.0326403
31654,Kankuria,113,235.0,-1.0,-1.0
31655,Srikantabati,114,235.0,24.4553029,88.0485343
31656,Bahadinagar,115,235.0,24.445645,88.04792309999999
31657,Bandkhola,116,235.0,-1.0,-1.0
31658,Nista,117,235.0,24.4368153,88.0540347
31659,Talai,118,235.0,24.4240148,88.0399767
31660,Mathurapur,119,235.0,22.1202674,88.39432819999999
31661,Simla,120,235.0,22.7392188,88.3215014
31662,Siddikali,121,235.0,-1.0,-1.0
31663,Kulori,122,235.0,24.4007788,88.03263369999999
31664,Selalpur,123,235.0,22.8276481,87.86847829999999
31665,Prashadpur,124,235.0,-1.0,-1.0
31666,Katnai,125,235.0,21.7840281,87.68030279999999
31667,Baidpur,126,235.0,24.4212649,88.05709019999999
31668,Araji katnai,127,235.0,-1.0,-1.0
31669,Jagadanandabati,128,235.0,-1.0,-1.0
31670,Ramakantapur,129,235.0,-1.0,-1.0
31671,Jethia,130,235.0,22.9191401,88.4428112
31672,Mirjapur,131,235.0,23.2817971,87.88197699999999
31673,Amgachhi,132,235.0,23.9226258,87.4764931
31674,Bijaypur,133,235.0,22.8143505,88.1785276
31675,Gankarchak,134,235.0,-1.0,-1.0
31676,Ramchandrabati,135,235.0,24.3842224,88.0632006
31677,Dakshinpara,136,235.0,23.3736804,88.5764612
31678,Dhalo,137,235.0,24.3919402,88.08641229999999
31679,Gankar,138,235.0,24.4119778,88.0858016
31680,Paikar,139,235.0,24.4356657,87.9114147
31681,Brindabanpur,140,235.0,-1.0,-1.0
31682,Chakbahala,141,235.0,24.4245445,88.08152659999999
31683,Rajanagar,142,235.0,23.9451456,87.31403770000001
31684,Raninagar,143,235.0,24.2217631,88.5480729
31685,Diarraninagar,144,235.0,24.1111838,88.2578892
31686,Natunganj,145,235.0,23.237671,87.8474032
31687,Panchanpara,146,235.0,24.3950324,88.096182
31688,Santoshpur,147,235.0,-1.0,-1.0
31689,Bagpara,149,235.0,-1.0,-1.0
31690,Kanchanpur,150,235.0,23.3116417,87.0942627
31691,Pasai,151,235.0,24.3907754,88.1120531
31692,Uttar Ramana,156,235.0,24.3863381,87.997164
31693,Bangabari,10,236.0,24.510214,88.0473119
31694,Char Sekendra,11,236.0,-1.0,-1.0
31695,Lalkhandiar,12,236.0,24.5103708,88.0595345
31696,Giria Kismat,13,236.0,24.5045267,88.0668664
31697,Sekendra,14,236.0,24.4977516,88.0788168
31698,Mithipur,15,236.0,24.4854298,88.08274809999999
31699,Pananagar,16,236.0,-1.0,-1.0
31700,Mukundapur,17,236.0,22.4923566,88.4086493
31701,Bahura,20,236.0,24.4573306,88.09129740000002
31702,Jotekamal,21,236.0,-1.0,-1.0
31703,Osmanpur,22,236.0,-1.0,-1.0
31704,Khodarampur,23,236.0,24.4604527,88.1035078
31705,Sahajadpur,24,236.0,24.0085658,88.47671679999999
31706,Barshimul,25,236.0,-1.0,-1.0
31707,Jalsuka,26,236.0,23.6066734,88.4355422
31708,Jalalpur,27,236.0,24.8936308,88.0700482
31709,Sidhaigachhi,28,236.0,24.4731707,88.11144279999999
31710,Jotsundar,29,236.0,24.7743955,87.8340995
31711,Nababjaigir,30,236.0,24.4782068,88.0986241
31712,Markol,31,236.0,22.5804769,88.4266619
31713,Akbarpur,32,236.0,24.2220819,88.2911207
31714,Ramdebpur,33,236.0,22.5807342,87.6716747
31715,Rameshwarpur,34,236.0,22.2908582,88.05220130000001
31716,Giria,35,236.0,-1.0,-1.0
31717,Pirojpur,36,236.0,24.5183641,88.1047287
31718,Kajikola,37,236.0,24.4961735,88.1108325
31719,Ramdastuli,38,236.0,24.4894399,88.1065599
31720,Chaksaidpur,39,236.0,25.6128737,85.1665083
31721,Saidpur,40,236.0,-1.0,-1.0
31722,Binodighi,41,236.0,-1.0,-1.0
31723,Hirkati,42,236.0,-1.0,-1.0
31724,Dayarampur,43,236.0,22.0643122,88.2406419
31725,Bajitpur,44,236.0,-1.0,-1.0
31726,Hirkati,45,236.0,24.4896672,88.1248679
31727,Dariapur,46,236.0,21.7968505,87.85865849999999
31728,Khamra,47,236.0,23.2898934,85.97067849999999
31729,Shibpur,48,236.0,22.5723094,88.3117819
31730,Indranarayanpur,49,236.0,21.9115728,88.384625
31731,Kalaimati,50,236.0,-1.0,-1.0
31732,kajimati,51,236.0,-1.0,-1.0
31733,Kanaimati,52,236.0,24.4729903,88.15719349999999
31734,Pania,53,236.0,21.7736523,87.684
31735,Narukhaki,54,236.0,24.4805166,88.16572839999999
31736,Dubra,55,236.0,23.542858,86.5122871
31737,Jotbishwanathpur,56,236.0,-1.0,-1.0
31738,Paschim Chargotha,57,236.0,-1.0,-1.0
31739,Malgotha,58,236.0,-1.0,-1.0
31740,Sekhalipur-(59),59,236.0,24.4133349,88.26071879999999
31741,Paschim Khandua,60,236.0,24.4569966,88.1852304
31742,Barjumla,61,236.0,24.440348,88.177449
31743,Puthia,62,236.0,23.144692,87.1983631
31744,Kharkati,63,236.0,24.455145,88.1547547
31745,Shimultala,64,236.0,-1.0,-1.0
31746,Bhabki,65,236.0,24.5974184,88.0191871
31747,Nowdatuli,66,236.0,-1.0,-1.0
31748,Gosainpur,67,236.0,23.3274377,87.2705376
31749,Piarapur,68,236.0,22.7304651,87.9518599
31750,Hudrapur,69,236.0,24.4755714,88.1254781
31751,Nasipur,70,236.0,24.3195752,88.37734619999999
31752,Habipur,71,236.0,23.1697666,88.5159743
31753,Donolia,72,236.0,-1.0,-1.0
31754,Kutubpur,73,236.0,23.2132462,88.2375991
31755,Teghari,74,236.0,22.8901984,87.9849242
31756,Chak Kutubpur,75,236.0,24.4520568,88.144998
31757,Krishnasali,76,236.0,24.4462072,88.1523157
31758,Asrafnagar,77,236.0,24.4328298,88.1510962
31759,Durgapur,78,236.0,23.5204443,87.3119227
31760,Aitalghata,79,236.0,-1.0,-1.0
31761,kulgachhi,80,236.0,23.4204846,88.56861099999999
31762,Khanpur,81,236.0,-1.0,-1.0
31763,Jhamra,82,236.0,24.413483,88.1474374
31764,Diar Raghunathpur,83,236.0,24.4044548,88.13767899999999
31765,Bahara,84,236.0,24.4087746,88.1266983
31766,Kasiadanga,85,236.0,23.5492211,88.3457906
31767,Dighirpahar,86,236.0,-1.0,-1.0
31768,Babupur,87,236.0,25.2654307,88.32636029999999
31769,Laxmijola,88,236.0,24.4168838,88.1501948
31770,Rampur,89,236.0,25.3470758,88.632578
31771,Ilaspur,148,236.0,25.3922293,88.34154099999999
31772,Mahammadpur,152,236.0,22.1879672,87.9224488
31773,Raghunathpur,153,236.0,23.5343795,86.6686635
31774,Birendranagar,154,236.0,22.8971975,88.2816924
31775,Frezarnagar,155,236.0,-1.0,-1.0
31776,Paschim Bakherali,157,236.0,-1.0,-1.0
31777,Kanaipur,1,237.0,22.701839,88.32783889999999
31778,Jot Balarampur,2,237.0,23.1093061,86.2348957
31779,Uttar Gopalpur,3,237.0,25.3550074,88.2595023
31780,Molladanga,4,237.0,24.2757443,88.4476565
31781,Arijpur,5,237.0,-1.0,-1.0
31782,Purandarpur,6,237.0,-1.0,-1.0
31783,Binodpur,7,237.0,21.9070102,88.5347783
31784,Daulatpur,8,237.0,25.3290095,88.3269552
31785,Begampur,9,237.0,22.7474019,88.2509857
31786,Araji Kanaipur,15,237.0,-1.0,-1.0
31787,Hurshi,16,237.0,24.2700463,88.4718747
31788,Purusottampur,17,237.0,-1.0,-1.0
31789,Bota,18,237.0,-1.0,-1.0
31790,Melanpur,19,237.0,23.8318882,87.66057909999999
31791,Durgapur,20,237.0,23.5204443,87.3119227
31792,Pratappur,21,237.0,23.4707709,87.30285579999999
31793,Lochanpur,22,237.0,24.2489801,88.44523389999999
31794,Char Debaipur---(023),23,237.0,24.2862934,88.4398583
31795,Char Pirojpur,24,237.0,24.2651851,88.43190729999999
31796,Khemrajpur,25,237.0,-1.0,-1.0
31797,Shrirampur,26,237.0,22.748331,88.3385053
31798,Nawdapara,27,237.0,24.1174176,88.23273030000001
31799,Mohanpur,28,237.0,21.8398171,87.4232306
31800,Gopinathpur,29,237.0,22.8076683,88.0534236
31801,Moktarpur,30,237.0,22.8425556,87.9849242
31802,Char Alampur,31,237.0,24.2292305,88.4028166
31803,Maheshwarpur,32,237.0,22.9455709,88.1955873
31804,Chatra,33,237.0,-1.0,-1.0
31805,Charhulashpur,34,237.0,24.1957457,88.39735999999999
31806,Roshannagar--(35),35,237.0,23.26027,87.65552129999999
31807,Chandpur,36,237.0,22.6851815,88.42706020000001
31808,Paharpur,37,237.0,22.5244929,88.2971985
31809,Firojpur,38,237.0,24.200492,88.4252424
31810,Sinkaipur,39,237.0,24.2034261,88.4216066
31811,Ajmatpur,40,237.0,-1.0,-1.0
31812,Ishabpur,41,237.0,22.8861165,87.8991514
31813,Kamalpur,42,237.0,23.3009283,86.84650359999999
31814,Natkuli,43,237.0,24.210378,88.4476565
31815,Bishnupur,44,237.0,23.0678795,87.3165222
31816,Kharkati,45,237.0,24.455145,88.1547547
31817,Baliharpur,46,237.0,-1.0,-1.0
31818,Raghunathpur,47,237.0,23.5343795,86.6686635
31819,Barbila,48,237.0,-1.0,-1.0
31820,Haribhanga Doulatpur,49,237.0,24.1925981,88.4525012
31821,Ramipur,50,237.0,24.187981,88.43675379999999
31822,Char Radhaballavpur,51,237.0,-1.0,-1.0
31823,Tenkaraipur,52,237.0,24.1794054,88.45716709999999
31824,Borakuli,53,237.0,24.1733923,88.4633999
31825,Balumati,54,237.0,24.1734649,88.4706642
31826,Hasimpur,55,237.0,-1.0,-1.0
31827,Islampur,56,237.0,26.2546438,88.19741479999999
31828,Char Garamgari,57,237.0,24.140654,88.45855639999999
31829,Harharia chak,58,237.0,24.1512369,88.47671679999999
31830,Araji Kalabriya,59,237.0,-1.0,-1.0
31831,Dighir Pahar,60,237.0,24.4288869,88.132189
31832,Kasbagoas,61,237.0,-1.0,-1.0
31833,Gojepara,62,237.0,-1.0,-1.0
31834,dakshin Gopalpur,63,237.0,22.3996538,87.71356709999999
31835,Birkuchi Dangapara,64,237.0,24.1973101,88.4779272
31836,Herampur,65,237.0,24.2019229,88.49365949999999
31837,Goas Kalikapur,66,237.0,24.1813342,88.51543319999999
31838,Nalbatta,67,237.0,24.1635505,88.52027029999999
31839,Seetanagar,68,237.0,24.1925887,88.5269204
31840,Raipur,69,237.0,-1.0,-1.0
31841,Chaipara,73,237.0,23.5155347,88.54928129999999
31842,Radhakrishnapur,10,238.0,22.4560915,87.50124550000001
31843,Brindabanpur,11,238.0,22.108309,87.8672509
31844,Bilchatra,12,238.0,24.2451383,88.506967
31845,Malibari,13,238.0,24.2346797,88.50091859999999
31846,Mridadpur,14,238.0,24.404004,88.2242084
31847,Araji Doyem Kanun,70,238.0,-1.0,-1.0
31848,Komnagar,71,238.0,22.7004725,88.3190717
31849,Sitanagar Chaipara,72,238.0,-1.0,-1.0
31850,Tejsinghapur,74,238.0,-1.0,-1.0
31851,Khastaluk,75,238.0,24.2178583,88.5281294
31852,Egararashi,76,238.0,24.2274046,88.5166425
31853,Kalyanpur,77,238.0,22.5006615,87.91509309999999
31854,Ramnagar Doyemkanun,78,238.0,-1.0,-1.0
31855,Ramngar CHHoem Kanun,79,238.0,-1.0,-1.0
31856,Krishnanagar,80,238.0,-1.0,-1.0
31857,Godhan Para,81,238.0,24.2039341,88.5480729
31858,Deputipara,82,238.0,24.2160473,88.5722344
31859,Babaltali,83,238.0,24.2383217,88.5710266
31860,Bil Panchakopra,84,238.0,-1.0,-1.0
31861,Jhaubaria,85,238.0,24.0762973,88.56498739999999
31862,Ramnagar Khastaluk,86,238.0,-1.0,-1.0
31863,Banshgara,87,238.0,22.8444403,87.3188682
31864,Dakshin Majhardiar,88,238.0,-1.0,-1.0
31865,Katlamari,89,238.0,24.2740664,88.58068759999999
31866,Nabipur,90,238.0,24.2743327,88.6096575
31867,Rajanagar,91,238.0,23.9451456,87.31403770000001
31868,Ramchandra Pur,92,238.0,22.8911172,88.4706642
31869,Shibnagar,93,238.0,24.0038916,88.24672679999999
31870,Dakshin Diar Shibnagar,94,238.0,-1.0,-1.0
31871,Rajasahi Khasamahal,95,238.0,24.2989483,88.706081
31872,Sarandaj Pur,96,238.0,24.2979241,88.5903465
31873,Char Katlamari,97,238.0,24.2873349,88.6273028
31874,Char Nabipurdihi,98,238.0,-1.0,-1.0
31875,Char Rajanagar,99,238.0,24.2997719,88.6301659
31876,Char Banshgara,100,238.0,24.3121155,88.52027029999999
31877,Panchim Char Majhardiar,101,238.0,24.3063138,88.5347783
31878,Biprokali,1,239.0,-1.0,-1.0
31879,Chandpur,2,239.0,22.6851815,88.42706020000001
31880,Baburgram,3,239.0,24.3719043,88.02897159999999
31881,Chandpurchak,4,239.0,24.3802053,88.0393654
31882,Anuppur,5,239.0,24.3825033,88.0448669
31883,Ramnasekhdighi,6,239.0,24.3705299,88.03753139999999
31884,Nachna,7,239.0,22.8446248,86.8270545
31885,Durgachandpur,8,239.0,24.3666675,88.0259142
31886,Fulsahari,9,239.0,-1.0,-1.0
31887,Dakshingram,10,239.0,24.0366458,87.80805939999999
31888,Jianagar,11,239.0,24.3731826,88.0130707
31889,Uttar Debagram,12,239.0,24.3760565,88.0057298
31890,Uttar Kalikapur,13,239.0,24.3759602,87.99838779999999
31891,Banyeshwar,14,239.0,26.3919456,89.4954794
31892,Kismat Nispibiral,15,239.0,24.3638875,87.9837
31893,Tantibiral,16,239.0,-1.0,-1.0
31894,Math Khagra,17,239.0,-1.0,-1.0
31895,Seora,18,239.0,24.3700154,87.9699258
31896,Ser,19,239.0,-1.0,-1.0
31897,Kotla,20,239.0,24.3547503,87.9665582
31898,Jaglai,21,239.0,24.3480435,87.96472109999999
31899,Nispibiral,22,239.0,24.3548481,87.9739055
31900,Budhi,23,239.0,24.3549455,87.9812516
31901,Jindighi,24,239.0,-1.0,-1.0
31902,BelaiPara,25,239.0,24.3430983,87.9837
31903,Athua,26,239.0,24.3429685,87.9739055
31904,Syampur,27,239.0,-1.0,-1.0
31905,Kharati,28,239.0,24.3418228,87.9996115
31906,Dumaipur,29,239.0,24.3165932,88.0008352
31907,Morgram,30,239.0,24.3025793,88.0163889
31908,Gangadda,31,239.0,-1.0,-1.0
31909,Beloria,32,239.0,24.3538946,88.01429399999999
31910,Udaynagar,33,239.0,24.3555858,88.0301946
31911,Sitalpara,34,239.0,24.3550244,88.0442557
31912,Kharugram,35,239.0,24.3545237,88.0632006
31913,Buzruk Fatepur,36,239.0,-1.0,-1.0
31914,Pauli,37,239.0,24.364903,88.06197859999999
31915,Bhumihar,38,239.0,-1.0,-1.0
31916,Arazi Balarambati,39,239.0,24.3593636,88.0937397
31917,Chandpara,40,239.0,22.9763159,88.78143250000001
31918,Harirampur,41,239.0,25.3773195,88.26801720000002
31919,Kismat Gadi,42,239.0,24.3807561,88.14255849999999
31920,Kantanagar,43,239.0,24.3427081,88.3190717
31921,Dogachhi,44,239.0,24.3673169,88.1364591
31922,Hatpara,45,239.0,25.583173,88.2765304
31923,Manigram,46,239.0,-1.0,-1.0
31924,Balrambati,47,239.0,22.8177805,88.21872929999999
31925,Kherur,48,239.0,23.3860158,88.0008352
31926,Thakurpara,49,239.0,24.3384201,88.08152659999999
31927,Karaia,50,239.0,26.4946042,88.6899191
31928,Ekrakhi,51,239.0,24.3368273,88.07297539999999
31929,Bhola,52,239.0,-1.0,-1.0
31930,Kaiar,53,239.0,23.1137129,87.7787929
31931,Saorail,54,239.0,24.3306388,88.0534236
31932,Gokulta,55,239.0,24.3462239,88.0528124
31933,Chak Mathurapur,56,239.0,-1.0,-1.0
31934,Surjyapur,57,239.0,22.7521179,88.4185765
31935,Bhurkunda,58,239.0,-1.0,-1.0
31936,Bahalnagar,59,239.0,24.3138781,88.0204103
31937,Fulbari,60,239.0,26.6671059,88.4188101
31938,Telangal,61,239.0,24.2886781,88.0240796
31939,Bokhara,62,239.0,24.3066893,88.038754
31940,Maliadanga,63,239.0,23.9373131,88.6470477
31941,Jalbanda,64,239.0,24.2950579,88.0583123
31942,Imamnagar,65,239.0,-1.0,-1.0
31943,Chak Imamnagar,66,239.0,24.2941359,88.0442557
31944,Sihara,67,239.0,-1.0,-1.0
31945,Rasbeluria,68,239.0,24.2829263,88.038754
31946,Jogpur,69,239.0,24.2767963,88.0240796
31947,Chak Sihara,70,239.0,24.2656648,88.02469119999999
31948,Dohaildangapara,71,239.0,-1.0,-1.0
31949,Megha,72,239.0,24.2756409,88.0497566
31950,Jotkamal,73,239.0,24.2823791,88.0540347
