id,name,jl_number,block_id,latitude,longitude
21494,Guriamari,76,172.0,22.2582243,87.2357086
21496,Kholapatana,101,172.0,22.3802977,87.2786193
21497,Chunparakharida,116,172.0,22.3761831,87.2997492
21498,MALANCHA,131,172.0,22.5004512,88.7674361
21499,Chandipur,132,172.0,22.1022227,87.8574308
21500,GOBINDAPUR,133,172.0,22.3781175,88.4052416
21501,Dhekia  (135),135,172.0,23.5431296,87.00017419999999
21502,Khidirpur,140,172.0,22.54206,88.3189579
21503,Bhagabanpur,141,172.0,22.097831,87.7517295
21504,KHARAGPUR KHASJUNGLE,142,172.0,-1.0,-1.0
21505,Mathurakati khas jangal,143,172.0,-1.0,-1.0
21506,TEUTICHATI,144,172.0,-1.0,-1.0
21507,TALBAGICHA KUCHLATARI,145,172.0,-1.0,-1.0
21508,Andharkuli,146,172.0,22.1210393,86.81450249999999
21509,Dewanmara (088),88,172.0,-1.0,-1.0
21510,DEBALPUR,190,172.0,23.1421728,88.1585029
21511,SRIKRISHNAPUR,191,172.0,22.8977074,88.5384045
21512,BHABANIPUR,192,172.0,22.4224226,88.4422055
21513,NIMGERIAPATNA,193,172.0,-1.0,-1.0
21514,KHARIDA,194,172.0,22.346486,87.3047196
21515,Teghari,195,172.0,22.8901984,87.9849242
21516,Rajagram,196,172.0,23.2161622,87.03869089999999
21517,Jafali,228,172.0,-1.0,-1.0
21518,Jijarpur,229,172.0,22.3593741,87.364323
21519,Japhala(230),230,172.0,-1.0,-1.0
21520,Kajichak(231),231,172.0,22.006515,87.3958658
21521,INDA,232,172.0,22.3507704,87.3388767
21522,Milik,233,172.0,25.9028055,88.05709019999999
21523,RAGHABPURDARBESCHALK,234,172.0,-1.0,-1.0
21524,BULBULCHATI,235,172.0,24.9814376,88.24490139999999
21525,Belgiri,236,172.0,-1.0,-1.0
21526,GAIKATA,237,172.0,26.6962835,89.0346588
21527,KASAIKATA,238,172.0,22.572646,88.36389500000001
21528,TALJULY,239,172.0,-1.0,-1.0
21529,Sholdahar,246,172.0,-1.0,-1.0
21530,Gholghariya(247),247,172.0,-1.0,-1.0
21531,Shibnandapur,248,172.0,22.6182633,87.8461126
21532,Chitrapur,249,172.0,22.2919026,87.33577249999999
21533,Yadabpur,250,172.0,22.4939728,88.37067119999999
21534,Agrapara,251,172.0,22.6816847,88.38485589999999
21535,Saraswatipur,252,172.0,21.7932951,87.8144427
21536,Kashijora,253,172.0,22.5401076,87.26432
21537,Ayodhyagarh,254,172.0,22.5799781,88.36110330000001
21538,Rangamatia,255,172.0,22.2908016,87.31403770000001
21539,Rakhalgeria,256,172.0,-1.0,-1.0
21540,Bagmari,257,172.0,22.5865768,88.384585
21541,Betkundari,258,172.0,22.4877859,86.99993959999999
21542,Dakshinjharia,259,172.0,22.2736468,87.3121742
21543,Gopali,260,172.0,22.2860678,87.2978852
21544,Amrakola,261,172.0,-1.0,-1.0
21545,Salua,262,172.0,22.2695028,87.2866995
21546,Chitrapathar,263,172.0,22.2608566,87.3040984
21547,Angarnali,264,172.0,22.2503716,87.3003706
21548,Baghuashol,265,172.0,22.230677,87.0236941
21549,Nadna,266,172.0,23.4709656,88.55653099999999
21550,Khagra,267,172.0,24.107308,88.2582857
21551,Dakshinjouli,268,172.0,22.2357672,87.3177644
21552,Tongageria,269,172.0,-1.0,-1.0
21553,Benageria,270,172.0,23.1409397,86.9936865
21554,Tangachak,271,172.0,22.2411316,87.32707979999999
21555,Napitchak,272,172.0,22.236011,87.3326682
21556,Kalsigerhya,273,172.0,22.84039,88.62413509999999
21557,Sikmikaligeria,274,172.0,-1.0,-1.0
21558,Baisnabchak,275,172.0,22.5033465,87.8359419
21559,Hemtikri,276,172.0,22.2479644,87.3351517
21560,Gerebar,277,172.0,22.2448239,87.32521690000002
21561,Uttarbali,278,172.0,22.2469863,87.3208697
21562,Barakhagra,279,172.0,22.243947,87.3171433
21563,Jaygopalpur,280,172.0,22.6308327,88.447808
21564,Kankuria,281,172.0,24.6500587,87.96043449999999
21565,Darkhola,282,172.0,25.8754466,87.84358879999999
21566,Keshuriya,283,172.0,22.7268409,75.88419549999999
21567,Rathbar,284,172.0,22.2515553,87.32707979999999
21568,Jamjuri,285,172.0,23.1169344,87.1435363
21569,Shandapur,286,172.0,22.2569395,87.3376351
21570,Balla,287,172.0,23.1450862,87.8966983
21571,Gobradan,288,172.0,22.1854582,87.7332678
21572,Dude,289,172.0,26.7159204,88.4249311
21573,Nachna,290,172.0,22.8446248,86.8270545
21574,Gangadharpur,291,172.0,22.7559892,88.2193381
21575,Shyamraypur,292,172.0,22.2770321,87.3370142
21576,Brikabhanupur,293,172.0,22.6289209,87.3227328
21577,Kismatballa,294,172.0,22.2667096,87.3432222
21578,GAIGHATA,295,172.0,22.9308609,88.7307683
21579,Debigeriya,296,172.0,-1.0,-1.0
21580,Parannagar,297,172.0,22.2767256,87.3410495
21581,NARAHARIPUR,298,172.0,22.5164012,87.650714
21582,Pratappur,299,172.0,21.800082,87.8782959
21583,Prasad chak,300,172.0,22.5143591,87.4659693
21584,Kayetpur,301,172.0,22.2929603,87.355015
21585,KAUSHALLYA,311,172.0,22.3313928,87.3376351
21586,SANJOAL,312,172.0,22.3404081,87.34260139999999
21587,Shankarachak,333,172.0,22.2856554,87.3637025
21588,Ramnagar(334),334,172.0,23.0371125,88.83155889999999
21589,Benapur Chaita,335,172.0,22.2676255,87.3537738
21590,Bhumjan,336,172.0,22.2625242,87.36059999999999
21591,Shikharpari,337,172.0,22.2573423,87.3624615
21592,Raghunathpur,338,172.0,23.5343795,86.6686635
21593,Raipur,339,172.0,23.631129,87.65687989999999
21594,Banpatna,340,172.0,22.2556322,87.34880860000001
21595,Nischintapur,341,172.0,21.9902315,88.2152393
21596,khelar,342,172.0,22.2379235,87.3587384
21597,Bagberia,344,172.0,23.5006354,88.6295629
21598,Balihati,216,173.0,22.5107598,88.75180499999999
21599,Uattarsimla,217,173.0,22.7392188,88.3215014
21600,Patpacha,218,173.0,22.38886,87.39223590000002
21601,Kunkradaha,219,173.0,22.2639497,88.46218909999999
21602,Krishnanagar,220,173.0,23.4008744,88.5013962
21603,Kanchadiha,221,173.0,-1.0,-1.0
21604,Munibpur,222,173.0,22.4692758,88.0253027
21605,Kantageriya,223,173.0,-1.0,-1.0
21606,Jakpur,224,173.0,22.375399,87.38851509999999
21607,Chakgnesh,225,173.0,22.4591093,88.3206032
21608,Malipur,226,173.0,24.268734,88.3457906
21609,Baradiha,227,173.0,22.357291,87.3736292
21610,Amlatariya,241,173.0,-1.0,-1.0
21611,Gharabarpur,242,173.0,22.523396,87.619872
21612,Amchhata,243,173.0,22.3068743,87.3407391
21613,Arasini,244,173.0,22.3016929,87.34260139999999
21614,Kashaba,245,173.0,21.9129694,87.5321673
21615,Katageriya,302,173.0,-1.0,-1.0
21616,Uparketiya,303,173.0,-1.0,-1.0
21617,Dheetapur,304,173.0,-1.0,-1.0
21618,Nagra,305,173.0,23.3728029,86.10646550000001
21619,Deulichak,306,173.0,22.3130929,87.3568767
21620,Gopinathchak,307,173.0,22.3687316,87.68584849999999
21621,Madanmohan,308,173.0,22.3166239,87.34508439999999
21622,Gangadharchak,309,173.0,22.3160106,87.3531532
21623,Gopalchak,310,173.0,21.7786552,87.8340995
21624,Amlichak,313,173.0,22.3377529,87.3624615
21625,Khelarachak,314,173.0,24.8601714,88.01918610000001
21626,Bhatachak,315,173.0,22.3386679,87.3730088
21627,Gangarampur,316,173.0,25.40091,88.53236059999999
21628,Kasmali,317,173.0,22.5732689,87.8868846
21629,Do Satina,318,173.0,22.3579091,88.3215014
21630,Jhnajiya,319,173.0,23.6422561,87.288564
21631,Sirsi (320),320,173.0,22.5925277,87.15830539999999
21632,Nayabasan,321,173.0,22.2093717,86.8791104
21633,Digara,322,173.0,23.0632565,88.56861099999999
21634,Belageriya(323),323,173.0,-1.0,-1.0
21635,Gourangachak,324,173.0,22.6767373,88.0014471
21636,Salika,325,173.0,22.4862498,86.8408579
21637,Deuli Purba,326,173.0,22.3290589,87.3773511
21638,Kalachak,327,173.0,24.8601714,88.01918610000001
21639,Charda,328,173.0,22.3254061,87.381693
21640,Kandarpapur,329,173.0,23.7547373,87.670442
21641,Radhaballavapur,330,173.0,22.3161936,87.9112608
21642,Elasai Rangadighi,331,173.0,22.293241,87.37238839999999
21643,Haripur Kisamat,332,173.0,22.2858953,87.37859170000002
21644,Shyamalpur,345,173.0,22.2516654,87.37983220000001
21645,Baligeriya (346),346,173.0,21.980521,87.10186999999999
21646,Tentulmuri,347,173.0,23.2929946,87.67352369999999
21647,Kharigeriya,348,173.0,26.5539653,88.19162010000001
21648,Banshapukhuriya,349,173.0,-1.0,-1.0
21649,Sanmaninathpur,350,173.0,22.2684223,87.40339639999999
21650,Mantageriya,351,173.0,-1.0,-1.0
21651,Dharimba,352,173.0,22.2679461,87.3736292
21652,Narasinghapur,353,173.0,24.2587045,88.1205967
21653,Chakturia,354,173.0,22.2861338,87.3934761
21654,Dakshinsimla,355,173.0,22.2979673,87.38851509999999
21655,Shyamnagar,356,173.0,22.8323184,88.3967536
21656,Fatehmohammad,357,173.0,-1.0,-1.0
21657,Talashibramchak,358,173.0,22.3064838,87.40897559999999
21658,Gopinathapur(359),359,173.0,22.7229271,87.52227460000002
21659,Changual,360,173.0,22.3187749,87.3860345
21660,Jethia,361,173.0,22.9191401,88.4428112
21661,Khatharangga,362,173.0,22.3338643,87.3984365
21662,Kajala,363,173.0,24.3328916,88.2388162
21663,Radhanagar,364,173.0,22.7263702,87.8660235
21664,Gholageriya,365,173.0,-1.0,-1.0
21665,Dubgohal,366,173.0,22.3591983,87.3996765
21666,Mahisha (367),367,173.0,22.6198021,88.4351329
21667,Radhakishore,368,173.0,22.3505009,87.4145542
21668,Beli,369,173.0,23.6333245,87.9163191
21669,Gotegerya,370,173.0,22.5582866,87.56306839999999
21670,Gobindanagar,371,173.0,22.522149,87.7406534
21671,Lachhamapur,372,173.0,23.4086953,87.0158814
21672,Sumudrapur,373,173.0,22.8624236,88.58913919999999
21673,Chansarpur,374,173.0,22.3951726,87.4145542
21674,Barmunibgharh,375,173.0,-1.0,-1.0
21675,Tuntemunibgarh,376,173.0,-1.0,-1.0
21676,Barjanarddanpur,377,173.0,22.3945757,87.4238503
21677,Kumardoba,378,173.0,22.8834149,87.0661727
21678,Kanchantala,379,173.0,22.5418475,88.2485521
21679,Lakshisar,380,173.0,23.4763304,86.3586026
21680,Paikanmunibggarh,381,173.0,-1.0,-1.0
21681,Munibgarh,382,173.0,22.394299,87.4310208
21682,Ramchandrapur,383,173.0,22.8911172,88.4706642
21683,Balrampur,384,173.0,23.0943913,86.22029619999999
21684,Madpur,385,173.0,22.380971,87.4401406
21685,Sankmandal,386,173.0,-1.0,-1.0
21686,Maguriya,387,173.0,22.5192043,87.85252
21687,Barbetya(388),388,173.0,-1.0,-1.0
21688,Purunia,389,173.0,21.774129,87.4133145
21689,Paiknagari,390,173.0,22.3498841,87.42261090000001
21690,Goyalara,391,173.0,-1.0,-1.0
21691,Atsanrha,392,173.0,22.5131277,88.34939
21692,Gadgachhi,393,173.0,22.3357671,87.42447
21693,Chakmakrampur,394,173.0,22.3194064,87.4257093
21694,Jamuya,395,173.0,21.8503007,87.4269486
21695,Kalageriya,396,173.0,-1.0,-1.0
21696,Chakkeshi,397,173.0,22.292406,87.4133145
21697,Sankoa,398,173.0,22.2804142,87.4083557
21698,Amshwarpur,399,173.0,22.0521546,87.7338833
21699,Chak Abdulla,400,173.0,21.8332925,87.9126409
21700,Arun,401,173.0,22.2611143,87.4120749
21701,Khagra,402,173.0,24.107308,88.2582857
21702,Chakrampal,403,173.0,22.2553535,87.42447
21703,Baligeria,404,173.0,21.9820938,87.1111088
21704,Chaksantara,405,173.0,-1.0,-1.0
21705,Fatechak,406,173.0,22.3608976,87.7111039
21706,Basudebpur,407,173.0,21.8248993,87.62110609999999
21707,Janggichak,408,173.0,-1.0,-1.0
21708,Lakshmivamchak,409,173.0,22.119277,87.58551399999999
21709,Chakamawa,410,173.0,-1.0,-1.0
21710,Mirjapur (411),411,173.0,22.6760606,88.84490369999999
21711,Junabalida batitaki,412,173.0,-1.0,-1.0
21712,Junabalida,413,173.0,-1.0,-1.0
21713,Hajikutub,414,173.0,22.2400767,87.44739210000002
21714,Sahabandi,415,173.0,22.2497856,87.4492502
21715,Bargani,416,173.0,22.257889,87.4436758
21716,Manikpur,417,173.0,22.4692758,88.0253027
21717,Andulya,418,173.0,22.2647162,87.45172749999999
21718,Amalpur,419,173.0,22.0422933,87.4182728
21719,Solageriya,420,173.0,-1.0,-1.0
21720,Asrafpur,421,173.0,25.364345,88.298414
21721,Jamjhetiya,422,173.0,-1.0,-1.0
21722,Tentulmuri (423),423,173.0,23.0442721,87.5739959
21723,Barfakir,424,173.0,-1.0,-1.0
21724,Barhindu,425,173.0,22.2911715,87.4294271
21725,Ismailchak,426,173.0,22.9245494,87.5655396
21726,Chakhalu,427,173.0,22.2994106,87.432525
21727,Barghasiram,428,173.0,22.3040921,87.4461534
21728,Bargobinda ( 1st ),429,173.0,22.3030065,87.42447
21729,Barbasu,430,173.0,22.3082478,87.4263289
21730,Krishnageria,431,173.0,23.4008744,88.5013962
21731,Bargobinda 2nd,432,173.0,22.3069343,87.4374812
21732,Barachu (JL No. 433),433,173.0,-1.0,-1.0
21733,Badghasiram,434,173.0,28.64861,77.1870272
21734,Barbrindabanpur,435,173.0,22.314341,87.4350032
21735,Srimantapur,436,173.0,22.7559056,87.73942249999999
21736,Baghageriya,437,173.0,-1.0,-1.0
21737,Kunjageriya,438,173.0,-1.0,-1.0
21738,Chenggabengga,439,173.0,-1.0,-1.0
21739,Bardogachhi batitaki,440,173.0,-1.0,-1.0
21740,Bardogachhi,441,173.0,24.4641917,88.0645582
21741,Belageriya(442),442,173.0,-1.0,-1.0
21742,Warda,443,173.0,22.3272997,87.4542046
21743,Paparara,444,173.0,22.3404494,87.43810069999999
21744,Kankasaibatitaki,445,173.0,21.7268896,88.1096118
21745,Kankasai,446,173.0,22.3354609,87.4523468
21747,Bajitpur,447,173.0,22.7081418,88.8527026
21748,Chakdandi,449,173.0,22.3312445,87.46844569999999
21749,Chakmurari,450,173.0,21.7427845,87.45730089999999
21750,Chakarjun,451,173.0,-1.0,-1.0
21751,Rampalchak,452,173.0,22.3399283,87.4523468
21752,Chamka,453,173.0,22.3429065,87.4523468
21753,Surunia,454,173.0,22.3473545,87.4511082
21754,Ambigerya,455,173.0,22.2284588,87.6149354
21755,Balichaturi,456,173.0,22.3266376,88.05464580000002
21756,Padamgeriya,457,173.0,-1.0,-1.0
21757,Barhgeriya,458,173.0,-1.0,-1.0
21758,Krishnacharanpur,459,173.0,22.3748349,87.44677279999999
21759,Hariharpur (460),460,173.0,22.3874314,88.44402250000002
21760,Dakshindhekiya,461,173.0,-1.0,-1.0
21761,Kaliyara,462,173.0,22.861958,88.29592989999999
21762,Pelyageriya,463,173.0,-1.0,-1.0
21763,Bherabapur,464,173.0,22.8001844,87.51237970000001
21764,Baitya,465,173.0,21.8521158,87.44801149999999
21765,Durgapur,466,173.0,23.5204443,87.3119227
21766,Kanikha,467,173.0,22.3849105,87.4721601
21767,Dakshinmarkandpur,468,173.0,-1.0,-1.0
21768,Akra Markandapur,469,173.0,22.3952764,87.46844569999999
21769,Durgapur,470,173.0,23.5204443,87.3119227
21770,Rajaswa,471,173.0,26.9796236,88.50065719999999
21771,Kularhya,472,173.0,22.3836736,88.52027029999999
21772,Chowpenya,473,173.0,-1.0,-1.0
21773,Meudipur,474,173.0,22.4308892,87.32149079999999
21774,Ramnagar,475,173.0,21.6786436,87.5631613
21775,Mominpur,476,173.0,22.5286521,88.319903
21776,Maheshpur,477,173.0,22.2816125,88.3633918
21777,Muksudpur,478,173.0,22.2583894,87.62480819999999
21778,Rajpura,479,173.0,22.3564122,87.27488939999999
21779,Radhakrishnapur,480,173.0,22.6618335,87.8279577
21780,Keshapur,481,173.0,22.5537865,87.46411189999999
21781,Rambhadrapur,482,173.0,22.1472002,87.66057909999999
21782,Kisamat Rajapura,483,173.0,22.521121,88.355774
21783,Rasunchak,484,173.0,22.4267634,87.5065037
21784,Manikkhola,485,173.0,22.4322666,87.50124550000001
21785,Kaigerhya,486,173.0,-1.0,-1.0
21786,Kubirchak,487,173.0,22.4235372,87.5030986
21787,Maisha,488,173.0,22.4679275,87.4962961
21788,Patta,489,173.0,21.8861933,87.29602109999999
21789,Kapasgerhya,490,173.0,23.2587862,86.8214065
21790,Dubraji,491,173.0,23.1852113,87.0143188
21791,Mugarchak,492,173.0,22.4234841,87.5111427
21792,Kismat Bishrigerhya,493,173.0,-1.0,-1.0
21793,Bishrigerhya,494,173.0,-1.0,-1.0
21794,Penachak,495,173.0,-1.0,-1.0
21795,Hamirchak,496,173.0,22.4152087,87.5055758
21796,Gomai,497,173.0,23.7678197,87.8562032
21797,Charkhi,498,173.0,23.6524043,88.069921
21798,Kaishmali,499,173.0,22.4142451,87.4913461
21799,Begunya,500,173.0,21.7845741,87.4145542
21800,Sultanpur,501,173.0,22.7733524,87.7098723
21801,Kajichak,502,173.0,22.4060646,87.4919649
21802,Bar Begunia,503,173.0,22.4083651,87.4962961
21803,Brahmanchak,504,173.0,22.8658331,87.4746361
21804,Sankoti,505,173.0,23.363346,87.75419040000001
21805,Patgeriya,506,173.0,22.5141935,87.0193192
21806,Goyalpota,507,173.0,22.6004802,88.6108642
21807,Alichak,508,173.0,22.3846395,87.2711593
21808,Kaluchak,509,173.0,22.4107604,87.506813
21809,Jariya,510,173.0,28.536582,77.212184
21810,Fulgerhya,511,173.0,-1.0,-1.0
21811,Kewsa,512,173.0,22.4889921,88.4023596
21812,Naraharipur,513,173.0,22.5164012,87.650714
21813,Satbigha,514,173.0,22.4095173,87.5228929
21814,Simana,515,173.0,22.4061904,87.5244388
21815,Amodpur,516,173.0,23.830864,87.6913936
21816,Sanrpur,517,173.0,22.4490894,88.39147310000001
21817,Sanjharia,518,173.0,22.4033718,87.51052419999999
21818,Jaypur,519,173.0,23.0551658,87.44801149999999
21819,Sanbaneswarpur,520,173.0,23.2039055,88.83710339999999
21820,Harina,521,173.0,22.3965665,87.50372
21821,Haladi,522,173.0,23.3400989,87.793548
21822,Paikan Karanji,523,173.0,22.3876698,87.5061944
21823,Barhkaranji,524,173.0,-1.0,-1.0
21824,Barbetya,525,173.0,22.3885185,87.5129982
21825,Gaurhati,526,173.0,22.7687716,87.8082982
21826,Shyamchak,527,173.0,22.3584217,87.21766199999999
21827,Habibpur,528,173.0,23.1697666,88.5159743
21828,Kismatthankarpur,529,173.0,-1.0,-1.0
21829,Khanakarpur,530,173.0,21.6491352,87.5698638
21830,Srirampur,531,173.0,22.748331,88.3385053
21831,Raghunathpur,532,173.0,23.5343795,86.6686635
21832,Kadambagerhya,533,173.0,22.7089167,88.5438283
21833,Ghoraigerhya,534,173.0,21.8873892,87.83287120000001
21834,Ekbadpur,535,173.0,22.5940427,88.12181710000002
21835,Sanarasipur,536,173.0,23.2645399,88.4380966
21836,Panarua,537,173.0,23.0812382,88.2801785
21837,Akashya,538,173.0,-1.0,-1.0
21838,Badbasantapur,539,173.0,-1.0,-1.0
21839,Meudichak,540,173.0,22.3901897,87.4764931
21840,Rampur,541,173.0,22.9545583,88.7445888
21841,Jamira,542,173.0,22.3404706,88.1553644
21842,Khanjadi,543,173.0,22.3790502,87.47834999999999
21843,Abhirampur,544,173.0,23.4300024,87.6334451
21844,Jagannathpur,545,173.0,22.7462731,88.4467528
21845,Ghoraterhya,546,173.0,21.9148682,88.131579
21846,Mamudpur,547,173.0,22.8894533,88.4525012
21847,Badmamudpur,548,173.0,-1.0,-1.0
21848,Kapasgeriya,549,173.0,22.3669257,87.4647311
21849,Kisamat Kapasgeriya,550,173.0,-1.0,-1.0
21850,Arjikapasgeriya,551,173.0,-1.0,-1.0
21851,Disiti,552,173.0,22.3632704,87.4690648
21852,Sitibatitaki,553,173.0,22.3685112,87.470922
21853,Nibra,554,173.0,22.5996618,88.2687048
21854,Paisiti,555,173.0,22.3694955,87.4863957
21855,Sarui,556,173.0,23.9040878,87.52474800000002
21856,Bagdiha,557,173.0,23.1661933,86.95302129999999
21857,Basantapur,558,173.0,23.0514043,88.0191871
21858,Sawarada,559,173.0,-1.0,-1.0
21859,Sundarpur,560,173.0,23.8730463,87.9420584
21860,Chakhaldi,561,173.0,22.3726264,87.4962961
21861,Torko,562,173.0,22.3666318,87.4938212
21862,Beguni,563,173.0,23.2611984,88.1364591
21863,Dinggo,564,173.0,22.363539,87.4863957
21864,Satdipa,565,173.0,21.7268896,88.1096118
21865,Barsanidatta,566,173.0,22.3604459,87.4789689
21866,Jogisenbarh,567,173.0,-1.0,-1.0
21867,Penchanagar,568,173.0,-1.0,-1.0
21868,Madhugerhya,569,173.0,-1.0,-1.0
21869,Nishchintapur,570,173.0,22.460581,88.1730427
21870,Kanchanpur,571,173.0,-1.0,-1.0
21871,Balrampur,572,173.0,23.0943913,86.22029619999999
21872,Bhandariya,573,173.0,22.3401323,88.3312187
21873,Chakgurai,574,173.0,22.3430226,87.4597778
21874,Barbanshi,575,173.0,22.3424995,87.4740171
21875,Hatikhonja,576,173.0,22.9354035,86.7542081
21876,Mangloi,577,173.0,22.3591738,87.4911207
21877,Sujanchak,578,173.0,22.3509673,87.4919649
21878,Chakpuran,579,173.0,22.3468197,87.4885616
21879,Sanchakteude,580,173.0,-1.0,-1.0
21880,Barbudhi,581,173.0,22.337393,87.4808257
21881,Bhimramchak,582,173.0,22.334453,87.4833013
21882,Durlabhchak,583,173.0,22.334338,87.4758741
21883,Barbudhi,584,173.0,22.337393,87.4808257
21884,gunachak,585,173.0,22.3306631,87.4789689
21885,Chakbharat,586,173.0,22.3277613,87.4839202
21886,Satrangi,587,173.0,22.3231981,87.47773099999999
21887,Shyamchakpalashi,588,173.0,22.3121728,87.4870145
21888,Kaluya,589,173.0,21.6686071,87.57727589999999
21889,Chakshatranggi,590,173.0,-1.0,-1.0
21890,Ayamachka,591,173.0,-1.0,-1.0
21891,Mirjapur,592,173.0,23.2817971,87.88197699999999
21892,Tentulmuri,593,173.0,23.2929946,87.67352369999999
21893,Sankrishnapur,594,173.0,22.8977074,88.5384045
21894,Badmathuri,595,173.0,-1.0,-1.0
21895,Baranchu,596,173.0,-1.0,-1.0
21896,Kaluchak,597,173.0,22.4107604,87.506813
21897,Bhairabpur,598,173.0,23.4278357,87.31403770000001
21898,Chaksonadhar batitaki,599,173.0,-1.0,-1.0
21899,Chaka Sonadhar,600,173.0,-1.0,-1.0
21900,Barmathuri Santara,601,173.0,-1.0,-1.0
21901,Bardamu,602,173.0,22.3010749,87.4436758
21902,Badghasiram,603,173.0,28.64861,77.1870272
21903,Rathikulgeriya,604,173.0,-1.0,-1.0
21904,Kandarachak,605,173.0,-1.0,-1.0
21905,Krishnapur,606,173.0,22.6627899,88.2765304
21906,Paniseuli,607,173.0,23.7092552,87.3376351
21907,Antarkhi,608,173.0,-1.0,-1.0
21908,Antara,609,173.0,22.3890691,88.42036770000001
21909,Gumuriya,610,173.0,-1.0,-1.0
21910,Gumria batitaki,611,173.0,-1.0,-1.0
21911,Swarupchak,612,173.0,22.289854,87.4882521
21912,Shyamsundarpur,613,173.0,22.7298885,88.1498766
21913,Chaknarayanbhanja,614,173.0,22.2911522,87.4758741
21914,Talugotegeriya,615,173.0,-1.0,-1.0
21915,Gotegerhya Batitaki,616,173.0,-1.0,-1.0
21916,Chakkalandi,617,173.0,-1.0,-1.0
21917,Routhmani,618,173.0,-1.0,-1.0
21918,Dundarachak,619,173.0,22.2799162,87.471541
21919,Bardhanu,620,173.0,23.2324214,87.8614793
21920,Chaknarayan,621,173.0,22.2745791,87.4634928
21921,Barampur,622,173.0,24.0988265,88.2679264
21922,Madarchak,623,173.0,22.2686608,87.4659693
21923,Gokulpur  (624),624,173.0,22.9484349,88.4652936
21924,Badgokulpur,625,173.0,-1.0,-1.0
21925,Paniseuli (626),626,173.0,22.2573667,87.4579201
21926,Palasya,627,173.0,-1.0,-1.0
21927,Chhotokalankaibatitaki,628,173.0,-1.0,-1.0
21928,Chhotokalankai,629,173.0,22.2484538,87.4760252
21929,Khutasimulya,630,173.0,-1.0,-1.0
21930,Shyamchak(631),631,173.0,22.3624128,87.5047623
21931,Gokulpai,632,173.0,22.6802668,88.2400333
21932,Dayalchak,633,173.0,22.2688907,87.4808257
21933,Chakraghu(634),634,173.0,22.3331567,87.4593163
21934,Madarchak Orofe  Asudchak,635,173.0,-1.0,-1.0
21935,Salageriya(636),636,173.0,-1.0,-1.0
21936,Mahadiya,637,173.0,22.2762411,87.4746361
21937,Radhaballavchak,638,173.0,22.3288167,87.76034229999999
21938,Telichak,639,173.0,22.2807661,87.47834999999999
21939,Mirjachak,640,173.0,22.2028192,87.4938212
21940,Banmalichak,641,173.0,22.3601451,87.5568898
21941,Syedhossainchak,642,173.0,42.0541817,-88.1412593
21942,Jilingga Batitaki,643,173.0,-1.0,-1.0
21943,Jilingga,644,173.0,-1.0,-1.0
21944,Kuldiha,645,173.0,23.5453768,87.4058761
21945,Jamira(646),646,173.0,22.5954019,87.6171999
21946,Panchpara,647,173.0,22.5644121,88.2692335
21947,Tafari ambi,648,173.0,-1.0,-1.0
21948,Ambibatitaki,649,173.0,22.2535297,87.4987709
21949,Uttarjasatpur,650,173.0,22.6255117,88.75781769999999
21950,Kanyata,651,173.0,-1.0,-1.0
21951,Ghritagram,1,174.0,22.2231916,87.18964489999999
21952,Dalkati,2,174.0,22.572646,88.36389500000001
21953,Gaighata,3,174.0,22.9308609,88.7307683
21954,Baramara,4,174.0,22.2237025,87.2195292
21955,Chaitanyapur,5,174.0,-1.0,-1.0
21956,Gopalpur,6,174.0,23.4976267,87.3959564
21957,Itapur,7,174.0,22.2135536,87.2357086
21958,Gilagerhia,8,174.0,-1.0,-1.0
21959,Lediam,9,174.0,23.5624183,86.8747223
21960,Khajrabheri,10,174.0,22.206506,87.2593454
21961,Amgerya,11,174.0,22.2127116,87.27426779999999
21962,Lengamara,12,174.0,22.1856172,87.2568579
21963,Kapasgeria,13,174.0,22.5492204,87.5055758
21964,Barachati,14,174.0,22.1999626,87.22450800000001
21965,Pachakhali,15,174.0,22.0735507,87.05196529999999
21966,Sankalbani,16,174.0,-1.0,-1.0
21967,Bandarkola,17,174.0,22.2167366,87.20396679999999
21968,Barida,18,174.0,21.9063412,87.4876333
21969,Shrirampur (019),19,174.0,22.4685797,88.3834493
21970,Kochrakura,20,174.0,-1.0,-1.0
21971,Amratarya,21,174.0,22.2389341,88.667538
21972,Bansgeriya,22,174.0,22.9633531,88.3967536
21973,Payrachali,23,174.0,22.1478005,87.81198499999999
21974,Maradighi,24,174.0,23.8858622,88.2595023
21975,Ranbaniya,25,174.0,22.2307377,87.3748698
21976,Rana,26,174.0,22.559906,87.7787929
21977,Mat Ngar,27,174.0,22.1717459,87.1852852
21978,Beharasai,28,174.0,22.1649703,87.1809251
21979,Kiyar chanda,29,174.0,-1.0,-1.0
21980,Kusumpur,30,174.0,22.158572,87.19324429999999
21981,Kalata (031),31,174.0,-1.0,-1.0
21982,Dihi Kusumpur,32,174.0,22.5767714,88.3022881
21983,Chhoto dainmari,33,174.0,-1.0,-1.0
21984,Binandapur,34,174.0,22.1599831,87.1940042
21985,Baribandaku,35,174.0,-1.0,-1.0
21986,Lalachauri,36,174.0,-1.0,-1.0
21987,Maulachati,37,174.0,22.1661521,87.2064571
21988,Ambhi (038),38,174.0,22.54942,88.361837
21989,Patharhuri,39,174.0,22.1580153,87.2095698
21990,Benakuriya,40,174.0,23.2324146,87.0786044
21991,Mahisamura-(041),41,174.0,22.4117699,86.85468879999999
21992,Dudhebude,42,174.0,22.1525648,87.2394415
21993,Telipushkarini,43,174.0,22.1600312,87.2406857
21994,Hatigeria,44,174.0,22.1721112,87.2506385
21995,Arjungerya,45,174.0,22.7644522,87.60999819999999
21996,Chhatparua,46,174.0,22.8562412,88.406454
21997,Chandana,47,174.0,22.1980273,87.2866995
21998,Khejurkuthi,53,174.0,22.1387902,87.3065834
21999,Bandeuli,54,174.0,23.1279278,86.8596744
22000,Singaijamuna,55,174.0,-1.0,-1.0
22001,Gobrageria,56,174.0,-1.0,-1.0
22002,Santarapur,57,174.0,20.282597,85.858068
22003,Mandar,58,174.0,21.6681435,87.70248169999999
22004,Belma,59,174.0,23.4285423,86.45162189999999
22005,Oldadurgadaspur,60,174.0,22.127729,87.26805069999999
22006,Sahariya,61,174.0,22.1334363,87.25312629999999
22007,Kalata  (062),62,174.0,-1.0,-1.0
22008,Dasisarsa,63,174.0,19.253257,72.85251199999999
22009,Kamar chowki,64,174.0,22.3256735,87.2409301
22010,Jamshol,65,174.0,23.1854633,87.4083557
22011,Relageria,66,174.0,-1.0,-1.0
22012,Matigeria,67,174.0,26.7257626,88.384625
22013,Shunaka,68,174.0,26.7188262,88.42739259999999
22014,Jhantigeriya,69,174.0,-1.0,-1.0
22015,Singpur,70,174.0,22.814957,88.234481
22016,Bhimaruliya,71,174.0,-1.0,-1.0
22017,Tildihi,72,174.0,22.1354031,87.19338150000002
22018,Nakandi,73,174.0,22.1352751,87.185908
22019,Kathasanggara,74,174.0,-1.0,-1.0
22020,Ghola,75,174.0,22.6909482,88.4076664
22021,Pathanadiha,76,174.0,-1.0,-1.0
22022,Amhatta,77,174.0,27.050564,88.341064
22023,Muktapur,78,174.0,23.072699,87.2077022
22024,Kandramari,79,174.0,22.1378668,87.1634807
22025,Baghra,80,174.0,23.4032594,86.3858181
22026,Chhatrarh,81,174.0,-1.0,-1.0
22027,Indra,82,174.0,25.3297633,88.8622992
22028,Kharipara,83,174.0,22.1318244,87.15849539999999
22029,Dipa,84,174.0,22.803305,88.06197859999999
22030,Benadiha,85,174.0,22.1613575,87.4133145
22031,Pabniya,86,174.0,23.6523388,88.1254781
22032,Kulbani (087),87,174.0,22.0969129,87.1443161
22033,Ranggidas,88,174.0,-1.0,-1.0
22034,Kisamat Kalametiya,89,174.0,-1.0,-1.0
22035,Kalametia,90,174.0,6.092186,80.93736229999999
22036,Lauspal,91,174.0,22.093023,87.1535095
22037,Jhareswarpur,92,174.0,22.0976842,87.16472689999999
22038,Chakbila,93,174.0,22.1111931,87.1709576
22039,Hajighat,94,174.0,22.1132869,87.1628575
22040,Barmorh,95,174.0,-1.0,-1.0
22041,Kanpurbaglata,96,174.0,22.1230626,87.1684655
22042,Joka,97,174.0,22.4530659,88.3025054
22043,Shrirampur  (098),98,174.0,22.4810519,88.2740982
22044,Haropur,99,174.0,23.6773318,87.1934619
22045,Rasikpur,100,174.0,22.2718116,87.73080569999999
22046,Bararia (101),101,174.0,22.1352751,87.185908
22047,Durgapur (102),102,174.0,22.5090192,88.367814
22048,Chakla,103,174.0,22.756054,88.69042720000002
22049,Napo,104,174.0,22.1282339,87.2095698
22050,Agarpara,105,174.0,22.6816847,88.38485589999999
22051,Keshiari,106,174.0,22.1167426,87.23446419999999
22052,Anar,107,174.0,22.1119174,87.2133048
22053,Senna,108,174.0,22.1161516,87.1996084
22054,Bari,109,174.0,23.026147,86.5425921
22055,Dibaghasthi,110,174.0,22.1170714,87.1880879
22056,PALSIYA,111,174.0,21.9010413,87.2481505
22057,Chhota Baghasti,112,174.0,22.110588,87.1790564
22058,Babuigerya,113,174.0,22.1061849,87.1827938
22059,Mahabira,114,174.0,22.1085146,87.18839930000001
22060,Barada,115,174.0,22.1593262,87.6753726
22061,Sukdubi,116,174.0,22.1050578,87.20396679999999
22062,Pirot,117,174.0,22.0964696,87.20782009999999
22063,Sipurlalpur,118,174.0,22.0998777,87.20583460000002
22064,Karanggimura,119,174.0,-1.0,-1.0
22065,Bhelampur,120,174.0,22.0967298,87.1958724
22066,Ganasarisha,121,174.0,-1.0,-1.0
22067,Kopurar,122,174.0,-1.0,-1.0
22068,Pratappur,123,174.0,21.800082,87.8782959
22069,Jaypur,124,174.0,23.0551658,87.44801149999999
22070,Pansganj,125,174.0,-1.0,-1.0
22071,Haripura,126,174.0,22.1502116,87.5605971
22072,Uttar Dambur,127,174.0,22.081283,87.1634807
22073,Dakshindamburkola,128,174.0,-1.0,-1.0
22074,Nekaramara,129,174.0,-1.0,-1.0
22075,Jatikrishnapur,130,174.0,22.0696704,87.1809251
22076,DADRA,131,174.0,19.0281269,72.8374865
22077,Dainmari,132,174.0,22.5362302,86.9636601
22078,Kantaboni,133,174.0,23.3387685,87.0140062
22079,GOPINATHPUR,134,174.0,22.8076683,88.0534236
22080,Kotpura,135,174.0,-1.0,-1.0
22081,Megharmakur,136,174.0,-1.0,-1.0
22082,Gaini,137,174.0,22.0888258,87.21268239999999
22083,Khokra,138,174.0,22.0820085,87.20583460000002
22084,Bhashra,139,174.0,23.0321808,88.1535352
22085,Athangga,140,174.0,-1.0,-1.0
22086,Amilyasai,141,174.0,-1.0,-1.0
22087,Jagannathapur,142,174.0,22.7462731,88.4467528
22088,Mararui,143,174.0,-1.0,-1.0
22089,Beli,144,174.0,23.6333245,87.9163191
22090,Sukharol,145,174.0,22.0793677,87.2257527
22091,Nachhipur,146,174.0,22.3918422,87.58530429999999
22092,Dhanuya,147,174.0,21.9947991,87.9616593
22093,Hasimpur,148,174.0,22.0988732,87.23446419999999
22094,Tentuliya,149,174.0,22.7856288,88.8575011
22095,Kanchanpur,150,174.0,23.3116417,87.0942627
22096,Aurangabad,151,174.0,24.5976097,88.03386309999999
22097,Hajipur,152,174.0,23.0806023,87.45668169999999
22098,Chhatrar,153,174.0,22.0950091,87.2705376
22099,Goganeshwar,154,174.0,22.0873771,87.2593454
22100,Gadalipur,155,174.0,24.484868,88.038754
22101,Dehattachak,156,174.0,22.0938807,87.2475285
22102,Saripur,157,174.0,21.6369142,87.4987709
22103,Khamardshani,158,174.0,-1.0,-1.0
22104,Amda,159,174.0,22.0825556,87.23819720000002
22105,Kandarol,160,174.0,-1.0,-1.0
22106,Paruliya (161),161,174.0,23.6250701,86.8071365
22107,Talabandh,162,174.0,-1.0,-1.0
22108,Siniyakul,163,174.0,-1.0,-1.0
22109,Bhadra,164,174.0,22.0524793,87.2207739
22110,Julko,165,174.0,22.04883,87.2251304
22111,Dakshindiha,166,174.0,23.698627,88.0204103
22112,Junabalda,167,174.0,-1.0,-1.0
22113,Korkodha,168,174.0,22.0646859,87.23819720000002
22114,Chengga,169,174.0,23.6391776,88.4137279
22115,Danapur,170,174.0,22.0679558,87.255614
22116,Bangora,171,174.0,23.4519501,86.1828047
22117,Beluth,172,174.0,23.1914476,86.76426239999999
22118,Shimuliya,173,174.0,23.5181248,88.67356269999999
22119,Palsita,174,174.0,23.2060117,88.0045062
22120,Bagriya (175),175,174.0,22.5890641,88.35560679999999
22121,Shalbni,176,174.0,22.642257,87.3190065
22122,Sarisha,177,174.0,22.2552031,88.1901046
22123,Joykrisnapur,178,174.0,25.3760558,88.56498739999999
22124,Shibda,179,174.0,23.4606504,87.7449611
22125,Balichhich,180,174.0,22.3601451,87.5568898
22126,Kanpur,181,174.0,23.0629437,87.9898205
22127,URIYASH,182,174.0,-1.0,-1.0
22128,Hijrar(183),183,174.0,25.650029,88.6445423
22129,Shankhmari,184,174.0,21.7268896,88.1096118
22130,Narharimunda,185,174.0,-1.0,-1.0
22131,Ambhi  (186),186,174.0,22.526506,88.348461
22132,Fi Telichutul,187,174.0,-1.0,-1.0
22133,Telichutul,188,174.0,-1.0,-1.0
22134,Bagiriya (189),189,174.0,-1.0,-1.0
22135,Banchatul,190,174.0,22.0760405,87.29415689999999
22136,Dhalbelun,191,174.0,22.0803235,87.2829703
22137,Sundarar,192,174.0,22.0850381,87.28377859999999
22138,Durgapur (193),193,174.0,23.5386153,87.3047543
22139,Alas,194,174.0,22.0864853,87.29539969999999
22140,Panchiyer,195,174.0,22.5081627,88.36694539999999
22141,Manushamura,196,174.0,-1.0,-1.0
22142,Kulaseni,197,174.0,22.0538671,87.4306057
22143,Chaulkundi,198,174.0,22.124694,87.30968949999999
22144,Banshiyar,199,174.0,22.1335218,87.3145035
22145,Fandar,203,174.0,-1.0,-1.0
22146,Kulbani (326),326,174.0,22.0969129,87.1443161
22147,Kaliapada,327,174.0,26.7007289,88.33635579999999
22148,Jagannathapara,330,174.0,22.7462731,88.4467528
22149,Laklar,331,174.0,22.0777948,87.3103107
22150,Belarh,332,174.0,22.3671892,88.08274809999999
22151,Jamdi,333,174.0,22.0687375,87.30285579999999
22152,Krishnanagar,334,174.0,23.4008744,88.5013962
22153,Laluya,335,174.0,22.0040686,87.650714
22154,Barar,336,174.0,23.1297622,88.097403
22155,Kuliar,337,174.0,22.0538454,87.30285579999999
22156,Dakshin Belar,338,174.0,22.053723,87.29539969999999
22157,Dhekrar,339,174.0,22.0536003,87.2879425
22158,Murakata,340,174.0,23.1678738,87.1634807
22159,Paruliya (341),341,174.0,23.3320779,86.365208
22160,Bhurakunda,342,174.0,22.5236256,88.8814857
22161,Karat,343,174.0,22.0340148,87.27426779999999
22162,Rasada,344,174.0,-1.0,-1.0
22163,Mudabni,347,174.0,-1.0,-1.0
22164,Kanchada,360,174.0,23.912775,87.8046111
22165,Kaldiha,361,174.0,22.0569865,87.3127954
22166,Kapasar,362,174.0,22.0570676,87.3177644
22167,Deshanda,363,174.0,-1.0,-1.0
22168,Chhatrapada,364,174.0,-1.0,-1.0
22169,Bahana,365,174.0,22.0451538,87.3177644
22170,Kalabani,396,174.0,23.409836,86.5798166
22171,Kharikadaha,494,174.0,22.7002943,88.3753455
22172,Dhanghori,48,175.0,22.5218131,86.9886834
22173,Nayapukur,49,175.0,22.2014565,87.31403770000001
22174,Markunda,50,175.0,22.1743659,87.29664249999999
22175,Parijatpur,51,175.0,22.1582104,87.3103107
22176,Bhurkundi,52,175.0,22.5236256,88.8814857
22177,Bantata,200,175.0,22.1181452,87.3190065
22178,Champinagar,201,175.0,-1.0,-1.0
22179,Jalharisankarkara,202,175.0,-1.0,-1.0
22180,Gangajamuna,204,175.0,22.0868518,87.3177644
22181,Sarisha,205,175.0,22.2552031,88.1901046
22182,Bikalmunda,206,175.0,22.1018654,87.32521690000002
22183,Durgapur,207,175.0,23.5204443,87.3119227
22184,Balipat,208,175.0,22.1078626,87.3277008
22185,Pariyachak,209,175.0,22.1160431,87.32707979999999
22186,Indraswarpur,210,175.0,-1.0,-1.0
22187,Uinandan,211,175.0,22.664173,88.391888
22188,Bhumjanpatli-(212),212,175.0,-1.0,-1.0
22189,Patlipatna-(213),213,175.0,22.1207536,87.3412432
22190,Chaneswar pur,214,175.0,-1.0,-1.0
22191,Aharmunda,215,175.0,22.1300587,87.3190065
22192,Ratanpur,216,175.0,22.7985332,88.44402250000002
22193,Tileswar,217,175.0,22.1458874,87.3308055
22194,Khosali,218,175.0,22.1584137,87.3227328
22195,Janagerya,219,175.0,22.1642484,87.3152799
22196,Mudabani,220,175.0,-1.0,-1.0
22197,Jamuna,221,175.0,25.4211904,88.91239569999999
22198,Andharshura,222,175.0,21.7268896,88.1096118
22199,Fulgeriya(223),223,175.0,-1.0,-1.0
22200,Binai,224,175.0,22.1899491,87.3388767
22201,Belti,225,175.0,22.2034119,87.34260139999999
22202,Sitli,226,175.0,22.2139366,87.34880860000001
22203,Murakata,227,175.0,23.1678738,87.1634807
22204,Tala (Jl-228),228,175.0,22.5476024,88.34829580000002
22205,Fulgeriya(229),229,175.0,-1.0,-1.0
22206,Kantrakhali,230,175.0,24.4463254,88.1620708
22207,Asanabani,231,175.0,23.135819,86.6636269
22208,Sunka,232,175.0,22.1918599,87.3649435
22209,Daharpur,233,175.0,22.1994851,87.3761105
22210,Makrampur,234,175.0,22.2123713,87.3903756
22211,Barageriya (235),235,175.0,-1.0,-1.0
22212,Chakmakrampur,236,175.0,22.3194064,87.4257093
22213,Ranbaniya,237,175.0,22.2307377,87.3748698
22214,Malaka,238,175.0,24.2157956,88.5483892
22215,Rampura Batitaki,239,175.0,22.2368137,87.3823132
22216,Rampura,240,175.0,22.2399506,87.39223590000002
22217,Dauka,241,175.0,22.2430475,87.3996765
22218,Daukabatitaki,242,175.0,22.2424506,87.40897559999999
22219,Nengabhat,243,175.0,-1.0,-1.0
22220,Ranihati,244,175.0,22.5705509,88.1510962
22221,Basudebpur   (245),245,175.0,22.484601,88.301912
22222,Ela,246,175.0,22.2349063,87.4027764
22223,Elabatitaki,247,175.0,21.7268896,88.1096118
22224,Bastupur,248,175.0,22.0017108,87.39471619999999
22226,Betarui,249,175.0,22.0119592,87.3835537
22229,Chirkunya,250,175.0,22.2326036,87.3984365
22230,DHANESWARPUR,251,175.0,22.0065495,87.4182728
22232,Digha,252,175.0,21.6266172,87.5074315
22235,Bansgeriya,253,175.0,22.9633531,88.3967536
22237,Sohagpur,254,175.0,22.0189275,87.44801149999999
22239,Babla,255,175.0,22.0190807,87.4579201
22241,Patpur,256,175.0,23.2314562,87.06117720000002
22243,Gudibatitaki,257,175.0,-1.0,-1.0
22245,Chakparmananda,258,175.0,22.2141954,87.4114551
22247,Tangageriya,259,175.0,-1.0,-1.0
22249,Patpurchak,260,175.0,21.9911436,87.4814447
22250,Thatrachak,261,175.0,-1.0,-1.0
22252,Tulachak,262,175.0,24.8601714,88.01918610000001
22254,Kachra,263,175.0,21.9843562,87.4758741
22257,Gokulpur,264,175.0,22.6802668,88.2400333
22259,Alampur,265,175.0,22.5831787,88.21446720000002
22261,Biharichak,266,175.0,21.9968355,87.46411189999999
22263,Saurikotbarh,267,175.0,-1.0,-1.0
22265,Bahurupa,268,175.0,22.1756581,87.3761105
22267,Chaturibhara,269,175.0,-1.0,-1.0
22269,Arjuni,270,175.0,22.3542181,87.18964489999999
22271,Sridharbherya,271,175.0,22.1685485,87.3971964
22272,Siruchak,272,175.0,21.9876317,87.44677279999999
22274,Ekarukhi,273,175.0,21.9815975,87.4418175
22277,Pipursai,274,175.0,21.9769947,87.4331445
22279,Paruliya,275,175.0,23.446217,88.3129969
22281,Porolda,276,175.0,21.9641547,87.45824929999999
22283,Elageriya,277,175.0,-1.0,-1.0
22285,Tala (278),278,175.0,22.6098199,88.3861529
22287,Kushchati,279,175.0,22.1561991,87.36990689999999
22289,Narasinghapur,280,175.0,24.2587045,88.1205967
22291,Charaigram,281,175.0,21.9590356,87.4674804
22293,Metal,282,175.0,22.580835,88.350608
22295,Dibrapanda,283,175.0,-1.0,-1.0
22297,Kotalchak,284,175.0,22.1586968,87.3401183
22299,Kashmuli,285,175.0,-1.0,-1.0
22300,Kashipur,286,175.0,23.4341206,86.6678714
22302,Paniara,287,175.0,22.5647601,88.16572839999999
22304,Bimbaltitiya,288,175.0,-1.0,-1.0
22307,Gokulpur,289,175.0,22.6802668,88.2400333
22309,Naljhara,290,175.0,22.1375143,87.3655639
22311,Benagerya,291,175.0,22.1463563,87.22450800000001
22312,Darimara,292,175.0,22.1413865,87.3748698
22313,Bandhgera,293,175.0,22.8444403,87.3188682
22314,Bakhrabad,294,175.0,22.1249852,87.3736292
22315,Jethogeriya,295,175.0,-1.0,-1.0
22316,Mathura,296,175.0,21.997899,87.63591249999999
22317,Tegeriya,297,175.0,-1.0,-1.0
22319,Sarishageria,298,175.0,-1.0,-1.0
22320,Maniraj,299,175.0,22.1172402,87.355015
22321,Siyallya,300,175.0,22.2752412,87.185908
22322,Patli,301,175.0,22.1170799,87.34508439999999
22323,Manirajbatitaki,302,175.0,21.7268896,88.1096118
22324,Sarachak,303,175.0,22.1104085,87.3469465
22325,Kantabani,304,175.0,23.3589526,87.16036489999999
22326,Pusturiya,305,175.0,-1.0,-1.0
22327,Kamiachak,306,175.0,22.1052864,87.3525325
22328,Bengda,307,175.0,22.099129,87.3401183
22329,Kaduyachak,308,175.0,24.8601714,88.01918610000001
22330,Krishnapur,309,175.0,22.6627899,88.2765304
22331,Raghunathchak-(310),310,175.0,22.6745088,87.7215715
22332,Bangshidharpur,311,175.0,26.526676,89.26810189999999
22333,Deuli,312,175.0,22.204139,87.7923186
22334,Chhotomatkatpur-(313),313,175.0,-1.0,-1.0
22335,Mahammadpur (314),314,175.0,22.7805052,88.2826103
22336,Belda,315,175.0,22.0677949,87.33639339999999
22337,Baramatkatpur-(316),316,175.0,22.0766624,87.34220979999999
22338,Haragobindapur,317,175.0,23.0285057,87.9739055
22339,Jadabchak,318,175.0,22.0568562,87.3506706
22340,Palshiya,319,175.0,21.9010413,87.2481505
22341,Sushinda,320,175.0,-1.0,-1.0
22342,Barbeliya,321,175.0,-1.0,-1.0
22343,Gajana,322,175.0,22.5774371,88.4327855
22344,Panijethiya,323,175.0,-1.0,-1.0
22345,Kuli,324,175.0,23.9714052,87.9616593
22346,Maynapada,325,175.0,-1.0,-1.0
22347,Binadpur,328,175.0,25.3875501,88.387051
22348,Badamara,329,175.0,-1.0,-1.0
22349,Chandansarisha,345,175.0,22.0357298,87.2879425
22350,Chandanpur,346,175.0,22.8761508,88.179137
22351,Sagara,348,175.0,21.6458446,88.0583123
22352,Nayapada,349,175.0,26.6760702,88.4453946
22353,Babulpur,350,175.0,25.2654307,88.32636029999999
22354,Krishnanagar,351,175.0,23.4008744,88.5013962
22355,Ektal,352,175.0,22.5005431,86.8107363
22356,Gajaliya,353,175.0,-1.0,-1.0
22357,Kenduya,354,175.0,24.9695767,88.24490139999999
22358,kutki,355,175.0,22.028386,87.29415689999999
22359,Tetunliya,356,175.0,22.6816022,87.85865849999999
22360,Bajageriya,357,175.0,-1.0,-1.0
22361,Ambichandi,358,175.0,22.0447878,87.29539969999999
22362,Bisharbania,359,175.0,22.0448694,87.3003706
22363,Bhalukard,366,175.0,23.3701939,88.44402250000002
22364,Agrasthi,367,175.0,-1.0,-1.0
22365,Behala,368,175.0,22.4981402,88.3108378
22366,Kharikad,369,175.0,22.1222969,87.5865393
22367,Amadan,370,175.0,-1.0,-1.0
22368,Agar,371,175.0,22.6065992,87.4145542
22369,Godakpur,372,175.0,22.0264067,87.30968949999999
22370,Khatnagar,373,175.0,-1.0,-1.0
22371,Sanyapara,374,175.0,22.0166353,87.3040984
22372,Nilambarpur,375,175.0,22.3370139,88.179137
22373,Baincha,376,175.0,21.9274226,87.5525643
22374,Sagarnagar,377,175.0,22.0060681,87.29539969999999
22375,Nekudseni,378,175.0,22.0162266,87.27924089999999
22376,Laljuri,379,175.0,-1.0,-1.0
22377,Haldia,380,175.0,22.0666742,88.06981180000001
22378,Kalyanpur,381,175.0,22.5006615,87.91509309999999
22379,Shrirampur - Jl 382,382,175.0,22.506667,88.33685899999999
22380,Fatepur,383,175.0,22.2846143,88.232467
22381,Suriya,384,175.0,22.8471863,88.5504897
22382,Chandpur,385,175.0,22.6851815,88.42706020000001
22383,Dakshinnahaparh,386,175.0,-1.0,-1.0
22384,Barbetiya,387,175.0,-1.0,-1.0
22385,Manna,388,175.0,22.5202274,88.361015
22386,Kashimpur,389,175.0,25.2752221,87.92857769999999
22387,Kungrada,390,175.0,-1.0,-1.0
22388,Dagra,391,175.0,22.0118779,87.3320473
22389,Chakpalasiya,392,175.0,22.0103283,87.32832169999999
22390,Nahaparh,393,175.0,22.8223802,88.1645092
22391,Ranipur,394,175.0,23.4782489,86.54764109999999
22392,Salajapur,395,175.0,23.7735051,86.8772298
22393,Jethiya,397,175.0,22.9191401,88.4428112
22394,Anchbarh,398,175.0,-1.0,-1.0
22395,Kachara,399,175.0,25.4840856,88.2826103
22396,Kamuniachak,400,175.0,24.8601714,88.01918610000001
22397,Rauta,401,175.0,22.4697672,87.470922
22398,Sujanagar,402,175.0,22.6186458,87.7197245
22399,Chatla,403,175.0,21.7514374,87.4876333
22400,Uttarbhetiya,404,175.0,22.0516738,87.3525325
22401,Budhichak,405,175.0,22.0540174,87.359359
22402,Arjuni,406,175.0,22.3542181,87.18964489999999
22403,Rasulpur,407,175.0,23.1840099,88.0301946
22404,Haribad,408,175.0,-1.0,-1.0
22405,Kasba Asanda,409,175.0,-1.0,-1.0
22406,Asanda,410,175.0,22.7649456,87.970232
22407,Lalnagar,411,175.0,24.0247889,88.3215014
22408,Amdabad,412,175.0,21.9923997,87.88933829999999
22409,Madhabpur,413,175.0,21.8742725,87.5846868
22410,Praharajapur,414,175.0,22.0610763,87.2008537
22411,Nayabsan,415,175.0,23.7646166,87.18964489999999
22412,Akanda,416,175.0,22.0832071,87.3686661
22413,Khudramhammadpur,417,175.0,-1.0,-1.0
22414,Kalyanchak,418,175.0,22.8859765,87.5253663
22415,Gobindapur,419,175.0,22.3781175,88.4052416
22416,Ugrasanda,420,175.0,22.1143816,87.3624615
22417,Ukrasanra,421,175.0,-1.0,-1.0
22418,Uttarkorkora,422,175.0,-1.0,-1.0
22419,Hosenpur,423,175.0,23.2366203,88.6458421
22420,Dakshinkorkora,424,175.0,22.572646,88.36389500000001
22421,Kuliya,425,175.0,22.0943466,87.3668048
22422,Mirachak,426,175.0,22.0907129,87.37238839999999
22423,Bardai,427,175.0,22.0954378,87.38851509999999
22424,Chowgeriya,428,175.0,26.673364,88.421413
22425,Chowberiya,429,175.0,22.9793361,88.6752321
22426,Bisarpur,430,175.0,24.0941672,88.2789625
22427,Kagli,431,175.0,22.5202435,88.3420867
22428,Balarampur,432,175.0,-1.0,-1.0
22429,Barhbisharpur,433,175.0,-1.0,-1.0
22430,Dhabaniya,434,175.0,23.589362,87.3686661
22431,Jagatpur,435,175.0,22.6230183,87.8205864
22432,Diglarh,436,175.0,22.5738343,88.1779182
22433,Kamargeriya,437,175.0,22.5654184,87.95242309999999
22434,Dhabaniyapatana,438,175.0,-1.0,-1.0
22435,Raipur,439,175.0,23.631129,87.65687989999999
22436,Handalabalabhadrapur,440,175.0,-1.0,-1.0
22437,Haripur,441,175.0,23.6773318,87.1934619
22438,Gharbank,442,175.0,22.1127904,87.4027764
22439,Takrarh,443,175.0,22.1016307,87.40339639999999
22440,Saterbati,444,175.0,-1.0,-1.0
22441,Khalina,445,175.0,21.8884679,87.4876333
22442,Mandaratfarik,446,175.0,-1.0,-1.0
22443,Khuliya,447,175.0,23.3729073,87.254561
22444,Mandar,448,175.0,21.6681435,87.70248169999999
22445,Daudpur,449,175.0,21.7188257,87.70494529999999
22446,Ambikundi,450,175.0,-1.0,-1.0
22447,Kanthaliabad,451,175.0,-1.0,-1.0
22448,Kanthaliya,452,175.0,22.1272024,87.4195123
22449,Palshita,453,175.0,23.8319104,87.5655396
22450,Bagla,454,175.0,-1.0,-1.0
22451,Daisanda,455,175.0,22.1451514,87.42447
22452,Kuchli,456,175.0,-1.0,-1.0
22453,Benadiha,457,175.0,22.1613575,87.4133145
22454,Banshgerya,458,175.0,22.1687057,87.4071159
22455,Palgerya,459,175.0,21.7268896,88.1096118
22456,Kantagerya,460,175.0,22.1807371,87.4145542
22457,Brahmanibherya,461,175.0,-1.0,-1.0
22458,Kisamat Hirapari,462,175.0,22.2809646,87.835398
22459,Bakshubeg,463,175.0,22.1865764,87.4071159
22460,Siyara,464,175.0,22.1923758,87.3971964
22461,Hirapari,465,175.0,22.1954723,87.4046363
22462,Kayemkhan,466,175.0,21.7268896,88.1096118
22463,Belgeriya,467,175.0,22.6655601,88.37924
22464,Bandachak,468,175.0,22.2990686,87.55565399999999
22465,Alankarpur,469,175.0,21.6492722,87.5284578
22466,Sandeuli,470,175.0,22.209169,87.4232306
22467,Chakpanchananda,471,175.0,22.2158802,87.4238503
22468,Rathipur,472,175.0,22.6735457,87.70617709999999
22469,Gopalbar Batitaki,473,175.0,22.2284309,87.4170333
22470,Chakjoti,474,175.0,22.218992,87.425789
22471,Barh Gopal,475,175.0,22.4879972,88.3295855
22472,Kelepada,476,175.0,22.9075646,87.9457342
22473,Pithapur,477,175.0,22.2264557,86.9561506
22474,Chakurdhabrakshit,478,175.0,-1.0,-1.0
22475,Chakchhakupal,479,175.0,26.3299059,89.4789435
22476,Bhadrakali,480,175.0,22.6754433,88.3470047
22477,Chakpurushottam,481,175.0,22.219924,87.4442952
22478,Chakgobindabera,482,175.0,21.7268896,88.1096118
22479,Chakrasik Maiti,483,175.0,22.2289367,87.4492502
22480,Mirachak,484,175.0,22.0907129,87.37238839999999
22481,Trilochanpur,485,175.0,22.5047024,87.66551079999999
22482,Barakalankai,486,175.0,22.2237028,87.4674009
22483,Maligerya,487,175.0,22.2324142,87.4814447
22484,Larmabatitaki,488,175.0,21.7268896,88.1096118
22485,Sagullya,489,175.0,23.3348752,88.6482533
22486,Saguliya Batitaki,490,175.0,-1.0,-1.0
22487,Maninathpur,491,175.0,21.9957062,87.4876333
22488,Brahmanchak,492,175.0,22.8658331,87.4746361
22489,Nayagram,493,175.0,22.0323362,87.1746957
22490,Parichak,494,175.0,22.2186797,88.12181710000002
22491,Tutranga,495,175.0,22.0477022,87.3835537
22492,Beldiha,496,175.0,22.8965126,87.581599
22493,Bishripath,497,175.0,22.4038297,87.3971964
22494,Larma,498,175.0,-1.0,-1.0
22495,BARASATISAN,499,175.0,22.7228159,88.480552
22496,Ambisan,500,175.0,22.2146574,87.48887099999999
22497,Chakbarasti,501,175.0,-1.0,-1.0
22498,Shyamchak,502,175.0,22.3584217,87.21766199999999
22499,Swargerya,503,175.0,-1.0,-1.0
22500,Kandarachak,504,175.0,-1.0,-1.0
22501,Basudebpur  (505),505,175.0,22.6706305,88.3864445
22502,Baylajayagir,506,175.0,-1.0,-1.0
22503,Chakmahananda,507,175.0,21.9226799,87.73500849999999
22504,Kotaigiagerya,508,175.0,-1.0,-1.0
22505,Taldiha,509,175.0,22.9592801,87.0649239
22506,Birbira,510,175.0,22.2079327,87.4393397
22507,Kisamat Kabirpur,511,175.0,24.3807561,88.14255849999999
22508,Chak-Arjuni,512,175.0,22.4082569,87.5292185
22509,Balidachak,513,175.0,22.2018593,87.43190539999999
22510,Putrangi,514,175.0,22.1980487,87.4263289
22511,Beja Batitaki,515,175.0,22.1994403,87.42013209999999
22512,Bejabarh,516,175.0,-1.0,-1.0
22513,Baragerya (517),517,175.0,22.2130524,87.3915549
22514,Lohabranchak,518,175.0,-1.0,-1.0
22515,Bisamat Hira Pari,519,175.0,-1.0,-1.0
22516,Kamargram,520,175.0,23.2487178,87.3649435
22517,Kayemkhanchak,521,175.0,22.1964033,87.41641349999999
22518,Gotegeriya,522,175.0,-1.0,-1.0
22519,Bamunia,523,175.0,23.1882937,87.9003778
22520,Kurumpur,524,175.0,22.1898287,87.42447
22521,Pakurseni,525,175.0,22.1855748,87.43810069999999
22522,Kaigeriya,526,175.0,-1.0,-1.0
22523,Harinageriya,527,175.0,-1.0,-1.0
22524,Mahammadpur,528,175.0,22.1879672,87.9224488
22525,Dakshinkotai,529,175.0,21.7834702,87.7480377
22526,Kubirpur,530,175.0,23.9002383,87.56306839999999
22527,Tordra,531,175.0,22.1852064,87.4614969
22528,Shanbarikbarh,532,175.0,-1.0,-1.0
22529,Mangalpur,533,175.0,23.0706329,87.68030279999999
22530,Nankarmanguria,534,175.0,-1.0,-1.0
22531,Barmadhusudan,535,175.0,22.2002904,87.4746361
22532,Maguriya,536,175.0,22.5192043,87.85252
22533,Kanaisagar,537,175.0,22.1997647,87.48887099999999
22534,Mirjachak,538,175.0,22.2028192,87.4938212
22535,Nishchinta,539,175.0,22.1993321,87.5092872
22536,Chaknarottam,540,175.0,22.1932618,87.50186409999999
22537,Chaksoula,541,175.0,26.0237418,87.9601283
22538,Chakjatya,542,175.0,-1.0,-1.0
22539,Chaklahari,543,175.0,22.1791418,87.50372
22540,Chakai,544,175.0,23.3796595,87.3674253
22541,Gama,545,175.0,22.1892828,87.485158
22542,Kunjigeriya,546,175.0,-1.0,-1.0
22543,Saguriya,547,175.0,-1.0,-1.0
22544,Eraidangar,548,175.0,22.1788389,87.4839202
22545,Saibani,549,175.0,22.1683948,87.4826825
22546,Chakjahara,550,175.0,21.7268896,88.1096118
22547,Chakganka,551,175.0,22.1655836,87.4693743
22548,Sarisha,552,175.0,22.2552031,88.1901046
22549,Jagannathapur,553,175.0,22.7462731,88.4467528
22550,Sonamui,554,175.0,22.5103386,87.7480377
22551,Tentulia Bhumijan,555,175.0,-1.0,-1.0
22552,Nandakishorpur,556,175.0,22.0134163,88.2886893
22553,Jhanjiyanankar,557,175.0,-1.0,-1.0
22554,Tegerya,558,175.0,22.1601606,87.43190539999999
22555,Gobindapur -( JL 559),559,175.0,23.6814965,86.9859876
22556,Gaighata,560,175.0,22.9308609,88.7307683
22557,Bartarsya,561,175.0,-1.0,-1.0
22558,Duliabhara,562,175.0,-1.0,-1.0
22559,Elena,563,175.0,22.154048,87.4219912
22560,Dakibhara,564,175.0,22.1549579,87.432525
22561,Punja,565,175.0,22.1489427,87.42880749999999
22562,Saikapatna,566,175.0,22.142367,87.4368617
22563,Chakkishor,567,175.0,-1.0,-1.0
22564,Madhabchak,568,175.0,22.1762819,87.7160302
22565,Hetedan,569,175.0,22.1525115,87.4427467
22566,Deulbarh(570),570,175.0,21.8412342,87.78478369999999
22567,Madhabpur,571,175.0,21.8742725,87.5846868
22568,Kunarpur,572,175.0,22.1605854,87.4591586
22569,Kushda,573,175.0,22.1516497,87.4591586
22570,Parulda,574,175.0,22.1577218,87.46658839999999
22571,Lakshmanda,575,175.0,22.0891045,88.0421028
22572,Hosseinchak,576,175.0,23.8213711,87.4413538
22573,Jethageriya,577,175.0,-1.0,-1.0
22574,Nayanchak,578,175.0,22.0133922,88.0204103
22575,Asthipatna,579,175.0,22.1492046,87.4938212
22576,Chengga,580,175.0,23.6391776,88.4137279
22577,Manikara,581,175.0,23.4648684,87.3934761
22578,Shiyara,582,175.0,21.7268896,88.1096118
22579,Tankla,583,175.0,-1.0,-1.0
22580,Gomuya,584,175.0,-1.0,-1.0
22581,Ahira,585,175.0,23.2792856,88.1559741
22582,Danggarpada,586,175.0,-1.0,-1.0
22583,Bardhenu,587,175.0,23.2324214,87.8614793
22584,Khurshi,588,175.0,22.1338166,87.4616353
22585,Pratappur,589,175.0,21.800082,87.8782959
22586,Tapsiya,590,175.0,22.2599213,86.91482719999999
22587,Hatmukunda,591,175.0,22.1169282,87.47711210000001
22588,Dakshin Palashi,592,175.0,22.9255611,88.49123949999999
22589,Haridra batitaki,593,175.0,-1.0,-1.0
22590,Chakmukunda,594,175.0,22.1249573,87.46658839999999
22591,Chakshiru,595,175.0,22.1219022,87.4616353
22592,Fulbheri batitaki,596,175.0,-1.0,-1.0
22593,Balichaturi,597,175.0,22.3266376,88.05464580000002
22594,Hatikhoda,598,175.0,22.1277443,87.4542046
22595,Khagrabheri,599,175.0,-1.0,-1.0
22596,Dalaibarh,600,175.0,-1.0,-1.0
22597,Porakella,601,175.0,22.1259293,87.44568340000001
22598,Gopinathpur,602,175.0,22.8076683,88.0534236
22599,Kankurgeriya,603,175.0,22.5780247,88.3902174
22600,Ramnagar,604,175.0,21.6786436,87.5631613
22601,Gobindapur,605,175.0,22.3781175,88.4052416
22602,Gobindapur Batitaki,606,175.0,22.1127359,87.44677279999999
22603,Chaulkundi,607,175.0,23.2717978,88.02897159999999
22604,Paharpur,608,175.0,22.5244929,88.2971985
22605,Chatrisbetya,609,175.0,-1.0,-1.0
22606,Duriya (610),610,175.0,23.855017,86.8810355
22607,Chakrajib,611,175.0,22.1033747,87.4916555
22608,Rajpur,612,175.0,22.4066926,88.40945219999999
22609,Kushbasan,613,175.0,22.0743815,87.46383120000002
22610,Adampur,614,175.0,23.6903397,88.1949782
22611,Japarseni,615,175.0,-1.0,-1.0
22612,Keshipur,616,175.0,23.4341206,86.6678714
22613,Parulda (617),617,175.0,22.1548179,87.4681318
22614,Berachak,618,175.0,-1.0,-1.0
22615,Ganuya,619,175.0,-1.0,-1.0
22616,Sanganuya,620,175.0,-1.0,-1.0
22617,Dashrui,621,175.0,22.1007444,87.4418175
22618,Jatiya,622,175.0,23.3032893,88.5257761
22619,Deulbarh     (623),623,175.0,21.8412342,87.78478369999999
22620,Mashumchak,624,175.0,22.3584217,87.21766199999999
22621,Danggarpara,625,175.0,24.1863087,88.4185765
22622,Sundarpur,626,175.0,23.8730463,87.9420584
22623,Jangira,627,175.0,22.1034129,87.4219912
22624,Prahrajpur,628,175.0,22.0610763,87.2008537
22625,Kismatjatya,629,175.0,-1.0,-1.0
22626,Reripur,630,175.0,22.0902613,87.43810069999999
22627,Budarui,631,175.0,22.0885201,87.4219912
22628,Birbarpur,632,175.0,22.0853856,87.4120749
22629,Shaljoda,633,175.0,-1.0,-1.0
22630,Deula,634,175.0,22.2026196,88.2874736
22631,Sarsa,635,175.0,21.7690363,87.7824821
22632,Mohanchak,636,175.0,22.647578,87.66057909999999
22633,Uttarmulkuriya,637,175.0,-1.0,-1.0
22634,Belibasudebpur,638,175.0,22.5043922,88.3568589
22635,Bamnasrisha,639,175.0,-1.0,-1.0
22636,Mulkuriya,640,175.0,-1.0,-1.0
22637,Pachasbetya,641,175.0,22.0644965,87.4095955
22638,Taruya,642,175.0,-1.0,-1.0
22639,Janardanpur,643,175.0,22.0765279,87.4170333
22640,Gaita,644,175.0,22.0818085,87.42137149999999
22641,Jaita,645,175.0,22.0766445,87.42447
22642,Gaitakismat,646,175.0,22.0729698,87.4275682
22643,Kotabarh,647,175.0,-1.0,-1.0
22644,Bhatpara,648,175.0,22.8562412,88.406454
22645,Bhaobhatna,649,175.0,-1.0,-1.0
22646,Pachasbetya,650,175.0,22.0644965,87.4095955
22647,Mahisamura,651,175.0,22.4093369,86.8659449
22648,Mahisachak,652,175.0,22.1813597,87.9898205
22649,Laudungri,653,175.0,22.0602428,87.4232306
22650,Paikhola,654,175.0,22.0603978,87.4331445
22651,Kiyajhuri,655,175.0,22.0590436,87.4418175
22652,Ramsarisha,656,175.0,21.7268896,88.1096118
22653,Bimbal,657,175.0,22.0470132,87.43438359999999
22654,Kulasini,658,175.0,22.1058241,87.29415689999999
22655,Tariyapunji,659,175.0,-1.0,-1.0
22656,Basutya,660,175.0,22.0564126,87.41641349999999
22657,Rama,661,175.0,22.4717104,88.3788296
22658,Nonachaturi,662,175.0,22.0550538,87.4037638
22659,Ishabpur,663,175.0,22.8861165,87.8991514
22660,Gobindachak,664,175.0,22.0043712,87.78002269999999
22661,Murarchak,665,175.0,22.0558834,87.3829335
22662,Naruchak,666,175.0,22.0542953,87.37673079999999
22663,Chakbali,667,175.0,22.6308041,86.8126195
22664,Salimchak,668,175.0,22.0519525,87.36990689999999
22665,Deshachak,669,175.0,-1.0,-1.0
22666,Chakjagbandhan,670,175.0,-1.0,-1.0
22667,Tutarangga,671,175.0,-1.0,-1.0
22668,Ullashbarbetiya,672,175.0,-1.0,-1.0
22669,Amarshiya,673,175.0,22.0599938,87.603826
22670,Manoharpur,674,175.0,22.6108262,87.59147899999999
22671,Shrirampur-675,675,175.0,22.748331,88.3385053
22672,Raghuramchak,676,175.0,22.0404345,87.3481879
22673,Agriya,677,175.0,28.6908349,77.16503349999999
22674,Uattar Dhaneshwari,678,175.0,22.602158,88.4228504
22675,Shyamsundarpur(679),679,175.0,22.1915824,86.85327389999999
22676,Chakmahammadjama,680,175.0,-1.0,-1.0
22677,Dakshindhaneshwari,681,175.0,22.602158,88.4228504
22678,Kharesingga,682,175.0,-1.0,-1.0
22679,Nima,683,175.0,22.8778651,88.4863991
22680,Dakshinbhetiya,684,175.0,22.0226432,87.3531532
22681,Ramnagar,685,175.0,21.6786436,87.5631613
22682,Bedashalki,686,175.0,-1.0,-1.0
22683,Chandipur,687,175.0,22.1022227,87.8574308
22684,Keshabchak,688,175.0,22.8765042,87.9616593
22685,Bentkuriya,689,175.0,23.2324146,87.0786044
22686,Dalbaliya,690,175.0,-1.0,-1.0
22687,Chengutiya,691,175.0,-1.0,-1.0
22688,Gangutiya,692,175.0,23.7147665,86.8383485
22689,Trikalpur,693,175.0,22.0013564,87.37238839999999
22690,Amda,694,175.0,22.0825556,87.23819720000002
22691,Budhamanggali,695,175.0,-1.0,-1.0
22692,Gholai,696,175.0,22.4863773,87.4857768
22693,Kajichak,697,175.0,22.4060646,87.4919649
22694,Bilsarpa,698,175.0,22.0394223,87.37797139999999
22695,Mohamednagar,699,175.0,23.9910205,87.57171699999999
22696,Jagannathachak,700,175.0,22.3428174,87.696322
22697,Danmangali,701,175.0,22.0341999,87.3773511
22698,Muradpur,702,175.0,22.0790209,87.9065098
22699,Karanji,703,175.0,21.7374395,87.759112
22700,Ashda,704,175.0,21.8738932,87.4597778
22701,Amuriya,705,175.0,-1.0,-1.0
22702,Purushottampur,706,175.0,22.341001,87.78002269999999
22703,Fulgeriya,707,175.0,-1.0,-1.0
22704,Bangshipur,708,175.0,25.2621818,87.94940969999999
22705,Banamalipur,709,175.0,22.7616738,88.1949782
22706,Dwariachak,710,175.0,22.0517495,87.4040163
22707,Belipaniya,711,175.0,-1.0,-1.0
22708,Asti,712,175.0,22.2776218,87.5160906
22709,ChakPurushottampur,713,175.0,22.0227178,87.4046363
22710,Kurkuchya,714,175.0,22.0316928,87.4071159
22711,Palashiyachak,715,175.0,22.0340145,87.4126947
22712,Ahirachak,716,175.0,22.029566,87.4139344
22713,Ambidangar,717,175.0,22.0108813,87.4095955
22714,Mehdichak,718,175.0,22.5561004,88.3613046
22715,Khakurda,719,175.0,22.0215592,87.4257093
22716,Baramohonpur,720,175.0,22.7712496,88.3955409
22717,Amalpur,721,175.0,22.0422933,87.4182728
22718,Hossainchawk,722,175.0,22.555836,88.3599917
22719,Gurdala,723,175.0,22.0260465,87.4269486
22720,Gobindapur,724,175.0,22.3781175,88.4052416
22721,Ganguria,725,175.0,22.9634014,88.55773909999999
22722,Kashiya,726,175.0,25.677716,88.2643681
22723,Gahira,727,175.0,23.5432363,86.46300219999999
22724,Muradchak,728,175.0,22.0473976,87.4591586
22725,Radhanagar,729,175.0,22.7263702,87.8660235
22726,Renua,730,175.0,22.0561419,87.44677279999999
22727,Oladchak,731,175.0,22.0596703,87.4582297
22728,Lakshmanda,732,175.0,22.0891045,88.0421028
22729,Mahammad pur - JL 733,733,175.0,-1.0,-1.0
22730,Nidhichak,734,175.0,22.0476263,87.4740171
22731,Bairampur,735,175.0,23.0526603,88.7229325
22732,Sashinda,736,175.0,-1.0,-1.0
22733,Raghunathapur,737,175.0,23.5343795,86.6686635
22734,Praharajpur,1,176.0,22.0610763,87.2008537
22735,Mukundapur,2,176.0,22.4923566,88.4086493
22736,Rautarapur,3,176.0,22.049121,87.1983631
22737,Bahalia,4,176.0,21.7327974,87.51603279999999
22738,Harichak,5,176.0,21.9060166,87.5655396
22739,Kantapal,7,176.0,22.0402709,87.20334419999999
22740,Harkisole,8,176.0,-1.0,-1.0
22741,Bora,9,176.0,22.8986465,87.8340995
22742,Maheshpur,10,176.0,22.2816125,88.3633918
22743,Rajnagar,11,176.0,23.9451456,87.31403770000001
22744,Dhuria,12,176.0,24.5742723,87.7941627
22745,Deuli,13,176.0,22.204139,87.7923186
22746,Jethia,14,176.0,22.9191401,88.4428112
22747,Manikara,15,176.0,23.4648684,87.3934761
22748,Mal Jamuna,16,176.0,22.0322157,87.255614
22749,Alikasha,17,176.0,22.0301165,87.2636982
22750,Talda,18,176.0,22.9074526,87.07865919999999
22751,KAMIYA,19,176.0,22.5674921,88.3275884
22752,Bamanda(20),20,176.0,21.8838424,87.3439897
22753,Markandapur,21,176.0,22.3518229,87.7012498
22754,Shrikrishnapur,22,176.0,22.8977074,88.5384045
22755,Chakjal Palaniya,23,176.0,-1.0,-1.0
22756,Uttar Amdiha,24,176.0,-1.0,-1.0
22757,Nilpura,25,176.0,22.0020158,87.2307309
22758,Dakshin Amdiha,26,176.0,23.3741508,86.8849572
22759,Kotepada,27,176.0,21.9897506,87.22753999999999
22760,Palashiya(028),28,176.0,22.7232386,75.8877198
22761,Chaturapal,29,176.0,21.9843125,87.2406857
22762,Lalpur,30,176.0,22.1332081,88.4228186
22763,Sarifabad,31,176.0,22.3511193,87.65194729999999
22764,Dahuka,32,176.0,23.6970235,87.1915132
22765,Palniya,33,176.0,-1.0,-1.0
22766,Kharakhai,34,176.0,22.0023906,87.25312629999999
22767,Uchudiha,35,176.0,22.2098222,87.56306839999999
22768,Charda,36,176.0,22.3254061,87.381693
22769,Jyotidobaria,37,176.0,22.5605478,88.35235949999999
22770,Nibhaipur Patna,39,176.0,-1.0,-1.0
22771,Boulkandi,40,176.0,-1.0,-1.0
22772,Bakurpada,41,176.0,21.9905184,87.255614
22773,Palsandapur,42,176.0,21.9845202,87.25312629999999
22774,Singhda,43,176.0,22.0440928,87.5859218
22775,Pundra,45,176.0,21.9740336,87.2493945
22776,Kusturia,46,176.0,21.9787288,87.2630764
22777,Uparpundra,47,176.0,21.9758328,87.26805069999999
22778,Keshabpur,48,176.0,22.8861165,87.8991514
22779,Mangobindapur,49,176.0,23.1149364,86.5223908
22780,Pashuliachak,50,176.0,-1.0,-1.0
22781,Karakpur,51,176.0,22.34601,87.2319753
22782,Khanipur,52,176.0,21.9668975,87.26805069999999
22783,Gopalbarh,53,176.0,23.0479508,87.759112
22784,Saripur,54,176.0,21.6369142,87.4987709
22785,Chunagang,55,176.0,-1.0,-1.0
22786,Panshola,56,176.0,22.7417812,88.587932
22787,Belmula,57,176.0,21.9501233,87.2444182
22788,Balidangri,58,176.0,22.7720913,87.725881
22789,Naikulbaicha,59,176.0,21.9398852,87.255614
22790,KunjaBaghra,60,176.0,21.7268896,88.1096118
22791,Manikadangar,61,176.0,21.9517576,87.25312629999999
22792,Makmalpur,62,176.0,23.3009283,86.84650359999999
22793,Jhinukpalasia,63,176.0,21.9578798,87.2630764
22794,Sastanagar,64,176.0,21.9550248,87.2705376
22795,Bhabanipur,65,176.0,22.4224226,88.4422055
22796,Krishnapur,66,176.0,22.6627899,88.2765304
22797,Dhalhara,67,176.0,-1.0,-1.0
22798,Doyasti,68,176.0,21.9805674,87.2842134
22799,Chakjayram,69,176.0,21.9902985,87.28732099999999
22800,Palasiya(070),70,176.0,22.7234543,75.891616
22801,Jayrampur,71,176.0,22.5930997,88.16938569999999
22802,Punja,72,176.0,22.1489427,87.42880749999999
22803,Simulia Uttar Mogal Mari,73,176.0,21.9926936,87.2962293
22804,Panchrol,75,176.0,21.8283611,87.4529661
22805,Benadubi,76,176.0,21.9879692,87.32707979999999
22806,Sijuya(077),77,176.0,21.8633901,87.6975918
22807,Gopinathpur (78),78,176.0,22.7229271,87.52227460000002
22808,Kajipara,79,176.0,-1.0,-1.0
22809,Kakrajit,80,176.0,21.9724825,87.33639339999999
22810,Maliarasundarpur,81,176.0,21.9796271,87.3177644
22811,Ganpada,82,176.0,21.9824842,87.3103107
22812,Bejda,83,176.0,21.979384,87.30285579999999
22813,Krishnamaitibar,84,176.0,23.4008744,88.5013962
22814,Rodanpur,85,176.0,21.9563513,87.3059621
22815,Raybar Uttar,86,176.0,21.9510272,87.2991279
22816,Paikbarh,87,176.0,21.8665822,87.3730088
22817,Ektarpur Takinagar,90,176.0,21.9311971,87.2705376
22818,Panituniya,92,176.0,-1.0,-1.0
22819,Garadpur,94,176.0,21.9122622,87.25126039999999
22820,Lalitapur-95,95,176.0,23.2161498,87.6863372
22821,Palashiya(096),96,176.0,22.7232778,75.8927197
22822,Moyarui,97,176.0,21.8929641,87.2549921
22823,Malpara,98,176.0,21.8563333,87.3841739
22824,Hasimpur,99,176.0,22.0988732,87.23446419999999
22825,Ramdichak,100,176.0,21.8856621,87.2636982
22826,Angua,101,176.0,21.9030448,87.27924089999999
22827,Mohammadabad,102,176.0,-1.0,-1.0
22828,Parajbhetiya,103,176.0,-1.0,-1.0
22829,Banshkoni,104,176.0,23.488248,87.3686661
22830,Pakharbar,105,176.0,21.9163867,87.2755111
22831,Jagannathpur,106,176.0,22.7462731,88.4467528
22832,Chakpansi,107,176.0,21.9105932,87.2854565
22833,Jamua,108,176.0,21.8503007,87.4269486
22834,Jamuapati,109,176.0,-1.0,-1.0
22835,Balabhadrapur,110,176.0,21.9195288,87.2854565
22836,Nayabasan Madhabbarh,111,176.0,-1.0,-1.0
22837,Durgapur,112,176.0,23.5204443,87.3119227
22838,Patbandha,113,176.0,22.1572537,86.8396032
22839,Bheti Amla,114,176.0,21.9107968,87.2978852
22840,Asti,115,176.0,22.2776218,87.5160906
22841,Nandakapasiya,116,176.0,21.9131625,87.3059621
22842,Kunjapur,117,176.0,-1.0,-1.0
22843,Nagpara,118,176.0,24.1210773,88.2935519
22844,Paikbar,119,176.0,21.9289111,87.3127954
22845,Sharshanka,120,176.0,-1.0,-1.0
22846,Karanji (121),121,176.0,21.8630116,87.3211686
22847,Kuhura,122,176.0,21.9512704,87.31403770000001
22848,Ekamalipur,123,176.0,21.9379678,87.3202487
22849,Nekbatia,124,176.0,21.7268896,88.1096118
22850,Mirjapur-125,125,176.0,22.6760606,88.84490369999999
22851,Raysimauttar,126,176.0,-1.0,-1.0
22852,Salikotha,127,176.0,21.9394197,87.3450456
22853,Dakshin Arbona,151,176.0,21.92746,87.35145399999999
22854,Dobishya,153,176.0,-1.0,-1.0
22855,Achakarbar(154),154,176.0,-1.0,-1.0
22856,Roy Paikbad Uttar,155,176.0,-1.0,-1.0
22857,Gajipur Kismat,156,176.0,21.9203373,87.3351517
22858,Kharijhapri,158,176.0,26.5539653,88.19162010000001
22859,Biriya,159,176.0,26.7151271,88.42014909999999
22860,Katai,160,176.0,22.3760213,87.5235113
22861,Urishal,161,176.0,21.8974947,87.3040984
22862,Jamboulia,162,176.0,-1.0,-1.0
22863,Solakhiya,163,176.0,-1.0,-1.0
22864,Benapura,164,176.0,21.8912939,87.2891854
22865,Khelageria,165,176.0,-1.0,-1.0
22866,Jamghatiya,166,176.0,-1.0,-1.0
22867,Manrui,167,176.0,21.884582,87.288564
22868,Tukarui,168,176.0,21.8837048,87.28048400000002
22869,Tuk Palasia,169,176.0,21.8806036,87.2730244
22870,Syadpur,171,176.0,21.6803437,87.5649218
22871,Gargaria,172,176.0,23.8008412,87.6090754
22872,Ramgiri Gobindachak,173,176.0,21.8714628,87.26058909999999
22873,Mirjapur-174,174,176.0,22.6760606,88.84490369999999
22874,Sonakniya,175,176.0,21.8624449,87.255614
22875,Rautara,176,176.0,22.8264226,86.6636269
22876,Sabraping,177,176.0,21.8566594,87.27129819999999
22877,Sarta,178,176.0,22.1278819,87.55984459999999
22878,Sijuya(179),179,176.0,21.8633901,87.6975918
22879,Birbhadrapur,181,176.0,21.8273563,87.29539969999999
22880,Bhetiya Dakshin,182,176.0,21.8210737,87.2755111
22881,Kundapara,183,176.0,23.3610237,88.4197886
22882,Barampura,184,176.0,21.8212367,87.2854565
22883,Solpatta,185,176.0,21.809241,87.28048400000002
22884,Matibirua,186,176.0,-1.0,-1.0
22885,Paikpara,187,176.0,22.613223,88.3804976
22886,Nimpur,188,176.0,21.8141748,87.30906829999999
22887,Chorpaliya,189,176.0,21.8088916,87.3047196
22888,Kismat Satsanda,195,176.0,21.824821,87.3227328
22889,Jatibad,196,176.0,-1.0,-1.0
22890,vatpara,197,176.0,22.8562412,88.406454
22891,Satsanda,198,176.0,22.0266823,87.5667751
22892,Uchitpur,200,176.0,22.1771995,87.6753726
22893,Kusmi,201,176.0,23.0233281,87.0686703
22894,Patchata pathuria,202,176.0,-1.0,-1.0
22895,Bajargar Haripur,203,176.0,21.8564684,87.2997492
22896,Kismat Palasia,204,176.0,21.8571421,87.29539969999999
22897,Dhalbar,205,176.0,21.8659966,87.2904284
22898,Pannaga,206,176.0,21.8658744,87.2829703
22899,Bhikubarh,207,176.0,-1.0,-1.0
22900,Singdiha,208,176.0,21.8772982,87.2985066
22901,Pargana,209,176.0,22.6168099,88.402895
22902,Gajalpatta,210,176.0,21.8861933,87.29602109999999
22903,Bindha,211,176.0,21.8169802,87.537731
22904,Dhanhalia,212,176.0,21.875216,87.30782579999999
22905,karanji (Jl-214),214,176.0,-1.0,-1.0
22906,Beli,215,176.0,23.6333245,87.9163191
22907,Haripura,216,176.0,22.1502116,87.5605971
22908,Bamunbiruya,218,176.0,23.201581,87.9348203
22909,Kirttanbeli,334,176.0,21.7268896,88.1096118
22910,Amipara,335,176.0,21.888504,87.59024409999999
22911,Bhurangi,336,176.0,21.842813,87.3301845
22912,Madhubaincha (JL. No. 337),337,176.0,-1.0,-1.0
22913,Baharda,338,176.0,21.9423874,87.5074315
22914,Arjuni,339,176.0,22.3542181,87.18964489999999
22915,Madhubaincha (JL. No. 340),340,176.0,-1.0,-1.0
22916,Antri,6,177.0,22.0463964,87.2133048
22917,Tarrui,38,177.0,21.9923171,87.27426779999999
22918,Satrughnabarh,44,177.0,-1.0,-1.0
22919,Monoharpur,74,177.0,21.9928887,87.30906829999999
22920,Chaulia,88,177.0,21.9390318,87.29415689999999
22921,Jaypura,89,177.0,-1.0,-1.0
22922,Barabaghra,91,177.0,21.9280952,87.2630764
22923,Barasati,93,177.0,21.9153027,87.2549921
22924,Bilakipur,128,177.0,25.7073947,88.03753139999999
22925,Taldaratanchak,129,177.0,21.9520708,87.3637025
22926,Baincha,130,177.0,21.9274226,87.5525643
22927,Keshrambhi,131,177.0,21.977905,87.3494293
22928,Sirani,132,177.0,-1.0,-1.0
22929,Keshrambha,133,177.0,21.9758203,87.3587384
22930,Urepara,134,177.0,21.9870397,87.361841
22931,Sahaniya,135,177.0,-1.0,-1.0
22932,Nandakuria,136,177.0,21.9815023,87.36951169999999
22933,Kalyanpur,137,177.0,22.5006615,87.91509309999999
22934,Gopinathpur (JL. No. 138),138,177.0,-1.0,-1.0
22935,Bahardaltitia,139,177.0,-1.0,-1.0
22936,Panicha,140,177.0,21.9823296,87.4054104
22937,Ramchandrapur,141,177.0,22.8911172,88.4706642
22938,Shyamsundarpur (JL. No. 142),142,177.0,-1.0,-1.0
22939,Sadichak,143,177.0,22.3459842,87.818129
22940,Lakshanpur,144,177.0,22.6359557,88.2740982
22941,Solemanpur,145,177.0,22.8261391,88.52873389999999
22942,Narayanchak,146,177.0,-1.0,-1.0
22943,Turkakshba,147,177.0,22.5573456,88.3546966
22944,Radhaballabhpur,148,177.0,22.6942321,88.15719349999999
22945,Shrikrishnapur,149,177.0,22.8977074,88.5384045
22946,Menkapur,150,177.0,21.9348415,87.3498723
22947,Uttar arbana,152,177.0,21.9280034,87.34880860000001
22948,GAJIPUR PATNA,157,177.0,21.9112411,87.32521690000002
22949,Jamgadi,170,177.0,21.8747284,87.27799759999999
22950,Janadighi,180,177.0,21.8358847,87.2705376
22951,BARANGI,193,177.0,21.8083784,87.3190065
22952,CHAKISMAILPUR,199,177.0,21.8407802,87.29664249999999
22953,Sarrong,213,177.0,-1.0,-1.0
22954,Anikola,217,177.0,21.8560364,87.3190065
22955,Bindhyagariya,219,177.0,-1.0,-1.0
22956,Panchkoniya (JL. No. 220),220,177.0,-1.0,-1.0
22957,Bamanda (221),221,177.0,21.8838424,87.3439897
22958,Panchakoniya (JL. No. 222),222,177.0,-1.0,-1.0
22959,Kulida,223,177.0,21.8875326,87.3326682
22960,Mulida,224,177.0,25.1785773,88.24611829999999
22961,Shyamsundarpur (JL. No. 225),225,177.0,-1.0,-1.0
22962,Karia,226,177.0,22.5263713,87.9457342
22963,Panithupiya,227,177.0,-1.0,-1.0
22964,Jenkapur,228,177.0,21.8986917,87.37859170000002
22965,Baruni,229,177.0,22.9251366,88.6084509
22966,Purusattampur,230,177.0,22.8100782,88.2631517
22967,Parmichak,231,177.0,-1.0,-1.0
22968,Laluchak,232,177.0,21.914976,87.37238839999999
22969,Daharda,233,177.0,21.9226782,87.38851509999999
22970,Dhukurda,234,177.0,21.9109198,87.3984365
22971,Saipur,235,177.0,22.8426204,87.9316419
22972,Belda,236,177.0,22.0677949,87.33639339999999
22973,MIRJAPUR-237,237,177.0,22.6760606,88.84490369999999
22974,Jadabchak (238),238,177.0,22.063917,87.3500811
22975,Gamaripur,239,177.0,22.422716,88.11815589999999
22976,Kusumda,240,177.0,22.2884396,87.54205789999999
22977,Amanipur,241,177.0,25.4687812,88.36885269999999
22978,Chaksultanpur,242,177.0,21.9343062,87.4176531
22979,Rasulpur,243,177.0,23.1840099,88.0301946
22980,Purunda,244,177.0,21.9472073,87.4331445
22981,Khandarui,245,177.0,23.4403804,87.5346402
22982,Sabra,246,177.0,-1.0,-1.0
22983,Sonalichak,247,177.0,22.5090102,88.3666339
22984,Bamnasai,292,177.0,-1.0,-1.0
22985,Amarda,293,177.0,21.9416329,87.4579201
22986,Juniya,294,177.0,22.5131812,88.388685
22987,Gharichak,295,177.0,21.9340141,87.44677279999999
22988,Amadpur,296,177.0,23.2070388,88.08763359999999
22989,Rela,297,177.0,21.9338222,87.43438359999999
22990,Bondhuchak,299,177.0,22.0951829,87.9401671
22991,Jafala,300,177.0,22.3553333,87.3573737
22992,Kifatpur,301,177.0,-1.0,-1.0
22993,Nahaliya,302,177.0,21.9319423,87.45730089999999
22994,Krishnapur-(Jl-303),303,177.0,-1.0,-1.0
22995,Kashba,304,177.0,-1.0,-1.0
22996,Gadadharpur,305,177.0,24.0144143,87.6920097
22997,Jalgoda,306,177.0,21.9283614,87.46658839999999
22998,Apartiya,307,177.0,-1.0,-1.0
22999,Uttar Ashda,308,177.0,21.9255341,87.4764931
23000,Kuchaigediya,309,177.0,-1.0,-1.0
23001,Brahman Khalisa,310,177.0,21.9120726,87.4727791
23002,Mahishagot,311,177.0,21.772439,87.8144427
23003,Puniya,312,177.0,21.9117686,87.4529661
23004,Janabarh,313,177.0,21.9068943,87.4459208
23005,Fatepur,314,177.0,22.2846143,88.232467
23006,Renjura,315,177.0,21.9053505,87.4232306
23007,Jotibarh,316,177.0,-1.0,-1.0
23008,Bhatpara,317,177.0,22.8562412,88.406454
23009,Haripur-(jl-318),318,177.0,23.6065304,87.1163222
23010,Santoshpur,323,177.0,22.4896872,88.38947689999999
23011,Kurul,324,177.0,21.8987702,87.3835537
23012,Rangsatia,325,177.0,21.8852286,87.3748698
23013,Gourda,327,177.0,21.8793498,87.37983220000001
23014,Santiya,328,177.0,-1.0,-1.0
23015,Satpukuriya,329,177.0,-1.0,-1.0
23016,Dobaria(190),190,178.0,-1.0,-1.0
23017,Kantaboni,191,178.0,23.3387685,87.0140062
23018,Dhuipara,192,178.0,21.7966239,87.3289427
23019,Gohaliya,194,178.0,22.3900436,88.26071879999999
23020,Mustafabad,319,178.0,28.710612,77.270314
23021,Keoutkhalisa,320,178.0,-1.0,-1.0
23022,Mukundapur,321,178.0,22.4923566,88.4086493
23023,Mathuribar,322,178.0,-1.0,-1.0
23024,Padima,326,178.0,22.0132758,87.4678266
23025,Banjhatia,330,178.0,-1.0,-1.0
23026,Ichhanagari,331,178.0,22.6829962,88.08763359999999
23027,Kukuriya,332,178.0,-1.0,-1.0
23028,Sautiya,333,178.0,21.8505586,87.34880860000001
23029,Gomunda,341,178.0,21.8207718,87.34880860000001
23030,Bhandaripatta,342,178.0,-1.0,-1.0
23031,Digda,343,178.0,21.8102868,87.34508439999999
23032,Palashiya (344),344,178.0,22.4400148,87.18712579999999
23033,Atharbatia,345,178.0,21.792375,87.34260139999999
23034,Kumarda,346,178.0,21.7955518,87.355015
23035,Asura,347,178.0,21.790487,87.364323
23036,Agarara (348),348,178.0,22.1820682,86.7841787
23037,Bagpatta,349,178.0,21.8067121,87.35439439999999
23038,Majurbeli,350,178.0,21.8105639,87.3624615
23039,Borai,351,178.0,21.8255363,87.3674253
23040,Karkachiya,352,178.0,-1.0,-1.0
23041,Chakrapada,353,178.0,21.8314149,87.3624615
23042,Remu,354,178.0,21.8389602,87.3686661
23043,Sarkismat,355,178.0,-1.0,-1.0
23044,Akhpura,356,178.0,21.86422,87.3649435
23045,Aladpur,357,178.0,21.8620747,87.37052729999999
23046,Nargoda,358,178.0,21.8554415,87.3748698
23047,Gholai,359,178.0,22.4863773,87.4857768
23048,Parui,360,178.0,22.8745678,88.7998819
23049,Malpara,361,178.0,21.8563333,87.3841739
23050,Samsara,362,178.0,21.8631821,87.3934761
23051,Patpara,363,178.0,21.8728727,87.39409619999999
23052,Shrichandanpur,364,178.0,21.8810545,87.3934761
23053,Atla,365,178.0,24.1130801,87.78371179999999
23054,Barsahapur,366,178.0,-1.0,-1.0
23055,Adalpur,367,178.0,21.8857756,87.4095955
23056,Panchkoniya,368,178.0,-1.0,-1.0
23057,Singas,369,178.0,21.8753306,87.4083557
23058,Siyalsai,370,178.0,21.8815203,87.4232306
23059,Mahishamunda,371,178.0,21.7631309,87.2388194
23060,Gobindpur,372,178.0,22.3781175,88.4052416
23061,Dhorjamuya,373,178.0,-1.0,-1.0
23062,Jhatia,374,178.0,21.8595438,87.44677279999999
23063,Chaita,375,178.0,22.6374655,88.76262709999999
23064,Kushumda,376,178.0,21.9187742,87.42447
23065,Garura,377,178.0,21.8594291,87.4393397
23066,Jarisai,378,178.0,21.8638014,87.4331445
23067,Sankarara,379,178.0,23.3794891,87.185908
23068,Shrirampur,380,178.0,22.748331,88.3385053
23069,Shyambag,381,178.0,22.8323184,88.3967536
23070,Jamuya,382,178.0,21.8503007,87.4269486
23071,Kashiabag,383,178.0,22.0892716,88.4246364
23072,Mohanpur,384,178.0,21.8398171,87.4232306
23073,Dibyanagar,385,178.0,21.8463121,87.42220569999999
23074,Chhanageria,386,178.0,21.8538796,87.4176531
23075,Barabeli,387,178.0,21.858928,87.4071159
23076,Chhatabeli,388,178.0,-1.0,-1.0
23077,Chakshalki,389,178.0,21.7268896,88.1096118
23078,Agarara (390),390,178.0,22.1820682,86.7841787
23079,Chhanguria,391,178.0,23.0448123,88.5057574
23080,Bagda,392,178.0,23.21468,88.8862809
23081,Rampura,393,178.0,22.2399506,87.39223590000002
23082,Barbatia,394,178.0,21.9231549,87.5160906
23083,Nayaga,395,178.0,22.170838,87.1329375
23084,Aruya,396,178.0,21.8317685,87.3847941
23085,Kurariya,397,178.0,21.8238012,87.3990565
23086,Tanuya,398,178.0,21.8171086,87.3996765
23087,Taraniya,399,178.0,21.8087297,87.3864763
23088,Nakudebali,400,178.0,-1.0,-1.0
23089,Bikpura,401,178.0,21.8047638,87.37238839999999
23090,Shandapura,402,178.0,21.7268896,88.1096118
23091,Nilda,403,178.0,21.7928489,87.37238839999999
23092,Nilpura,404,178.0,22.0020158,87.2307309
23093,Bilmadhiya,405,178.0,-1.0,-1.0
23094,Sagra,406,178.0,22.0153895,87.2736461
23095,Kuchai,407,178.0,21.7782678,87.39223590000002
23096,Belaberunia,408,178.0,-1.0,-1.0
23097,Kashida,409,178.0,21.7843031,87.3971964
23098,Paluya,410,178.0,13.0159735,77.6339449
23099,Shalikhai,411,178.0,21.7918471,87.40339639999999
23100,Kashichak,412,178.0,21.8030661,87.40649599999999
23101,Gotsanda,413,178.0,21.7964508,87.4120749
23102,Mayurkhola,414,178.0,21.805503,87.4195123
23103,Mitiniya,415,178.0,21.8135499,87.41021529999999
23104,Bhatia,416,178.0,22.5691007,88.3545271
23105,Palashia (417),417,178.0,22.4400148,87.18712579999999
23106,Singarui,418,178.0,21.8296025,87.4368617
23107,Rajnagar,419,178.0,23.9451456,87.31403770000001
23108,Garhra,420,178.0,25.9135493,87.68030279999999
23109,Tildapara,421,178.0,21.808674,87.43190539999999
23110,Chakpurushottampur,422,178.0,22.0227178,87.4046363
23111,Gobrachak,423,178.0,21.796605,87.4219912
23112,Mundigobra,424,178.0,21.8002611,87.4176531
23113,Beguniya,425,178.0,23.2611984,88.1364591
23114,Madhabpur,426,178.0,21.8742725,87.5846868
23115,Purunia,427,178.0,21.774129,87.4133145
23116,Bhimdebchak,428,178.0,21.7780929,87.42880749999999
23117,Dantania,429,178.0,21.9088379,87.26929419999999
23118,Amorda,430,178.0,-1.0,-1.0
23119,Gumaria,874,178.0,22.2980922,87.4913461
23120,Chakpalaniya,1,179.0,22.6259797,88.3166419
23121,Paikan Rout Chak,2,179.0,22.3148313,87.49041799999999
23122,Alugeria,3,179.0,-1.0,-1.0
23123,Sahara,4,179.0,21.7494776,87.45668169999999
23124,Kalikadihi,5,179.0,22.3191308,87.50372
23125,Hatmalida,6,179.0,22.3193575,87.5185643
23126,Sutchhara,7,179.0,22.3119679,87.52227460000002
23127,Bajpur,8,179.0,22.3121179,87.5321673
23128,Gogram,9,179.0,22.3062358,87.5371129
23129,Khirinda,10,179.0,22.2940221,87.5173274
23130,Krishnapriya,11,179.0,22.3044654,87.5185643
23131,Mukundachak,12,179.0,22.8718065,87.4758741
23132,Rautchak,13,179.0,22.3011467,87.4962961
23133,Tegerya,14,179.0,22.1601606,87.43190539999999
23134,Dujipur,15,179.0,22.2893468,87.50372
23135,Chakshala,16,179.0,22.285997,87.503489
23136,Belar,17,179.0,22.9593278,87.8082982
23137,Kantachouki,18,179.0,22.268422,87.4987709
23138,Chitrapur Patna,19,179.0,22.2656418,87.502741
23139,Bahadurpur,20,179.0,23.6924569,87.1447831
23140,Barai,21,179.0,22.8400474,87.4913461
23141,Hasimnagar,22,179.0,22.3095228,88.2534192
23142,Asti,23,179.0,22.2776218,87.5160906
23143,Balrampur,24,179.0,23.0943913,86.22029619999999
23144,Pakuria Chaitannyapur,25,179.0,-1.0,-1.0
23145,Radhakrishnapur,26,179.0,22.4560915,87.50124550000001
23146,Gopinathpur,27,179.0,22.8076683,88.0534236
23147,Patgerya,28,179.0,22.4006282,87.5015548
23148,Saugerya,29,179.0,-1.0,-1.0
23149,Chakchhauniya,30,179.0,-1.0,-1.0
23150,Jonkha,31,179.0,22.2719647,87.5358765
23151,Madhabchak,32,179.0,22.1762819,87.7160302
23152,Jamna,33,179.0,22.2766742,87.55194639999999
23153,Bajagerya,34,179.0,-1.0,-1.0
23154,Kusumda,35,179.0,22.2884396,87.54205789999999
23155,Khamar Kusumda,36,179.0,22.2988829,87.5432941
23156,Mundumari,37,179.0,22.3049514,87.5507104
23157,Birsingpur,38,179.0,23.3352443,87.37983220000001
23158,Bangachak,39,179.0,22.2990686,87.55565399999999
23159,Mollarpur Batitaki,40,179.0,22.306864,87.5541092
23160,Mallarpur,41,179.0,24.0763414,87.7098723
23161,Mohanpur,42,179.0,21.8398171,87.4232306
23162,Barpalashpur,43,179.0,-1.0,-1.0
23163,Falaspur,44,179.0,25.7073947,88.03753139999999
23164,Brahmanbarh,45,179.0,23.9579012,91.1088869
23165,Mandalbarh,46,179.0,-1.0,-1.0
23166,Belun,47,179.0,22.2887363,87.5618327
23167,Dangra,48,179.0,22.2905746,87.58530429999999
23168,Rajballav,49,179.0,22.577189,87.0049416
23169,Purnagram,50,179.0,22.3009446,87.581599
23170,Jonka,51,179.0,22.6892348,87.98859650000001
23171,Dadra,52,179.0,-1.0,-1.0
23172,Rampura,53,179.0,22.2399506,87.39223590000002
23173,Barpuri,54,179.0,22.3596751,88.4317758
23174,Suratchak,55,179.0,22.3190349,87.5964182
23175,Mirupur,56,179.0,22.7093319,88.3117819
23176,Pratapchak,57,179.0,22.7337226,87.9739055
23177,Jashorajpur,58,179.0,22.3239908,87.62974369999999
23178,Rautarapur,59,179.0,22.049121,87.1983631
23179,Danichak,60,179.0,22.3294447,87.6463974
23180,Brahmanipur,61,179.0,22.3182126,87.6420804
23181,Gangadaspur,62,179.0,22.7559892,88.2193381
23182,Rajma,63,179.0,22.3092053,87.6371461
23183,Kunjapur,64,179.0,21.8826858,87.9310291
23184,Kultapara,65,179.0,22.2957837,87.63591249999999
23185,Kshirai,66,179.0,22.298583,87.62357420000001
23186,Panchthupi,67,179.0,23.8885232,87.98859650000001
23187,Dakshin Kalapunja,68,179.0,22.2702682,87.6223402
23188,Uttarkalapunja,69,179.0,21.7492373,87.60190999999999
23189,Naya,70,179.0,22.2776248,87.61616959999999
23190,Pashchim Kshirai,71,179.0,22.2968592,87.60752939999999
23191,Paikchak,72,179.0,22.3087009,87.6025914
23192,Balishwarpur,73,179.0,22.2996198,87.5927138
23193,Ghoramara,74,179.0,21.9148682,88.131579
23194,Simuliya Danggar,75,179.0,23.543358,87.9739055
23195,Tungur,76,179.0,22.2714506,87.60135679999999
23196,Kalikakundu,77,179.0,22.2536512,87.606295
23197,Bhusuliya,78,179.0,-1.0,-1.0
23198,Palgeria,79,179.0,-1.0,-1.0
23199,Chakkashim,80,179.0,22.2519987,87.5951834
23200,Karkai Batitaki,81,179.0,22.2400114,87.59024409999999
23201,Santai,82,179.0,22.2637675,87.58530429999999
23202,Pingla,83,179.0,22.2831465,87.5865393
23203,Gopikantabarh,84,179.0,-1.0,-1.0
23204,Shalmara,85,179.0,26.20339,89.6228105
23205,Ujan,86,179.0,22.2649817,87.5667751
23206,Miyanchak,87,179.0,25.0777873,87.9003778
23207,Gaurangachak,88,179.0,22.3223481,87.37673079999999
23208,Aknageria,89,179.0,22.2583904,87.5536128
23209,Gangadaschak(90),90,179.0,22.2628368,87.5522026
23210,Eralchak,91,179.0,22.2601624,87.5432941
23211,Panchgerya,92,179.0,22.2629545,87.5309308
23212,RaghunathChak,93,179.0,23.5834602,87.1185941
23213,Chaksangar,94,179.0,22.2539441,87.5259846
23214,Mahish gote,95,179.0,22.6603528,88.1901046
23215,Dhaneshwarpur Uttarbarh,96,179.0,22.254746,87.53964959999999
23216,Dhaneshwarpur Madhyabarh,97,179.0,-1.0,-1.0
23217,Dhaneshwarpur Batitaki,98,179.0,22.2520549,87.54885650000001
23218,Alichak,99,179.0,22.3846395,87.2711593
23219,Dhaneshwarpur Jamua,100,179.0,22.2483965,87.5531823
23220,Dhaneswarpur Paikan Uttarbarh,101,179.0,-1.0,-1.0
23221,Deoyanbarh,102,179.0,22.8210088,88.37182849999999
23222,Moglanichak,103,179.0,22.2365192,87.55565399999999
23223,Dhaneshwarpurpaikan Dakshin Bar,104,179.0,-1.0,-1.0
23224,Dhaneshwarpur Paschim Barh,106,179.0,22.2432678,87.54111669999999
23225,Sangar Batitaki,107,179.0,22.2486473,87.5204195
23226,Sangar,108,179.0,22.241955,87.5210378
23227,Chahat,109,179.0,22.56704,88.35487499999999
23228,Shimuliya,110,179.0,23.5181248,88.67356269999999
23229,Chaktulsi,111,179.0,23.9156162,87.4120749
23230,Basudebpur,112,179.0,21.8248993,87.62110609999999
23231,Bhatbarh,113,179.0,26.43361,89.6086828
23232,Gobindachak,114,179.0,22.0043712,87.78002269999999
23233,Boyaliya,116,179.0,-1.0,-1.0
23234,Surya,126,179.0,-1.0,-1.0
23235,Makarda,127,179.0,22.2471102,87.5667751
23236,Tentulmuri,128,179.0,23.2929946,87.67352369999999
23237,Madhyajethya,129,179.0,-1.0,-1.0
23238,Nakpura,131,179.0,22.2279509,87.5803639
23239,Santeghari,132,179.0,22.2331909,87.5822166
23240,Chakgokul,133,179.0,22.2488379,87.5828342
23241,Kuilachak,134,179.0,22.2555489,87.5834517
23242,Chakchauru,135,179.0,26.3299059,89.4789435
23243,Chakkrishnadas,136,179.0,-1.0,-1.0
23244,Karkaibatitaki,137,179.0,22.2400114,87.59024409999999
23245,Karkai,138,179.0,22.2296043,87.59147899999999
23247,Murakata,167,179.0,23.1678738,87.1634807
23248,Amodchak,183,179.0,-1.0,-1.0
23249,Lonachaturi,184,179.0,-1.0,-1.0
23250,Chaklal,185,179.0,22.2282421,87.6001222
23251,Harkandi,186,179.0,22.2313293,87.60752939999999
23252,Jagannathpur,190,179.0,22.7462731,88.4467528
23253,Barkhelna,191,179.0,22.4837419,88.39128819999999
23254,Chak Ghanashyam,192,179.0,22.2413605,87.6315944
23255,Tulsichak,193,179.0,-1.0,-1.0
23256,Sitarampur,194,179.0,-1.0,-1.0
23257,Chhoto Khelna,195,179.0,22.2556254,87.6396133
23258,Khanbichak,196,179.0,22.1964033,87.41641349999999
23259,Deorah,197,179.0,22.3643507,87.9714565
23260,Muksudpur,198,179.0,22.2583894,87.62480819999999
23261,Maligram,199,179.0,22.2750402,87.6433139
23262,Dandashira,200,179.0,-1.0,-1.0
23263,Saharda,201,179.0,22.2959975,87.650714
23264,Sitibinda,202,179.0,22.306476,87.65441369999999
23265,Ragpur,203,179.0,22.2928369,87.6639697
23266,GOBARDHANPUR,204,179.0,22.3198976,87.6556468
23267,Mangalpur,205,179.0,23.0706329,87.68030279999999
23268,Harma,206,179.0,22.3126455,87.6692092
23269,Banamalibar,207,179.0,22.3000126,87.6710583
23270,Padima,208,179.0,22.0132758,87.4678266
23271,Pindrui,209,179.0,22.2971393,87.678454
23272,Nandabarh,210,179.0,26.9935403,84.4078808
23273,Abdulla,211,179.0,22.3026576,87.70001789999999
23274,Dangalsa,212,179.0,22.314293,87.68030279999999
23275,Ransinghachak,213,179.0,-1.0,-1.0
23276,Upalda,214,179.0,22.3219669,87.696322
23277,Damodarchak,215,179.0,21.8511698,87.9126409
23278,Khalagerya,216,179.0,22.1555382,87.5185643
23279,Samsara,217,179.0,21.8631821,87.3934761
23280,Kalukhanra,218,179.0,-1.0,-1.0
23281,Uttar Kuchaipur,219,179.0,22.3088228,87.7147986
23282,Dakshin Kuchaipur,220,179.0,22.2983454,87.7111039
23283,Sangramchak,221,179.0,22.8670707,87.3668048
23284,Chandipur,222,179.0,22.1022227,87.8574308
23285,Chakchandi,223,179.0,22.2832785,87.69878589999999
23286,Nungodar,224,179.0,22.2728702,87.70001789999999
23287,Beluria,225,179.0,22.2667736,87.6901614
23288,Naratha,226,179.0,22.2785487,87.68030279999999
23289,Lakshipari,227,179.0,-1.0,-1.0
23290,Agarara,228,179.0,22.2767602,87.6593461
23291,Keleyara,229,179.0,22.2618667,87.6593461
23292,Bhatia,230,179.0,22.5691007,88.3545271
23293,Uttarbarh,231,179.0,22.5595901,87.83348000000001
23294,Bagnabarh,232,179.0,22.494798,88.379166
23295,Barisha,233,179.0,22.4852952,88.3206664
23296,Narengadighi,234,179.0,25.8142285,87.91898959999999
23297,Tildaganj,235,179.0,25.6355626,88.3287896
23298,Jalchak,236,179.0,22.2414846,87.6719067
23299,Pashchimchak,237,179.0,22.2545081,87.66551079999999
23300,Handol,238,179.0,-1.0,-1.0
23301,Gokulchak,250,179.0,22.2410509,87.66181209999999
23302,Jonhat,255,179.0,-1.0,-1.0
23303,Lechuya,256,179.0,-1.0,-1.0
23304,Moglanichak  Second Part,105,180.0,-1.0,-1.0
23305,Uchitpur(115),115,180.0,22.219491,87.5320237
23306,Boyaliya Batitaki,117,180.0,22.2288561,87.54594709999999
23307,Basantapur (118),118,180.0,22.1999168,87.6762516
23308,Debhog,119,180.0,22.2106989,87.52227460000002
23309,Kharpara,120,180.0,22.20504,87.54205789999999
23310,Lakshya,121,180.0,22.1521002,88.03386309999999
23311,Bhikanibatitaki,122,180.0,-1.0,-1.0
23312,Lutunia,123,180.0,22.2232077,87.5618327
23313,Salageryabatikati,124,180.0,-1.0,-1.0
23314,Uttar Mathura,125,180.0,22.2218104,87.5680106
23315,Chaka banga,130,180.0,-1.0,-1.0
23316,Shrirampur,139,180.0,22.748331,88.3385053
23317,Gumaibatitaki,140,180.0,21.7268896,88.1096118
23318,Gumai (141),141,180.0,22.1900039,87.9078703
23319,Benidighibatitaki,142,180.0,-1.0,-1.0
23320,Talukpaikan,143,180.0,22.2107413,87.5748053
23321,Anduliya (144),144,180.0,22.1108861,87.62110609999999
23322,Uchundiha,145,180.0,23.1173651,86.3655534
23323,Kuchaipur,146,180.0,22.2037912,87.5581256
23324,Dakshin Mathura,147,180.0,22.1977601,87.5531823
23325,Bhikani Nishchintapur,148,180.0,-1.0,-1.0
23326,Sundarpur,149,180.0,23.8730463,87.9420584
23327,Bhisindipurpatna,150,180.0,21.7268896,88.1096118
23328,Bhisindipur,151,180.0,22.1022227,87.8574308
23329,Chakdharma,152,180.0,23.047858,88.5130144
23330,Khelna,153,180.0,22.1882281,87.5136167
23331,Ghonapota,154,180.0,22.1853995,87.5235113
23332,Jotjan,155,180.0,22.1861908,87.5266029
23333,Kanisole,156,180.0,-1.0,-1.0
23334,Dandra,157,180.0,23.6437974,88.1162882
23335,Mahammadtaki,158,180.0,22.1643992,87.5136167
23336,Chakmukunda,159,180.0,22.1249573,87.46658839999999
23337,Kalasbar,160,180.0,22.5726357,88.3638658
23338,Deuli Adalabarh,161,180.0,-1.0,-1.0
23339,Chakchandapal,162,180.0,-1.0,-1.0
23340,Krishnajibanchak,163,180.0,22.1464522,87.5086686
23341,Khalagerya,164,180.0,22.1555382,87.5185643
23342,Nankarnila,165,180.0,22.158629,87.5259846
23343,Barasati,166,180.0,21.9153027,87.2549921
23344,Dantarda,167,180.0,22.1613204,87.5331673
23345,Chandkuribatitaki,168,180.0,-1.0,-1.0
23346,Chandkuri,169,180.0,22.1678254,87.5432941
23347,Singpurfatechak,170,180.0,-1.0,-1.0
23348,Singpurbatitaki,171,180.0,-1.0,-1.0
23349,Nasara,172,180.0,-1.0,-1.0
23350,Chakpalsa,173,180.0,22.6259797,88.3166419
23351,Chak Badalpur,174,180.0,22.1830509,87.5655396
23352,Dihibadalpur,175,180.0,22.1890817,87.5704815
23353,Dihipalsa,176,180.0,22.580876,87.6815352
23354,Benedighi,177,180.0,21.9105731,87.78371179999999
23355,Julkapur,178,180.0,22.1936413,87.57665829999999
23356,Barhjiban,179,180.0,51.5188731,-0.140951
23357,Jalabindu,180,180.0,22.1976106,87.5933313
23358,Kundalpal Batitaki,181,180.0,22.1984912,87.6025914
23359,Kundalpal,182,180.0,22.2058475,87.5964182
23360,Ambigeria,187,180.0,22.3617722,87.444862
23361,Sankadiha,188,180.0,22.596544,88.417305
23362,Chakdamusen,189,180.0,23.047858,88.5130144
23363,Panpara,239,180.0,23.1122143,88.7229325
23364,Sannasibar,240,180.0,22.5142291,88.3625502
23365,Hitaljor,241,180.0,22.2261318,87.6268202
23366,Sindurda,242,180.0,22.2225733,87.619872
23367,Panithar,243,180.0,22.2224293,87.60999819999999
23368,Khagragerya,244,180.0,22.2120938,87.61616959999999
23369,Goatgerya,245,180.0,-1.0,-1.0
23370,Balpai,246,180.0,22.2153234,87.6334451
23371,Saliara,247,180.0,-1.0,-1.0
23372,Tilantapara,248,180.0,22.2260965,87.64609229999999
23373,Jhaparara,249,180.0,22.2350581,87.6593461
23374,Radhakantapur,251,180.0,22.5594289,87.7443457
23375,Teghori,252,180.0,22.6227201,88.43675379999999
23376,Dakshinbarh,253,180.0,23.3736804,88.5764612
23377,Kotchak,254,180.0,22.2271038,87.6759889
23378,Kishor Pur,257,180.0,23.8902923,88.54444749999999
23379,Bhemuya,258,180.0,22.2160294,87.68276759999999
23380,Mahishamura,259,180.0,22.2147314,87.696322
23381,Amda,260,180.0,22.0825556,87.23819720000002
23382,Shyamsundarpur,261,180.0,22.7298885,88.1498766
23383,Dubrajpur,262,180.0,23.7946344,87.3761105
23384,Madhabchak(263),263,180.0,22.2668618,87.55092959999999
23385,Basullya,264,180.0,23.1476808,87.8062642
23386,Chandapur,265,180.0,21.6457955,87.5964182
23387,Janakibarh,266,180.0,22.0114699,87.97702439999999
23388,Gopalpur,267,180.0,23.4976267,87.3959564
23389,Kerurbarh,268,180.0,-1.0,-1.0
23390,Gobindapur Dakshin,269,180.0,22.3781175,88.4052416
23391,Basantapur(270),270,180.0,22.1999168,87.6762516
23392,Masirya,271,180.0,22.1964394,87.66674359999999
23393,Raibar,272,180.0,21.7186145,87.7996945
23394,Khorai,273,180.0,22.2084249,87.6716747
23395,Nilat,274,180.0,23.3181843,87.2158919
23396,Bauncha,275,180.0,23.1592944,86.6485137
23397,Peruya,276,180.0,13.113751,80.2897833
23398,Barkullya,277,180.0,23.3159338,88.5275249
23399,Kerurh,278,180.0,23.3860158,88.0008352
23400,Uchitpur(279),279,180.0,22.219491,87.5320237
23401,Uddhabpur,280,180.0,22.3348335,87.9934924
23402,Bahabalpur,281,180.0,21.6503359,87.2624546
23403,Gundut,282,180.0,22.1828054,87.650714
23404,Ruinan,283,180.0,22.179578,87.6334451
23405,Harnan,284,180.0,22.1899503,87.62974369999999
23406,Sulbuli,285,180.0,22.5851442,88.3554226
23407,Birthma,286,180.0,-1.0,-1.0
23408,Gorra,287,180.0,25.7638926,87.84883649999999
23409,Rakutya,288,180.0,22.1958363,87.62480819999999
23410,Nishchinta,289,180.0,-1.0,-1.0
23411,Rasunchak,290,180.0,22.4267634,87.5065037
23412,Nakindi,291,180.0,22.1985995,87.60999819999999
23413,Saota,292,180.0,23.7066392,87.8402405
23414,Sabong,293,180.0,22.2200823,87.5647343
23415,Fatechak,294,180.0,22.3608976,87.7111039
23416,Bhuya,295,180.0,22.4255714,87.3087951
23417,jorura,296,180.0,22.1691308,87.5809815
23418,Nandapura,297,180.0,22.1743345,87.5803639
23419,Banhola,298,180.0,-1.0,-1.0
23420,Khunkhunya,299,180.0,22.1712095,87.5704815
23421,Chakkhunkhunya,300,180.0,21.7268896,88.1096118
23422,Kubirchak,301,180.0,22.4235372,87.5030986
23423,Krishnaplashi,302,180.0,22.1590741,87.55565399999999
23424,Belkibatitaki,303,180.0,21.7268896,88.1096118
23425,Chak Gopinath,304,180.0,22.1650316,87.55565399999999
23426,Belki,305,180.0,22.1740781,87.56306839999999
23427,Banshgerya,306,180.0,22.1687057,87.4071159
23428,Chakrajib,307,180.0,22.1033747,87.4916555
23429,Teghori Barkaml,308,180.0,-1.0,-1.0
23430,Talda,309,180.0,22.9074526,87.07865919999999
23431,Datradabatitaki,310,180.0,-1.0,-1.0
23432,Sanchahara,311,180.0,22.1405324,87.5111427
23433,Badchahara,312,180.0,-1.0,-1.0
23434,Khajuri,313,180.0,21.8590929,87.9506348
23435,Sarisha,314,180.0,22.2552031,88.1901046
23436,Dashagramnankar,315,180.0,22.1049378,87.5210378
23437,Ramchak,316,180.0,22.0527383,87.5661573
23438,Chaksafi,317,180.0,22.0992036,87.5358765
23439,Dashagram,318,180.0,22.110189,87.5067809
23440,Dehati,319,180.0,22.4211212,87.7578817
23441,Masagram,320,180.0,23.1335279,88.0399767
23442,Guyadanri,321,180.0,-1.0,-1.0
23443,Khaukhanda,322,180.0,22.0904155,87.51261459999999
23444,Kolonda,323,180.0,-1.0,-1.0
23445,Koptipur,324,180.0,22.0880054,87.53402200000001
23446,Rautarabari,326,180.0,-1.0,-1.0
23447,Chak Abdullya,327,180.0,22.0933571,87.5432941
23448,Keshabhedi,328,180.0,-1.0,-1.0
23449,Bangalduari,329,180.0,-1.0,-1.0
23450,Hijaltalabatitaki,330,180.0,21.7268896,88.1096118
23451,Chandagobra,331,180.0,22.1024411,87.5531823
23452,Satsai,332,180.0,22.1081769,87.53834920000001
23453,Chhatarkol,333,180.0,22.1171873,87.5432941
23454,Adasimla,334,180.0,22.1304618,87.5346402
23455,Bhadullya,335,180.0,22.7412299,88.8982666
23456,Banai,336,180.0,22.1455407,87.5470024
23457,Bagagerya,337,180.0,22.4750999,87.4312858
23458,Haripura,338,180.0,22.1502116,87.5605971
23459,Churakasargeria,339,180.0,-1.0,-1.0
23460,Krorda,340,180.0,22.1353179,87.5605971
23461,Sarata,341,180.0,21.8492676,87.26929419999999
23462,Jikuriya,342,180.0,-1.0,-1.0
23463,Jikuriabatitaki,343,180.0,-1.0,-1.0
23464,Birkota,344,180.0,22.1143193,87.5507104
23465,Rampura,345,180.0,22.2399506,87.39223590000002
23466,Deulapota,346,180.0,22.1390273,88.06197859999999
23467,Nedhuya,347,180.0,22.1042055,87.57171699999999
23468,Dhamsai,348,180.0,22.5637546,87.5309308
23469,Chaulkhola,349,180.0,22.1088377,87.5828342
23470,Parashpur,350,180.0,22.0203575,87.54205789999999
23471,Kharika,351,180.0,22.1222969,87.5865393
23472,Larho,352,180.0,-1.0,-1.0
23473,Chhina,353,180.0,-1.0,-1.0
23474,Ghusinga,354,180.0,22.1274098,87.5797463
23475,Manikara,355,180.0,23.4648684,87.3934761
23476,Malapar,356,180.0,22.5467958,88.35396759999999
23477,Malapar Batitaki,357,180.0,-1.0,-1.0
23478,Barsahara,358,180.0,22.1505409,87.5828342
23479,Naoga,359,180.0,23.6517421,87.5470024
23480,Sansahara,360,180.0,22.1357197,87.58777429999999
23481,Uttar Erhal,361,180.0,22.1314843,87.6059544
23482,Chaulkuri,362,180.0,22.1165565,87.60135679999999
23483,Pakuriashyamkishore,364,180.0,22.1062924,87.6124669
23484,Hoomtikari,365,180.0,22.1130397,87.61555249999999
23485,ANDULIYA(366),366,180.0,23.6213714,88.5239589
23486,Gopalchak,367,180.0,21.7786552,87.8340995
23487,Basudebpur,368,180.0,21.8248993,87.62110609999999
23488,Birbhanupur,369,180.0,22.1222263,87.63282819999999
23489,Hariharpur,370,180.0,22.523396,87.619872
23490,Selya,371,180.0,22.1280414,87.6229572
23491,Kalyanpur,372,180.0,22.5006615,87.91509309999999
23492,Narayanbarh,373,180.0,22.1289487,87.6109779
23493,Sadulyapur,374,180.0,22.1367807,87.609381
23494,Manoharpur,375,180.0,22.6108262,87.59147899999999
23495,Amarbarh,376,180.0,22.5595901,87.83348000000001
23496,Dakshinbanshboni,377,180.0,-1.0,-1.0
23497,Uttar Bansbani,378,180.0,22.1568246,87.6050605
23498,Gumai (379),379,180.0,22.1900039,87.9078703
23499,Beniya,380,180.0,22.2787135,87.9655804
23500,Kundara,381,180.0,22.1646483,87.6309776
23501,Kapasda,382,180.0,22.152733,87.6309776
23502,Khepal,383,180.0,22.151011,87.6149354
23503,Ramabar,384,180.0,-1.0,-1.0
23504,Bikalbarh,385,180.0,22.1424233,87.6334267
23505,Bhangapur,386,180.0,-1.0,-1.0
23506,Baharkundara,387,180.0,22.14471,87.64269709999999
23507,Bural,388,180.0,22.1589039,87.6457807
23508,Shitalda,389,180.0,22.1650735,87.66057909999999
23509,Rambhadrapur,390,180.0,22.1472002,87.66057909999999
23510,Mirjapur,391,180.0,23.2817971,87.88197699999999
23511,Shibchak,392,180.0,22.1474106,87.6753726
23512,Barda,393,180.0,22.6264447,87.9690074
23513,Biharichak,394,180.0,21.9968355,87.46411189999999
23514,Moharbatitaki,395,180.0,22.596544,88.417305
23515,Katina,396,180.0,22.1639167,87.684
23516,Moharh,397,180.0,22.1804223,87.6926257
23517,Nimki Moharh,398,180.0,-1.0,-1.0
23518,Shiulipur,399,180.0,22.1552572,87.70371349999999
23519,Kalidahachara,400,180.0,22.1418001,87.70001789999999
23520,Murarichak,401,180.0,22.1461127,87.68892919999999
23521,Markundachak,402,180.0,-1.0,-1.0
23522,Nonamadhabchak,403,180.0,22.1311484,87.684
23523,Mokramichak,404,180.0,-1.0,-1.0
23524,Jagannathchak,405,180.0,22.3428174,87.696322
23525,Madhabchak(406),406,180.0,22.2668618,87.55092959999999
23526,BISHNUPUR,407,180.0,23.0678795,87.3165222
23527,Raghunathchak,408,180.0,23.5834602,87.1185941
23528,Masumpur,409,180.0,22.1110999,87.63591249999999
23529,Lakshichak,410,180.0,25.6405591,88.3785594
23530,Shalmara,411,180.0,26.20339,89.6228105
23531,Ghasichak,412,180.0,22.1105411,87.6488641
23532,Bahir Raghunathchak,413,180.0,22.1157631,87.64948079999999
23533,Mangarajpur,414,180.0,21.6146345,87.4535854
23534,Daspur,415,180.0,22.6068031,87.7246498
23535,Lejibherhi,416,180.0,-1.0,-1.0
23536,Singargar-(001),1,181.0,22.543055,87.584148
23537,Bhabanipur,2,181.0,22.4224226,88.4422055
23538,Barh Radhanagar,3,181.0,-1.0,-1.0
23539,Patna,4,181.0,22.5451639,87.581599
23540,Paschimdwarkhola,5,181.0,22.5438775,87.5951834
23541,Ramkrishnapur,6,181.0,25.2757475,88.9713045
