{
    "Beharichak": {
        "address_components": [
            {
                "long_name": "Behari Chak",
                "short_name": "Behari Chak",
                "types": [
                    "locality",
                    "political"
                ]
            },
            {
                "long_name": "West Medinipur",
                "short_name": "West Medinipur",
                "types": [
                    "administrative_area_level_2",
                    "political"
                ]
            },
            {
                "long_name": "West Bengal",
                "short_name": "WB",
                "types": [
                    "administrative_area_level_1",
                    "political"
                ]
            },
            {
                "long_name": "India",
                "short_name": "IN",
                "types": [
                    "country",
                    "political"
                ]
            }
        ],
        "formatted_address": "Behari Chak, West Bengal, India",
        "geometry": {
            "bounds": {
                "northeast": {
                    "lat": 22.5113799,
                    "lng": 87.72673
                },
                "southwest": {
                    "lat": 22.49301,
                    "lng": 87.70879
                }
            },
            "location": {
                "lat": 22.497977,
                "lng": 87.7160302
            },
            "location_type": "APPROXIMATE",
            "viewport": {
                "northeast": {
                    "lat": 22.5113799,
                    "lng": 87.72673
                },
                "southwest": {
                    "lat": 22.49301,
                    "lng": 87.70879
                }
            }
        },
        "place_id": "ChIJWRrwXN2lAjoRO9gY1kLXv4A",
        "types": [
            "locality",
            "political"
        ]
    },
    "Balakraut": {
        "address_components": [
            {
                "long_name": "Balakraut",
                "short_name": "Balakraut",
                "types": [
                    "locality",
                    "political"
                ]
            },
            {
                "long_name": "West Medinipur",
                "short_name": "West Medinipur",
                "types": [
                    "administrative_area_level_2",
                    "political"
                ]
            },
            {
                "long_name": "West Bengal",
                "short_name": "WB",
                "types": [
                    "administrative_area_level_1",
                    "political"
                ]
            },
            {
                "long_name": "India",
                "short_name": "IN",
                "types": [
                    "country",
                    "political"
                ]
            },
            {
                "long_name": "721146",
                "short_name": "721146",
                "types": [
                    "postal_code"
                ]
            }
        ],
        "formatted_address": "Balakraut, West Bengal 721146, India",
        "geometry": {
            "bounds": {
                "northeast": {
                    "lat": 22.51704,
                    "lng": 87.71759
                },
                "southwest": {
                    "lat": 22.50916,
                    "lng": 87.70925
                }
            },
            "location": {
                "lat": 22.5135871,
                "lng": 87.71418290000001
            },
            "location_type": "APPROXIMATE",
            "viewport": {
                "northeast": {
                    "lat": 22.51704,
                    "lng": 87.71759
                },
                "southwest": {
                    "lat": 22.50916,
                    "lng": 87.70925
                }
            }
        },
        "place_id": "ChIJofcK6wumAjoR7N-AZIUbOK0",
        "types": [
            "locality",
            "political"
        ]
    },
    "Bajrur Baikunthapur": {
        "address_components": [
            {
                "long_name": "Bajrur Baikunthapur",
                "short_name": "Bajrur Baikunthapur",
                "types": [
                    "locality",
                    "political"
                ]
            },
            {
                "long_name": "West Medinipur",
                "short_name": "West Medinipur",
                "types": [
                    "administrative_area_level_2",
                    "political"
                ]
            },
            {
                "long_name": "West Bengal",
                "short_name": "WB",
                "types": [
                    "administrative_area_level_1",
                    "political"
                ]
            },
            {
                "long_name": "India",
                "short_name": "IN",
                "types": [
                    "country",
                    "political"
                ]
            },
            {
                "long_name": "721146",
                "short_name": "721146",
                "types": [
                    "postal_code"
                ]
            }
        ],
        "formatted_address": "Bajrur Baikunthapur, West Bengal 721146, India",
        "geometry": {
            "bounds": {
                "northeast": {
                    "lat": 22.51765,
                    "lng": 87.71346
                },
                "southwest": {
                    "lat": 22.5103299,
                    "lng": 87.70599
                }
            },
            "location": {
                "lat": 22.5135174,
                "lng": 87.7092564
            },
            "location_type": "APPROXIMATE",
            "viewport": {
                "northeast": {
                    "lat": 22.51765,
                    "lng": 87.71346
                },
                "southwest": {
                    "lat": 22.5103299,
                    "lng": 87.70599
                }
            }
        },
        "place_id": "ChIJ-2K11QimAjoRjGNt37G8AQk",
        "types": [
            "locality",
            "political"
        ]
    },
    "Paikhanlakshmi": {
        "address_components": [
            {
                "long_name": "Paikhanlakshmi",
                "short_name": "Paikhanlakshmi",
                "types": [
                    "locality",
                    "political"
                ]
            },
            {
                "long_name": "West Medinipur",
                "short_name": "West Medinipur",
                "types": [
                    "administrative_area_level_2",
                    "political"
                ]
            },
            {
                "long_name": "West Bengal",
                "short_name": "WB",
                "types": [
                    "administrative_area_level_1",
                    "political"
                ]
            },
            {
                "long_name": "India",
                "short_name": "IN",
                "types": [
                    "country",
                    "political"
                ]
            },
            {
                "long_name": "721146",
                "short_name": "721146",
                "types": [
                    "postal_code"
                ]
            }
        ],
        "formatted_address": "Paikhanlakshmi, West Bengal 721146, India",
        "geometry": {
            "bounds": {
                "northeast": {
                    "lat": 22.5235601,
                    "lng": 87.7160901
                },
                "southwest": {
                    "lat": 22.51559,
                    "lng": 87.70533999999999
                }
            },
            "location": {
                "lat": 22.5187207,
                "lng": 87.7086406
            },
            "location_type": "APPROXIMATE",
            "viewport": {
                "northeast": {
                    "lat": 22.5235601,
                    "lng": 87.7160901
                },
                "southwest": {
                    "lat": 22.51559,
                    "lng": 87.70533999999999
                }
            }
        },
        "place_id": "ChIJvYvAJA6mAjoR5KKNbatLgPk",
        "types": [
            "locality",
            "political"
        ]
    },
    "Nandanpur": {
        "address_components": [
            {
                "long_name": "Nandanpur",
                "short_name": "Nandanpur",
                "types": [
                    "locality",
                    "political"
                ]
            },
            {
                "long_name": "Hooghly",
                "short_name": "Hooghly",
                "types": [
                    "administrative_area_level_2",
                    "political"
                ]
            },
            {
                "long_name": "West Bengal",
                "short_name": "WB",
                "types": [
                    "administrative_area_level_1",
                    "political"
                ]
            },
            {
                "long_name": "India",
                "short_name": "IN",
                "types": [
                    "country",
                    "political"
                ]
            },
            {
                "long_name": "712417",
                "short_name": "712417",
                "types": [
                    "postal_code"
                ]
            }
        ],
        "formatted_address": "Nandanpur, West Bengal 712417, India",
        "geometry": {
            "bounds": {
                "northeast": {
                    "lat": 22.6586199,
                    "lng": 87.85405999999999
                },
                "southwest": {
                    "lat": 22.6298298,
                    "lng": 87.82722
                }
            },
            "location": {
                "lat": 22.647108,
                "lng": 87.8402405
            },
            "location_type": "APPROXIMATE",
            "viewport": {
                "northeast": {
                    "lat": 22.6586199,
                    "lng": 87.85405999999999
                },
                "southwest": {
                    "lat": 22.6298298,
                    "lng": 87.82722
                }
            }
        },
        "place_id": "ChIJjxFqgtsK-DkRW1nnGko-1U4",
        "types": [
            "locality",
            "political"
        ]
    },
    "Mirjjapur": {
        "address_components": [
            {
                "long_name": "Mirzapur",
                "short_name": "Mirzapur",
                "types": [
                    "locality",
                    "political"
                ]
            },
            {
                "long_name": "Bardhaman",
                "short_name": "Bardhaman",
                "types": [
                    "administrative_area_level_2",
                    "political"
                ]
            },
            {
                "long_name": "West Bengal",
                "short_name": "WB",
                "types": [
                    "administrative_area_level_1",
                    "political"
                ]
            },
            {
                "long_name": "India",
                "short_name": "IN",
                "types": [
                    "country",
                    "political"
                ]
            },
            {
                "long_name": "713104",
                "short_name": "713104",
                "types": [
                    "postal_code"
                ]
            }
        ],
        "formatted_address": "Mirzapur, West Bengal 713104, India",
        "geometry": {
            "bounds": {
                "northeast": {
                    "lat": 23.2923154,
                    "lng": 87.8994324
                },
                "southwest": {
                    "lat": 23.2761337,
                    "lng": 87.86592759999999
                }
            },
            "location": {
                "lat": 23.2817971,
                "lng": 87.88197699999999
            },
            "location_type": "APPROXIMATE",
            "viewport": {
                "northeast": {
                    "lat": 23.2923154,
                    "lng": 87.8994324
                },
                "southwest": {
                    "lat": 23.2761337,
                    "lng": 87.86592759999999
                }
            }
        },
        "partial_match": true,
        "place_id": "ChIJV2BS_TFK-DkRaM6TV_5IbrA",
        "types": [
            "locality",
            "political"
        ]
    },
    "Tatarkhan": {
        "address_components": [
            {
                "long_name": "Tatarkhan",
                "short_name": "Tatarkhan",
                "types": [
                    "locality",
                    "political"
                ]
            },
            {
                "long_name": "West Medinipur",
                "short_name": "West Medinipur",
                "types": [
                    "administrative_area_level_2",
                    "political"
                ]
            },
            {
                "long_name": "West Bengal",
                "short_name": "WB",
                "types": [
                    "administrative_area_level_1",
                    "political"
                ]
            },
            {
                "long_name": "India",
                "short_name": "IN",
                "types": [
                    "country",
                    "political"
                ]
            },
            {
                "long_name": "721146",
                "short_name": "721146",
                "types": [
                    "postal_code"
                ]
            }
        ],
        "formatted_address": "Tatarkhan, West Bengal 721146, India",
        "geometry": {
            "bounds": {
                "northeast": {
                    "lat": 22.5359901,
                    "lng": 87.72961
                },
                "southwest": {
                    "lat": 22.5302001,
                    "lng": 87.7179
                }
            },
            "location": {
                "lat": 22.5338206,
                "lng": 87.7234185
            },
            "location_type": "APPROXIMATE",
            "viewport": {
                "northeast": {
                    "lat": 22.5359901,
                    "lng": 87.72961
                },
                "southwest": {
                    "lat": 22.5302001,
                    "lng": 87.7179
                }
            }
        },
        "place_id": "ChIJFagDbkKmAjoRT44D_VN_P_k",
        "types": [
            "locality",
            "political"
        ]
    },
    "Kismatkalera": {
        "address_components": [
            {
                "long_name": "Kismatkalera",
                "short_name": "Kismatkalera",
                "types": [
                    "locality",
                    "political"
                ]
            },
            {
                "long_name": "West Medinipur",
                "short_name": "West Medinipur",
                "types": [
                    "administrative_area_level_2",
                    "political"
                ]
            },
            {
                "long_name": "West Bengal",
                "short_name": "WB",
                "types": [
                    "administrative_area_level_1",
                    "political"
                ]
            },
            {
                "long_name": "India",
                "short_name": "IN",
                "types": [
                    "country",
                    "political"
                ]
            },
            {
                "long_name": "721146",
                "short_name": "721146",
                "types": [
                    "postal_code"
                ]
            }
        ],
        "formatted_address": "Kismatkalera, West Bengal 721146, India",
        "geometry": {
            "bounds": {
                "northeast": {
                    "lat": 22.5439401,
                    "lng": 87.73056009999999
                },
                "southwest": {
                    "lat": 22.53416,
                    "lng": 87.7165301
                }
            },
            "location": {
                "lat": 22.5397771,
                "lng": 87.7234185
            },
            "location_type": "APPROXIMATE",
            "viewport": {
                "northeast": {
                    "lat": 22.5439401,
                    "lng": 87.73056009999999
                },
                "southwest": {
                    "lat": 22.53416,
                    "lng": 87.7165301
                }
            }
        },
        "place_id": "ChIJ6Vt8bUSmAjoRNop1P6d4Jlg",
        "types": [
            "locality",
            "political"
        ]
    },
    "Maheshpur": {
        "address_components": [
            {
                "long_name": "Maheshpur",
                "short_name": "Maheshpur",
                "types": [
                    "locality",
                    "political"
                ]
            },
            {
                "long_name": "South 24 Parganas",
                "short_name": "South 24 Parganas",
                "types": [
                    "administrative_area_level_2",
                    "political"
                ]
            },
            {
                "long_name": "West Bengal",
                "short_name": "WB",
                "types": [
                    "administrative_area_level_1",
                    "political"
                ]
            },
            {
                "long_name": "India",
                "short_name": "IN",
                "types": [
                    "country",
                    "political"
                ]
            },
            {
                "long_name": "743355",
                "short_name": "743355",
                "types": [
                    "postal_code"
                ]
            }
        ],
        "formatted_address": "Maheshpur, West Bengal 743355, India",
        "geometry": {
            "bounds": {
                "northeast": {
                    "lat": 22.2879448,
                    "lng": 88.3680153
                },
                "southwest": {
                    "lat": 22.2778385,
                    "lng": 88.35941079999999
                }
            },
            "location": {
                "lat": 22.2816125,
                "lng": 88.3633918
            },
            "location_type": "APPROXIMATE",
            "viewport": {
                "northeast": {
                    "lat": 22.2879448,
                    "lng": 88.3680153
                },
                "southwest": {
                    "lat": 22.2778385,
                    "lng": 88.35941079999999
                }
            }
        },
        "place_id": "ChIJaVjhvwFpAjoRiyZYrztc9dg",
        "types": [
            "locality",
            "political"
        ]
    },
    "Sekendari": {
        "address_components": [
            {
                "long_name": "Sekendari",
                "short_name": "Sekendari",
                "types": [
                    "locality",
                    "political"
                ]
            },
            {
                "long_name": "West Medinipur",
                "short_name": "West Medinipur",
                "types": [
                    "administrative_area_level_2",
                    "political"
                ]
            },
            {
                "long_name": "West Bengal",
                "short_name": "WB",
                "types": [
                    "administrative_area_level_1",
                    "political"
                ]
            },
            {
                "long_name": "India",
                "short_name": "IN",
                "types": [
                    "country",
                    "political"
                ]
            },
            {
                "long_name": "721146",
                "short_name": "721146",
                "types": [
                    "postal_code"
                ]
            }
        ],
        "formatted_address": "Sekendari, West Bengal 721146, India",
        "geometry": {
            "bounds": {
                "northeast": {
                    "lat": 22.5431501,
                    "lng": 87.71872990000001
                },
                "southwest": {
                    "lat": 22.53294,
                    "lng": 87.7069501
                }
            },
            "location": {
                "lat": 22.5366599,
                "lng": 87.71356709999999
            },
            "location_type": "APPROXIMATE",
            "viewport": {
                "northeast": {
                    "lat": 22.5431501,
                    "lng": 87.71872990000001
                },
                "southwest": {
                    "lat": 22.53294,
                    "lng": 87.7069501
                }
            }
        },
        "place_id": "ChIJqeEXrT6mAjoRfwRJArbgM5U",
        "types": [
            "locality",
            "political"
        ]
    },
    "Jaykrishnapur": {
        "address_components": [
            {
                "long_name": "Jaykrishnapur",
                "short_name": "Jaykrishnapur",
                "types": [
                    "locality",
                    "political"
                ]
            },
            {
                "long_name": "Murshidabad",
                "short_name": "Murshidabad",
                "types": [
                    "administrative_area_level_2",
                    "political"
                ]
            },
            {
                "long_name": "West Bengal",
                "short_name": "WB",
                "types": [
                    "administrative_area_level_1",
                    "political"
                ]
            },
            {
                "long_name": "India",
                "short_name": "IN",
                "types": [
                    "country",
                    "political"
                ]
            }
        ],
        "formatted_address": "Jaykrishnapur, West Bengal, India",
        "geometry": {
            "bounds": {
                "northeast": {
                    "lat": 24.6446199,
                    "lng": 87.97296999999999
                },
                "southwest": {
                    "lat": 24.6310701,
                    "lng": 87.9447299
                }
            },
            "location": {
                "lat": 24.6366877,
                "lng": 87.9592096
            },
            "location_type": "APPROXIMATE",
            "viewport": {
                "northeast": {
                    "lat": 24.6446199,
                    "lng": 87.97296999999999
                },
                "southwest": {
                    "lat": 24.6310701,
                    "lng": 87.9447299
                }
            }
        },
        "partial_match": true,
        "place_id": "ChIJYxfuY0RE-jkR1Mkl1RoIamY",
        "types": [
            "locality",
            "political"
        ]
    },
    "Balitora": {
        "address_components": [
            {
                "long_name": "Balitora",
                "short_name": "Balitora",
                "types": [
                    "locality",
                    "political"
                ]
            },
            {
                "long_name": "Purulia",
                "short_name": "Purulia",
                "types": [
                    "administrative_area_level_2",
                    "political"
                ]
            },
            {
                "long_name": "West Bengal",
                "short_name": "WB",
                "types": [
                    "administrative_area_level_1",
                    "political"
                ]
            },
            {
                "long_name": "India",
                "short_name": "IN",
                "types": [
                    "country",
                    "political"
                ]
            },
            {
                "long_name": "723161",
                "short_name": "723161",
                "types": [
                    "postal_code"
                ]
            }
        ],
        "formatted_address": "Balitora, West Bengal 723161, India",
        "geometry": {
            "bounds": {
                "northeast": {
                    "lat": 23.64206,
                    "lng": 86.86935
                },
                "southwest": {
                    "lat": 23.61263,
                    "lng": 86.8447401
                }
            },
            "location": {
                "lat": 23.6270105,
                "lng": 86.8557873
            },
            "location_type": "APPROXIMATE",
            "viewport": {
                "northeast": {
                    "lat": 23.64206,
                    "lng": 86.86935
                },
                "southwest": {
                    "lat": 23.61263,
                    "lng": 86.8447401
                }
            }
        },
        "place_id": "ChIJ605PgNHj9jkRyH51BIXhnI0",
        "types": [
            "locality",
            "political"
        ]
    },
    "Sarberya": {
        "address_components": [
            {
                "long_name": "Sarberia",
                "short_name": "Sarberia",
                "types": [
                    "locality",
                    "political"
                ]
            },
            {
                "long_name": "South 24 Parganas",
                "short_name": "South 24 Parganas",
                "types": [
                    "administrative_area_level_2",
                    "political"
                ]
            },
            {
                "long_name": "West Bengal",
                "short_name": "WB",
                "types": [
                    "administrative_area_level_1",
                    "political"
                ]
            },
            {
                "long_name": "India",
                "short_name": "IN",
                "types": [
                    "country",
                    "political"
                ]
            }
        ],
        "formatted_address": "Sarberia, West Bengal, India",
        "geometry": {
            "bounds": {
                "northeast": {
                    "lat": 22.2712263,
                    "lng": 88.44830990000001
                },
                "southwest": {
                    "lat": 22.2624889,
                    "lng": 88.4417868
                }
            },
            "location": {
                "lat": 22.2675081,
                "lng": 88.4446282
            },
            "location_type": "APPROXIMATE",
            "viewport": {
                "northeast": {
                    "lat": 22.2712263,
                    "lng": 88.44830990000001
                },
                "southwest": {
                    "lat": 22.2624889,
                    "lng": 88.4417868
                }
            }
        },
        "partial_match": true,
        "place_id": "ChIJEeY3_vlqAjoRaFtVvzqdgWc",
        "types": [
            "locality",
            "political"
        ]
    },
    "Shaulan": {
        "address_components": [
            {
                "long_name": "Shaulan",
                "short_name": "Shaulan",
                "types": [
                    "locality",
                    "political"
                ]
            },
            {
                "long_name": "West Medinipur",
                "short_name": "West Medinipur",
                "types": [
                    "administrative_area_level_2",
                    "political"
                ]
            },
            {
                "long_name": "West Bengal",
                "short_name": "WB",
                "types": [
                    "administrative_area_level_1",
                    "political"
                ]
            },
            {
                "long_name": "India",
                "short_name": "IN",
                "types": [
                    "country",
                    "political"
                ]
            },
            {
                "long_name": "721146",
                "short_name": "721146",
                "types": [
                    "postal_code"
                ]
            }
        ],
        "formatted_address": "Shaulan, West Bengal 721146, India",
        "geometry": {
            "bounds": {
                "northeast": {
                    "lat": 22.54347,
                    "lng": 87.70777
                },
                "southwest": {
                    "lat": 22.53339,
                    "lng": 87.69382
                }
            },
            "location": {
                "lat": 22.5394636,
                "lng": 87.7012498
            },
            "location_type": "APPROXIMATE",
            "viewport": {
                "northeast": {
                    "lat": 22.54347,
                    "lng": 87.70777
                },
                "southwest": {
                    "lat": 22.53339,
                    "lng": 87.69382
                }
            }
        },
        "place_id": "ChIJNcWKziamAjoRfzlS5T1hKPU",
        "types": [
            "locality",
            "political"
        ]
    },
    "Ratnapur": {
        "address_components": [
            {
                "long_name": "Ratanpur",
                "short_name": "Ratanpur",
                "types": [
                    "locality",
                    "political"
                ]
            },
            {
                "long_name": "Bardhaman",
                "short_name": "Bardhaman",
                "types": [
                    "administrative_area_level_2",
                    "political"
                ]
            },
            {
                "long_name": "West Bengal",
                "short_name": "WB",
                "types": [
                    "administrative_area_level_1",
                    "political"
                ]
            },
            {
                "long_name": "India",
                "short_name": "IN",
                "types": [
                    "country",
                    "political"
                ]
            }
        ],
        "formatted_address": "Ratanpur, West Bengal, India",
        "geometry": {
            "bounds": {
                "northeast": {
                    "lat": 23.4172099,
                    "lng": 87.8501
                },
                "southwest": {
                    "lat": 23.4037598,
                    "lng": 87.84015989999999
                }
            },
            "location": {
                "lat": 23.4107541,
                "lng": 87.8463807
            },
            "location_type": "APPROXIMATE",
            "viewport": {
                "northeast": {
                    "lat": 23.4172099,
                    "lng": 87.8501
                },
                "southwest": {
                    "lat": 23.4037598,
                    "lng": 87.84015989999999
                }
            }
        },
        "partial_match": true,
        "place_id": "ChIJ1e6boIjK-TkRZhlTxegRZ7E",
        "types": [
            "locality",
            "political"
        ]
    },
    "Gangaprasad": {
        "address_components": [
            {
                "long_name": "Gangaprasad",
                "short_name": "Gangaprasad",
                "types": [
                    "locality",
                    "political"
                ]
            },
            {
                "long_name": "Murshidabad",
                "short_name": "Murshidabad",
                "types": [
                    "administrative_area_level_2",
                    "political"
                ]
            },
            {
                "long_name": "West Bengal",
                "short_name": "WB",
                "types": [
                    "administrative_area_level_1",
                    "political"
                ]
            },
            {
                "long_name": "India",
                "short_name": "IN",
                "types": [
                    "country",
                    "political"
                ]
            }
        ],
        "formatted_address": "Gangaprasad, West Bengal, India",
        "geometry": {
            "bounds": {
                "northeast": {
                    "lat": 24.1190201,
                    "lng": 88.44234
                },
                "southwest": {
                    "lat": 24.11028,
                    "lng": 88.4298199
                }
            },
            "location": {
                "lat": 24.1144226,
                "lng": 88.436148
            },
            "location_type": "APPROXIMATE",
            "viewport": {
                "northeast": {
                    "lat": 24.1190201,
                    "lng": 88.44234
                },
                "southwest": {
                    "lat": 24.11028,
                    "lng": 88.4298199
                }
            }
        },
        "place_id": "ChIJy5s3Lsph-TkRJ0k31vq9H38",
        "types": [
            "locality",
            "political"
        ]
    },
    "Kadirpur Fakirbazar": {
        "address_components": [
            {
                "long_name": "Kadirpur Fakirbazar",
                "short_name": "Kadirpur Fakirbazar",
                "types": [
                    "locality",
                    "political"
                ]
            },
            {
                "long_name": "West Medinipur",
                "short_name": "West Medinipur",
                "types": [
                    "administrative_area_level_2",
                    "political"
                ]
            },
            {
                "long_name": "West Bengal",
                "short_name": "WB",
                "types": [
                    "administrative_area_level_1",
                    "political"
                ]
            },
            {
                "long_name": "India",
                "short_name": "IN",
                "types": [
                    "country",
                    "political"
                ]
            },
            {
                "long_name": "721211",
                "short_name": "721211",
                "types": [
                    "postal_code"
                ]
            }
        ],
        "formatted_address": "Kadirpur Fakirbazar, West Bengal 721211, India",
        "geometry": {
            "bounds": {
                "northeast": {
                    "lat": 22.5627299,
                    "lng": 87.71372009999999
                },
                "southwest": {
                    "lat": 22.5482099,
                    "lng": 87.70102
                }
            },
            "location": {
                "lat": 22.5574027,
                "lng": 87.70617709999999
            },
            "location_type": "APPROXIMATE",
            "viewport": {
                "northeast": {
                    "lat": 22.5627299,
                    "lng": 87.71372009999999
                },
                "southwest": {
                    "lat": 22.5482099,
                    "lng": 87.70102
                }
            }
        },
        "partial_match": true,
        "place_id": "ChIJufUXVi2mAjoR_YECG6fDJm0",
        "types": [
            "locality",
            "political"
        ]
    },
    "Salampur": {
        "address_components": [
            {
                "long_name": "Salampur",
                "short_name": "Salampur",
                "types": [
                    "locality",
                    "political"
                ]
            },
            {
                "long_name": "Uttar Dinajpur",
                "short_name": "Uttar Dinajpur",
                "types": [
                    "administrative_area_level_2",
                    "political"
                ]
            },
            {
                "long_name": "West Bengal",
                "short_name": "WB",
                "types": [
                    "administrative_area_level_1",
                    "political"
                ]
            },
            {
                "long_name": "India",
                "short_name": "IN",
                "types": [
                    "country",
                    "political"
                ]
            },
            {
                "long_name": "854317",
                "short_name": "854317",
                "types": [
                    "postal_code"
                ]
            }
        ],
        "formatted_address": "Salampur, West Bengal 854317, India",
        "geometry": {
            "bounds": {
                "northeast": {
                    "lat": 25.80204,
                    "lng": 87.93222
                },
                "southwest": {
                    "lat": 25.78229,
                    "lng": 87.91655999999999
                }
            },
            "location": {
                "lat": 25.7945606,
                "lng": 87.92490049999999
            },
            "location_type": "APPROXIMATE",
            "viewport": {
                "northeast": {
                    "lat": 25.80204,
                    "lng": 87.93222
                },
                "southwest": {
                    "lat": 25.78229,
                    "lng": 87.91655999999999
                }
            }
        },
        "partial_match": true,
        "place_id": "ChIJH6Wzbyg35TkRizeRG1yjZNg",
        "types": [
            "locality",
            "political"
        ]
    },
    "Radhanagar": {
        "address_components": [
            {
                "long_name": "Radhanagar",
                "short_name": "Radhanagar",
                "types": [
                    "neighborhood",
                    "political"
                ]
            },
            {
                "long_name": "Paschim Radhanagar",
                "short_name": "Paschim Radhanagar",
                "types": [
                    "locality",
                    "political"
                ]
            },
            {
                "long_name": "Hooghly",
                "short_name": "Hooghly",
                "types": [
                    "administrative_area_level_2",
                    "political"
                ]
            },
            {
                "long_name": "West Bengal",
                "short_name": "WB",
                "types": [
                    "administrative_area_level_1",
                    "political"
                ]
            },
            {
                "long_name": "India",
                "short_name": "IN",
                "types": [
                    "country",
                    "political"
                ]
            },
            {
                "long_name": "712418",
                "short_name": "712418",
                "types": [
                    "postal_code"
                ]
            }
        ],
        "formatted_address": "Radhanagar, Paschim Radhanagar, West Bengal 712418, India",
        "geometry": {
            "bounds": {
                "northeast": {
                    "lat": 22.7295217,
                    "lng": 87.8707767
                },
                "southwest": {
                    "lat": 22.723228,
                    "lng": 87.8594255
                }
            },
            "location": {
                "lat": 22.7263702,
                "lng": 87.8660235
            },
            "location_type": "APPROXIMATE",
            "viewport": {
                "northeast": {
                    "lat": 22.7295217,
                    "lng": 87.8707767
                },
                "southwest": {
                    "lat": 22.723228,
                    "lng": 87.8594255
                }
            }
        },
        "place_id": "ChIJm3vlfMBz-DkRVafZb1f71w4",
        "types": [
            "neighborhood",
            "political"
        ]
    },
    "Brahman Basan": {
        "address_components": [
            {
                "long_name": "Brahman Basan",
                "short_name": "Brahman Basan",
                "types": [
                    "locality",
                    "political"
                ]
            },
            {
                "long_name": "West Medinipur",
                "short_name": "West Medinipur",
                "types": [
                    "administrative_area_level_2",
                    "political"
                ]
            },
            {
                "long_name": "West Bengal",
                "short_name": "WB",
                "types": [
                    "administrative_area_level_1",
                    "political"
                ]
            },
            {
                "long_name": "India",
                "short_name": "IN",
                "types": [
                    "country",
                    "political"
                ]
            },
            {
                "long_name": "721211",
                "short_name": "721211",
                "types": [
                    "postal_code"
                ]
            }
        ],
        "formatted_address": "Brahman Basan, West Bengal 721211, India",
        "geometry": {
            "bounds": {
                "northeast": {
                    "lat": 22.5604101,
                    "lng": 87.70357
                },
                "southwest": {
                    "lat": 22.5511999,
                    "lng": 87.68661
                }
            },
            "location": {
                "lat": 22.5542844,
                "lng": 87.696322
            },
            "location_type": "APPROXIMATE",
            "viewport": {
                "northeast": {
                    "lat": 22.5604101,
                    "lng": 87.70357
                },
                "southwest": {
                    "lat": 22.5511999,
                    "lng": 87.68661
                }
            }
        },
        "place_id": "ChIJyVJN1X-oAjoR_DyTkJ8Jgeg",
        "types": [
            "locality",
            "political"
        ]
    },
    "Tatarpur": {
        "address_components": [
            {
                "long_name": "Tatarpur",
                "short_name": "Tatarpur",
                "types": [
                    "locality",
                    "political"
                ]
            },
            {
                "long_name": "West Medinipur",
                "short_name": "West Medinipur",
                "types": [
                    "administrative_area_level_2",
                    "political"
                ]
            },
            {
                "long_name": "West Bengal",
                "short_name": "WB",
                "types": [
                    "administrative_area_level_1",
                    "political"
                ]
            },
            {
                "long_name": "India",
                "short_name": "IN",
                "types": [
                    "country",
                    "political"
                ]
            }
        ],
        "formatted_address": "Tatarpur, West Bengal, India",
        "geometry": {
            "bounds": {
                "northeast": {
                    "lat": 22.80798,
                    "lng": 87.6420399
                },
                "southwest": {
                    "lat": 22.7909,
                    "lng": 87.6219199
                }
            },
            "location": {
                "lat": 22.7960264,
                "lng": 87.6309776
            },
            "location_type": "APPROXIMATE",
            "viewport": {
                "northeast": {
                    "lat": 22.80798,
                    "lng": 87.6420399
                },
                "southwest": {
                    "lat": 22.7909,
                    "lng": 87.6219199
                }
            }
        },
        "place_id": "ChIJ9wc4mU4b-DkRcIoigv-uQ3c",
        "types": [
            "locality",
            "political"
        ]
    },
    "Machhgerya": {
        "address_components": [
            {
                "long_name": "Machhgerya",
                "short_name": "Machhgerya",
                "types": [
                    "locality",
                    "political"
                ]
            },
            {
                "long_name": "West Medinipur",
                "short_name": "West Medinipur",
                "types": [
                    "administrative_area_level_2",
                    "political"
                ]
            },
            {
                "long_name": "West Bengal",
                "short_name": "WB",
                "types": [
                    "administrative_area_level_1",
                    "political"
                ]
            },
            {
                "long_name": "India",
                "short_name": "IN",
                "types": [
                    "country",
                    "political"
                ]
            },
            {
                "long_name": "721211",
                "short_name": "721211",
                "types": [
                    "postal_code"
                ]
            }
        ],
        "formatted_address": "Machhgerya, West Bengal 721211, India",
        "geometry": {
            "bounds": {
                "northeast": {
                    "lat": 22.55512,
                    "lng": 87.6968301
                },
                "southwest": {
                    "lat": 22.54508,
                    "lng": 87.68296
                }
            },
            "location": {
                "lat": 22.5519541,
                "lng": 87.68954529999999
            },
            "location_type": "APPROXIMATE",
            "viewport": {
                "northeast": {
                    "lat": 22.55512,
                    "lng": 87.6968301
                },
                "southwest": {
                    "lat": 22.54508,
                    "lng": 87.68296
                }
            }
        },
        "place_id": "ChIJBVsdfIaoAjoR5f9hg0oBYOc",
        "types": [
            "locality",
            "political"
        ]
    },
    "Jotmari": {
        "address_components": [
            {
                "long_name": "Jotmari",
                "short_name": "Jotmari",
                "types": [
                    "locality",
                    "political"
                ]
            },
            {
                "long_name": "West Medinipur",
                "short_name": "West Medinipur",
                "types": [
                    "administrative_area_level_2",
                    "political"
                ]
            },
            {
                "long_name": "West Bengal",
                "short_name": "WB",
                "types": [
                    "administrative_area_level_1",
                    "political"
                ]
            },
            {
                "long_name": "India",
                "short_name": "IN",
                "types": [
                    "country",
                    "political"
                ]
            },
            {
                "long_name": "721211",
                "short_name": "721211",
                "types": [
                    "postal_code"
                ]
            }
        ],
        "formatted_address": "Jotmari, West Bengal 721211, India",
        "geometry": {
            "bounds": {
                "northeast": {
                    "lat": 22.55814,
                    "lng": 87.68695
                },
                "southwest": {
                    "lat": 22.5522701,
                    "lng": 87.68068989999999
                }
            },
            "location": {
                "lat": 22.5563331,
                "lng": 87.6833838
            },
            "location_type": "APPROXIMATE",
            "viewport": {
                "northeast": {
                    "lat": 22.55814,
                    "lng": 87.68695
                },
                "southwest": {
                    "lat": 22.5522701,
                    "lng": 87.68068989999999
                }
            }
        },
        "partial_match": true,
        "place_id": "ChIJhcfT5omoAjoRqbptL4RJ8R8",
        "types": [
            "locality",
            "political"
        ]
    },
    "Jotbani": {
        "address_components": [
            {
                "long_name": "Jotbani",
                "short_name": "Jotbani",
                "types": [
                    "locality",
                    "political"
                ]
            },
            {
                "long_name": "West Medinipur",
                "short_name": "West Medinipur",
                "types": [
                    "administrative_area_level_2",
                    "political"
                ]
            },
            {
                "long_name": "West Bengal",
                "short_name": "WB",
                "types": [
                    "administrative_area_level_1",
                    "political"
                ]
            },
            {
                "long_name": "India",
                "short_name": "IN",
                "types": [
                    "country",
                    "political"
                ]
            },
            {
                "long_name": "721211",
                "short_name": "721211",
                "types": [
                    "postal_code"
                ]
            }
        ],
        "formatted_address": "Jotbani, West Bengal 721211, India",
        "geometry": {
            "bounds": {
                "northeast": {
                    "lat": 22.56073,
                    "lng": 87.68254999999999
                },
                "southwest": {
                    "lat": 22.5503201,
                    "lng": 87.67515
                }
            },
            "location": {
                "lat": 22.5570158,
                "lng": 87.67907029999999
            },
            "location_type": "APPROXIMATE",
            "viewport": {
                "northeast": {
                    "lat": 22.56073,
                    "lng": 87.68254999999999
                },
                "southwest": {
                    "lat": 22.5503201,
                    "lng": 87.67515
                }
            }
        },
        "partial_match": true,
        "place_id": "ChIJVYEgHmCoAjoRv6-XM4Lp6YU",
        "types": [
            "locality",
            "political"
        ]
    },
    "Nabin Basudebpur": {
        "address_components": [
            {
                "long_name": "Nabin Basudebpur",
                "short_name": "Nabin Basudebpur",
                "types": [
                    "locality",
                    "political"
                ]
            },
            {
                "long_name": "West Medinipur",
                "short_name": "West Medinipur",
                "types": [
                    "administrative_area_level_2",
                    "political"
                ]
            },
            {
                "long_name": "West Bengal",
                "short_name": "WB",
                "types": [
                    "administrative_area_level_1",
                    "political"
                ]
            },
            {
                "long_name": "India",
                "short_name": "IN",
                "types": [
                    "country",
                    "political"
                ]
            },
            {
                "long_name": "721211",
                "short_name": "721211",
                "types": [
                    "postal_code"
                ]
            }
        ],
        "formatted_address": "Nabin Basudebpur, West Bengal 721211, India",
        "geometry": {
            "bounds": {
                "northeast": {
                    "lat": 22.5652999,
                    "lng": 87.68701
                },
                "southwest": {
                    "lat": 22.55935,
                    "lng": 87.67712
                }
            },
            "location": {
                "lat": 22.5630428,
                "lng": 87.684
            },
            "location_type": "APPROXIMATE",
            "viewport": {
                "northeast": {
                    "lat": 22.5652999,
                    "lng": 87.68701
                },
                "southwest": {
                    "lat": 22.55935,
                    "lng": 87.67712
                }
            }
        },
        "place_id": "ChIJdaeXumaoAjoRWPHQE1aGMpo",
        "types": [
            "locality",
            "political"
        ]
    },
    "Shrirampur": {
        "address_components": [
            {
                "long_name": "Serampore",
                "short_name": "Serampore",
                "types": [
                    "political",
                    "sublocality",
                    "sublocality_level_1"
                ]
            },
            {
                "long_name": "Hooghly",
                "short_name": "Hooghly",
                "types": [
                    "administrative_area_level_2",
                    "political"
                ]
            },
            {
                "long_name": "West Bengal",
                "short_name": "WB",
                "types": [
                    "administrative_area_level_1",
                    "political"
                ]
            },
            {
                "long_name": "India",
                "short_name": "IN",
                "types": [
                    "country",
                    "political"
                ]
            }
        ],
        "formatted_address": "Serampore, West Bengal, India",
        "geometry": {
            "bounds": {
                "northeast": {
                    "lat": 22.769168,
                    "lng": 88.35823099999999
                },
                "southwest": {
                    "lat": 22.7285151,
                    "lng": 88.3172629
                }
            },
            "location": {
                "lat": 22.748331,
                "lng": 88.3385053
            },
            "location_type": "APPROXIMATE",
            "viewport": {
                "northeast": {
                    "lat": 22.769168,
                    "lng": 88.35823099999999
                },
                "southwest": {
                    "lat": 22.7285151,
                    "lng": 88.3172629
                }
            }
        },
        "place_id": "ChIJW6j1EyKb-DkR4qZ08SKtLjo",
        "types": [
            "political",
            "sublocality",
            "sublocality_level_1"
        ]
    },
    "Damodarpur": {
        "address_components": [
            {
                "long_name": "Damodarpur",
                "short_name": "Damodarpur",
                "types": [
                    "locality",
                    "political"
                ]
            },
            {
                "long_name": "Hooghly",
                "short_name": "Hooghly",
                "types": [
                    "administrative_area_level_2",
                    "political"
                ]
            },
            {
                "long_name": "West Bengal",
                "short_name": "WB",
                "types": [
                    "administrative_area_level_1",
                    "political"
                ]
            },
            {
                "long_name": "India",
                "short_name": "IN",
                "types": [
                    "country",
                    "political"
                ]
            }
        ],
        "formatted_address": "Damodarpur, West Bengal, India",
        "geometry": {
            "bounds": {
                "northeast": {
                    "lat": 22.7888799,
                    "lng": 87.74105999999999
                },
                "southwest": {
                    "lat": 22.7725099,
                    "lng": 87.7261199
                }
            },
            "location": {
                "lat": 22.7796573,
                "lng": 87.7344988
            },
            "location_type": "APPROXIMATE",
            "viewport": {
                "northeast": {
                    "lat": 22.7888799,
                    "lng": 87.74105999999999
                },
                "southwest": {
                    "lat": 22.7725099,
                    "lng": 87.7261199
                }
            }
        },
        "place_id": "ChIJ1-nju80P-DkRIaM4xi2-Q9g",
        "types": [
            "locality",
            "political"
        ]
    },
    "Gobindapur": {
        "address_components": [
            {
                "long_name": "Gobindapur",
                "short_name": "Gobindapur",
                "types": [
                    "locality",
                    "political"
                ]
            },
            {
                "long_name": "South 24 Parganas",
                "short_name": "South 24 Parganas",
                "types": [
                    "administrative_area_level_2",
                    "political"
                ]
            },
            {
                "long_name": "West Bengal",
                "short_name": "WB",
                "types": [
                    "administrative_area_level_1",
                    "political"
                ]
            },
            {
                "long_name": "India",
                "short_name": "IN",
                "types": [
                    "country",
                    "political"
                ]
            },
            {
                "long_name": "700145",
                "short_name": "700145",
                "types": [
                    "postal_code"
                ]
            }
        ],
        "formatted_address": "Gobindapur, West Bengal 700145, India",
        "geometry": {
            "bounds": {
                "northeast": {
                    "lat": 22.3857852,
                    "lng": 88.4105455
                },
                "southwest": {
                    "lat": 22.3705568,
                    "lng": 88.40092
                }
            },
            "location": {
                "lat": 22.3781175,
                "lng": 88.4052416
            },
            "location_type": "APPROXIMATE",
            "viewport": {
                "northeast": {
                    "lat": 22.3857852,
                    "lng": 88.4105455
                },
                "southwest": {
                    "lat": 22.3705568,
                    "lng": 88.40092
                }
            }
        },
        "place_id": "ChIJwzy6zNVtAjoRRITZSnAqUIo",
        "types": [
            "locality",
            "political"
        ]
    },
    "Janarddanpur": {
        "address_components": [
            {
                "long_name": "Janarddanpur",
                "short_name": "Janarddanpur",
                "types": [
                    "locality",
                    "political"
                ]
            },
            {
                "long_name": "Murshidabad",
                "short_name": "Murshidabad",
                "types": [
                    "administrative_area_level_2",
                    "political"
                ]
            },
            {
                "long_name": "West Bengal",
                "short_name": "WB",
                "types": [
                    "administrative_area_level_1",
                    "political"
                ]
            },
            {
                "long_name": "India",
                "short_name": "IN",
                "types": [
                    "country",
                    "political"
                ]
            }
        ],
        "formatted_address": "Janarddanpur, West Bengal, India",
        "geometry": {
            "bounds": {
                "northeast": {
                    "lat": 24.09621,
                    "lng": 88.46651
                },
                "southwest": {
                    "lat": 24.0852099,
                    "lng": 88.45736
                }
            },
            "location": {
                "lat": 24.0916513,
                "lng": 88.46218909999999
            },
            "location_type": "APPROXIMATE",
            "viewport": {
                "northeast": {
                    "lat": 24.09621,
                    "lng": 88.46651
                },
                "southwest": {
                    "lat": 24.0852099,
                    "lng": 88.45736
                }
            }
        },
        "partial_match": true,
        "place_id": "ChIJEQQzTGBg-TkRzQT9sJ4Y2ug",
        "types": [
            "locality",
            "political"
        ]
    },
    "Poshtanka": {
        "address_components": [
            {
                "long_name": "Poshtanka",
                "short_name": "Poshtanka",
                "types": [
                    "locality",
                    "political"
                ]
            },
            {
                "long_name": "West Medinipur",
                "short_name": "West Medinipur",
                "types": [
                    "administrative_area_level_2",
                    "political"
                ]
            },
            {
                "long_name": "West Bengal",
                "short_name": "WB",
                "types": [
                    "administrative_area_level_1",
                    "political"
                ]
            },
            {
                "long_name": "India",
                "short_name": "IN",
                "types": [
                    "country",
                    "political"
                ]
            },
            {
                "long_name": "721211",
                "short_name": "721211",
                "types": [
                    "postal_code"
                ]
            }
        ],
        "formatted_address": "Poshtanka, West Bengal 721211, India",
        "geometry": {
            "bounds": {
                "northeast": {
                    "lat": 22.5580099,
                    "lng": 87.65388999999999
                },
                "southwest": {
                    "lat": 22.54592,
                    "lng": 87.6447399
                }
            },
            "location": {
                "lat": 22.5536101,
                "lng": 87.64948079999999
            },
            "location_type": "APPROXIMATE",
            "viewport": {
                "northeast": {
                    "lat": 22.5580099,
                    "lng": 87.65388999999999
                },
                "southwest": {
                    "lat": 22.54592,
                    "lng": 87.6447399
                }
            }
        },
        "place_id": "ChIJT1D8NAapAjoRXRxgyMM1j1c",
        "types": [
            "locality",
            "political"
        ]
    },
    "Kirttibaspur": {
        "address_components": [
            {
                "long_name": "Kirttibaspur",
                "short_name": "Kirttibaspur",
                "types": [
                    "locality",
                    "political"
                ]
            },
            {
                "long_name": "West Medinipur",
                "short_name": "West Medinipur",
                "types": [
                    "administrative_area_level_2",
                    "political"
                ]
            },
            {
                "long_name": "West Bengal",
                "short_name": "WB",
                "types": [
                    "administrative_area_level_1",
                    "political"
                ]
            },
            {
                "long_name": "India",
                "short_name": "IN",
                "types": [
                    "country",
                    "political"
                ]
            },
            {
                "long_name": "721211",
                "short_name": "721211",
                "types": [
                    "postal_code"
                ]
            }
        ],
        "formatted_address": "Kirttibaspur, West Bengal 721211, India",
        "geometry": {
            "bounds": {
                "northeast": {
                    "lat": 22.5507101,
                    "lng": 87.66063
                },
                "southwest": {
                    "lat": 22.5387099,
                    "lng": 87.6501399
                }
            },
            "location": {
                "lat": 22.5470078,
                "lng": 87.6562634
            },
            "location_type": "APPROXIMATE",
            "viewport": {
                "northeast": {
                    "lat": 22.5507101,
                    "lng": 87.66063
                },
                "southwest": {
                    "lat": 22.5387099,
                    "lng": 87.6501399
                }
            }
        },
        "partial_match": true,
        "place_id": "ChIJAZnvIQOpAjoRASB6vdn7Zlg",
        "types": [
            "locality",
            "political"
        ]
    },
    "Uttar Dhankhal": {
        "address_components": [
            {
                "long_name": "Uttar Dhankhal",
                "short_name": "Uttar Dhankhal",
                "types": [
                    "locality",
                    "political"
                ]
            },
            {
                "long_name": "West Medinipur",
                "short_name": "West Medinipur",
                "types": [
                    "administrative_area_level_2",
                    "political"
                ]
            },
            {
                "long_name": "West Bengal",
                "short_name": "WB",
                "types": [
                    "administrative_area_level_1",
                    "political"
                ]
            },
            {
                "long_name": "India",
                "short_name": "IN",
                "types": [
                    "country",
                    "political"
                ]
            },
            {
                "long_name": "721211",
                "short_name": "721211",
                "types": [
                    "postal_code"
                ]
            }
        ],
        "formatted_address": "Uttar Dhankhal, West Bengal 721211, India",
        "geometry": {
            "bounds": {
                "northeast": {
                    "lat": 22.5496301,
                    "lng": 87.67233999999999
                },
                "southwest": {
                    "lat": 22.54191,
                    "lng": 87.65986989999999
                }
            },
            "location": {
                "lat": 22.5449258,
                "lng": 87.66674359999999
            },
            "location_type": "APPROXIMATE",
            "viewport": {
                "northeast": {
                    "lat": 22.5496301,
                    "lng": 87.67233999999999
                },
                "southwest": {
                    "lat": 22.54191,
                    "lng": 87.65986989999999
                }
            }
        },
        "place_id": "ChIJMzqZ-vqoAjoRUFLxBinTMHE",
        "types": [
            "locality",
            "political"
        ]
    },
    "Dakshin Dhankhal": {
        "address_components": [
            {
                "long_name": "Dakshin Dhankhal",
                "short_name": "Dakshin Dhankhal",
                "types": [
                    "locality",
                    "political"
                ]
            },
            {
                "long_name": "West Medinipur",
                "short_name": "West Medinipur",
                "types": [
                    "administrative_area_level_2",
                    "political"
                ]
            },
            {
                "long_name": "West Bengal",
                "short_name": "WB",
                "types": [
                    "administrative_area_level_1",
                    "political"
                ]
            },
            {
                "long_name": "India",
                "short_name": "IN",
                "types": [
                    "country",
                    "political"
                ]
            }
        ],
        "formatted_address": "Dakshin Dhankhal, West Bengal, India",
        "geometry": {
            "bounds": {
                "northeast": {
                    "lat": 22.54581,
                    "lng": 87.66597
                },
                "southwest": {
                    "lat": 22.5339299,
                    "lng": 87.65529990000002
                }
            },
            "location": {
                "lat": 22.5388626,
                "lng": 87.6593461
            },
            "location_type": "APPROXIMATE",
            "viewport": {
                "northeast": {
                    "lat": 22.54581,
                    "lng": 87.66597
                },
                "southwest": {
                    "lat": 22.5339299,
                    "lng": 87.65529990000002
                }
            }
        },
        "place_id": "ChIJg4fErOOoAjoRsBmFzbjHaao",
        "types": [
            "locality",
            "political"
        ]
    },
    "Makarampur": {
        "address_components": [
            {
                "long_name": "Makarampur",
                "short_name": "Makarampur",
                "types": [
                    "locality",
                    "political"
                ]
            },
            {
                "long_name": "West Medinipur",
                "short_name": "West Medinipur",
                "types": [
                    "administrative_area_level_2",
                    "political"
                ]
            },
            {
                "long_name": "West Bengal",
                "short_name": "WB",
                "types": [
                    "administrative_area_level_1",
                    "political"
                ]
            },
            {
                "long_name": "India",
                "short_name": "IN",
                "types": [
                    "country",
                    "political"
                ]
            }
        ],
        "formatted_address": "Makarampur, West Bengal, India",
        "geometry": {
            "bounds": {
                "northeast": {
                    "lat": 22.5430501,
                    "lng": 87.67654
                },
                "southwest": {
                    "lat": 22.53156,
                    "lng": 87.66083979999999
                }
            },
            "location": {
                "lat": 22.539005,
                "lng": 87.6692092
            },
            "location_type": "APPROXIMATE",
            "viewport": {
                "northeast": {
                    "lat": 22.5430501,
                    "lng": 87.67654
                },
                "southwest": {
                    "lat": 22.53156,
                    "lng": 87.66083979999999
                }
            }
        },
        "partial_match": true,
        "place_id": "ChIJjzVZsuioAjoRmdHUTfns0wA",
        "types": [
            "locality",
            "political"
        ]
    },
    "Abhirampur": {
        "address_components": [
            {
                "long_name": "Abhirampur",
                "short_name": "Abhirampur",
                "types": [
                    "locality",
                    "political"
                ]
            },
            {
                "long_name": "Bardhaman",
                "short_name": "Bardhaman",
                "types": [
                    "administrative_area_level_2",
                    "political"
                ]
            },
            {
                "long_name": "West Bengal",
                "short_name": "WB",
                "types": [
                    "administrative_area_level_1",
                    "political"
                ]
            },
            {
                "long_name": "India",
                "short_name": "IN",
                "types": [
                    "country",
                    "political"
                ]
            }
        ],
        "formatted_address": "Abhirampur, West Bengal, India",
        "geometry": {
            "bounds": {
                "northeast": {
                    "lat": 23.4476167,
                    "lng": 87.6692247
                },
                "southwest": {
                    "lat": 23.4117444,
                    "lng": 87.6125337
                }
            },
            "location": {
                "lat": 23.4300024,
                "lng": 87.6334451
            },
            "location_type": "APPROXIMATE",
            "viewport": {
                "northeast": {
                    "lat": 23.4476167,
                    "lng": 87.6692247
                },
                "southwest": {
                    "lat": 23.4117444,
                    "lng": 87.6125337
                }
            }
        },
        "place_id": "ChIJX3AdxpXT-TkRb7zT1Ul5jIc",
        "types": [
            "locality",
            "political"
        ]
    },
    "Brindabanpur": {
        "address_components": [
            {
                "long_name": "Brindabanpur",
                "short_name": "Brindabanpur",
                "types": [
                    "locality",
                    "political"
                ]
            },
            {
                "long_name": "Purba Medinipur",
                "short_name": "Purba Medinipur",
                "types": [
                    "administrative_area_level_2",
                    "political"
                ]
            },
            {
                "long_name": "West Bengal",
                "short_name": "WB",
                "types": [
                    "administrative_area_level_1",
                    "political"
                ]
            },
            {
                "long_name": "India",
                "short_name": "IN",
                "types": [
                    "country",
                    "political"
                ]
            },
            {
                "long_name": "721633",
                "short_name": "721633",
                "types": [
                    "postal_code"
                ]
            }
        ],
        "formatted_address": "Brindabanpur, West Bengal 721633, India",
        "geometry": {
            "bounds": {
                "northeast": {
                    "lat": 22.11834,
                    "lng": 87.87662
                },
                "southwest": {
                    "lat": 22.10104,
                    "lng": 87.85744009999999
                }
            },
            "location": {
                "lat": 22.108309,
                "lng": 87.8672509
            },
            "location_type": "APPROXIMATE",
            "viewport": {
                "northeast": {
                    "lat": 22.11834,
                    "lng": 87.87662
                },
                "southwest": {
                    "lat": 22.10104,
                    "lng": 87.85744009999999
                }
            }
        },
        "place_id": "ChIJ7VTq4OjpAjoRj7hUVCt6fIs",
        "types": [
            "locality",
            "political"
        ]
    },
    "Debkul": {
        "address_components": [
            {
                "long_name": "Debkul",
                "short_name": "Debkul",
                "types": [
                    "locality",
                    "political"
                ]
            },
            {
                "long_name": "West Medinipur",
                "short_name": "West Medinipur",
                "types": [
                    "administrative_area_level_2",
                    "political"
                ]
            },
            {
                "long_name": "West Bengal",
                "short_name": "WB",
                "types": [
                    "administrative_area_level_1",
                    "political"
                ]
            },
            {
                "long_name": "India",
                "short_name": "IN",
                "types": [
                    "country",
                    "political"
                ]
            }
        ],
        "formatted_address": "Debkul, West Bengal, India",
        "geometry": {
            "bounds": {
                "northeast": {
                    "lat": 22.55031,
                    "lng": 87.6931199
                },
                "southwest": {
                    "lat": 22.53865,
                    "lng": 87.68549
                }
            },
            "location": {
                "lat": 22.5452444,
                "lng": 87.68892919999999
            },
            "location_type": "APPROXIMATE",
            "viewport": {
                "northeast": {
                    "lat": 22.55031,
                    "lng": 87.6931199
                },
                "southwest": {
                    "lat": 22.53865,
                    "lng": 87.68549
                }
            }
        },
        "place_id": "ChIJ6SyiMIWoAjoRZA1ly32ngkw",
        "types": [
            "locality",
            "political"
        ]
    },
    "Jagannath Bati": {
        "address_components": [
            {
                "long_name": "Jagannath Bati",
                "short_name": "Jagannath Bati",
                "types": [
                    "locality",
                    "political"
                ]
            },
            {
                "long_name": "Bankura",
                "short_name": "Bankura",
                "types": [
                    "administrative_area_level_2",
                    "political"
                ]
            },
            {
                "long_name": "West Bengal",
                "short_name": "WB",
                "types": [
                    "administrative_area_level_1",
                    "political"
                ]
            },
            {
                "long_name": "India",
                "short_name": "IN",
                "types": [
                    "country",
                    "political"
                ]
            }
        ],
        "formatted_address": "Jagannath Bati, West Bengal, India",
        "geometry": {
            "bounds": {
                "northeast": {
                    "lat": 23.2732601,
                    "lng": 87.0899199
                },
                "southwest": {
                    "lat": 23.2475201,
                    "lng": 87.07536999999999
                }
            },
            "location": {
                "lat": 23.2571817,
                "lng": 87.08490119999999
            },
            "location_type": "APPROXIMATE",
            "viewport": {
                "northeast": {
                    "lat": 23.2732601,
                    "lng": 87.0899199
                },
                "southwest": {
                    "lat": 23.2475201,
                    "lng": 87.07536999999999
                }
            }
        },
        "partial_match": true,
        "place_id": "ChIJ9cQ_VHWm9zkRijm9vo88vWc",
        "types": [
            "locality",
            "political"
        ]
    },
    "Bar Kashimpur": {
        "address_components": [
            {
                "long_name": "Bar Kashimpur",
                "short_name": "Bar Kashimpur",
                "types": [
                    "locality",
                    "political"
                ]
            },
            {
                "long_name": "West Medinipur",
                "short_name": "West Medinipur",
                "types": [
                    "administrative_area_level_2",
                    "political"
                ]
            },
            {
                "long_name": "West Bengal",
                "short_name": "WB",
                "types": [
                    "administrative_area_level_1",
                    "political"
                ]
            },
            {
                "long_name": "India",
                "short_name": "IN",
                "types": [
                    "country",
                    "political"
                ]
            },
            {
                "long_name": "721146",
                "short_name": "721146",
                "types": [
                    "postal_code"
                ]
            }
        ],
        "formatted_address": "Bar Kashimpur, West Bengal 721146, India",
        "geometry": {
            "bounds": {
                "northeast": {
                    "lat": 22.54314,
                    "lng": 87.69082
                },
                "southwest": {
                    "lat": 22.534,
                    "lng": 87.67300000000002
                }
            },
            "location": {
                "lat": 22.5392175,
                "lng": 87.684
            },
            "location_type": "APPROXIMATE",
            "viewport": {
                "northeast": {
                    "lat": 22.54314,
                    "lng": 87.69082
                },
                "southwest": {
                    "lat": 22.534,
                    "lng": 87.67300000000002
                }
            }
        },
        "partial_match": true,
        "place_id": "ChIJGwFp7pOoAjoRAfG5OlhygEc",
        "types": [
            "locality",
            "political"
        ]
    },
    "Saidpur": {
        "address_components": [
            {
                "long_name": "Saidpur",
                "short_name": "Saidpur",
                "types": [
                    "locality",
                    "political"
                ]
            },
            {
                "long_name": "West Medinipur",
                "short_name": "West Medinipur",
                "types": [
                    "administrative_area_level_2",
                    "political"
                ]
            },
            {
                "long_name": "West Bengal",
                "short_name": "WB",
                "types": [
                    "administrative_area_level_1",
                    "political"
                ]
            },
            {
                "long_name": "India",
                "short_name": "IN",
                "types": [
                    "country",
                    "political"
                ]
            },
            {
                "long_name": "721146",
                "short_name": "721146",
                "types": [
                    "postal_code"
                ]
            }
        ],
        "formatted_address": "Saidpur, West Bengal 721146, India",
        "geometry": {
            "bounds": {
                "northeast": {
                    "lat": 22.53787,
                    "lng": 87.6777
                },
                "southwest": {
                    "lat": 22.5305701,
                    "lng": 87.67036
                }
            },
            "location": {
                "lat": 22.5338731,
                "lng": 87.6747563
            },
            "location_type": "APPROXIMATE",
            "viewport": {
                "northeast": {
                    "lat": 22.53787,
                    "lng": 87.6777
                },
                "southwest": {
                    "lat": 22.5305701,
                    "lng": 87.67036
                }
            }
        },
        "place_id": "ChIJZxJ3NuqoAjoRZQ2kOn-vH0s",
        "types": [
            "locality",
            "political"
        ]
    },
    "Gadaipur": {
        "address_components": [
            {
                "long_name": "Gadaipur",
                "short_name": "Gadaipur",
                "types": [
                    "locality",
                    "political"
                ]
            },
            {
                "long_name": "Murshidabad",
                "short_name": "Murshidabad",
                "types": [
                    "administrative_area_level_2",
                    "political"
                ]
            },
            {
                "long_name": "West Bengal",
                "short_name": "WB",
                "types": [
                    "administrative_area_level_1",
                    "political"
                ]
            },
            {
                "long_name": "India",
                "short_name": "IN",
                "types": [
                    "country",
                    "political"
                ]
            },
            {
                "long_name": "742223",
                "short_name": "742223",
                "types": [
                    "postal_code"
                ]
            }
        ],
        "formatted_address": "Gadaipur, West Bengal 742223, India",
        "geometry": {
            "bounds": {
                "northeast": {
                    "lat": 24.4931899,
                    "lng": 88.04925
                },
                "southwest": {
                    "lat": 24.4766899,
                    "lng": 88.03296999999999
                }
            },
            "location": {
                "lat": 24.484868,
                "lng": 88.038754
            },
            "location_type": "APPROXIMATE",
            "viewport": {
                "northeast": {
                    "lat": 24.4931899,
                    "lng": 88.04925
                },
                "southwest": {
                    "lat": 24.4766899,
                    "lng": 88.03296999999999
                }
            }
        },
        "place_id": "ChIJl5PIKrg3-jkRdrrO1uwMW8g",
        "types": [
            "locality",
            "political"
        ]
    },
    "Krishnanagar": {
        "address_components": [
            {
                "long_name": "Krishnanagar",
                "short_name": "Krishnanagar",
                "types": [
                    "locality",
                    "political"
                ]
            },
            {
                "long_name": "Nadia",
                "short_name": "Nadia",
                "types": [
                    "administrative_area_level_2",
                    "political"
                ]
            },
            {
                "long_name": "West Bengal",
                "short_name": "WB",
                "types": [
                    "administrative_area_level_1",
                    "political"
                ]
            },
            {
                "long_name": "India",
                "short_name": "IN",
                "types": [
                    "country",
                    "political"
                ]
            }
        ],
        "formatted_address": "Krishnanagar, West Bengal, India",
        "geometry": {
            "bounds": {
                "northeast": {
                    "lat": 23.4281657,
                    "lng": 88.5284758
                },
                "southwest": {
                    "lat": 23.3751926,
                    "lng": 88.4681797
                }
            },
            "location": {
                "lat": 23.4008744,
                "lng": 88.5013962
            },
            "location_type": "APPROXIMATE",
            "viewport": {
                "northeast": {
                    "lat": 23.4281657,
                    "lng": 88.5284758
                },
                "southwest": {
                    "lat": 23.3751926,
                    "lng": 88.4681797
                }
            }
        },
        "place_id": "ChIJNbkRA0Qg-TkRr2dqLH5n2pw",
        "types": [
            "locality",
            "political"
        ]
    },
    "Anantapur": {
        "address_components": [
            {
                "long_name": "Anantapur",
                "short_name": "Anantapur",
                "types": [
                    "locality",
                    "political"
                ]
            },
            {
                "long_name": "Murshidabad",
                "short_name": "Murshidabad",
                "types": [
                    "administrative_area_level_2",
                    "political"
                ]
            },
            {
                "long_name": "West Bengal",
                "short_name": "WB",
                "types": [
                    "administrative_area_level_1",
                    "political"
                ]
            },
            {
                "long_name": "India",
                "short_name": "IN",
                "types": [
                    "country",
                    "political"
                ]
            }
        ],
        "formatted_address": "Anantapur, West Bengal, India",
        "geometry": {
            "bounds": {
                "northeast": {
                    "lat": 24.12992,
                    "lng": 88.1158899
                },
                "southwest": {
                    "lat": 24.11633,
                    "lng": 88.10011
                }
            },
            "location": {
                "lat": 24.1233506,
                "lng": 88.10717029999999
            },
            "location_type": "APPROXIMATE",
            "viewport": {
                "northeast": {
                    "lat": 24.12992,
                    "lng": 88.1158899
                },
                "southwest": {
                    "lat": 24.11633,
                    "lng": 88.10011
                }
            }
        },
        "place_id": "ChIJh53t9qKA-TkRgO2T29mxDgQ",
        "types": [
            "locality",
            "political"
        ]
    },
    "Nabin Maheshpur": {
        "address_components": [
            {
                "long_name": "Nabin Maheshpur",
                "short_name": "Nabin Maheshpur",
                "types": [
                    "locality",
                    "political"
                ]
            },
            {
                "long_name": "West Medinipur",
                "short_name": "West Medinipur",
                "types": [
                    "administrative_area_level_2",
                    "political"
                ]
            },
            {
                "long_name": "West Bengal",
                "short_name": "WB",
                "types": [
                    "administrative_area_level_1",
                    "political"
                ]
            },
            {
                "long_name": "India",
                "short_name": "IN",
                "types": [
                    "country",
                    "political"
                ]
            },
            {
                "long_name": "721146",
                "short_name": "721146",
                "types": [
                    "postal_code"
                ]
            }
        ],
        "formatted_address": "Nabin Maheshpur, West Bengal 721146, India",
        "geometry": {
            "bounds": {
                "northeast": {
                    "lat": 22.52186,
                    "lng": 87.6841701
                },
                "southwest": {
                    "lat": 22.5148601,
                    "lng": 87.67723
                }
            },
            "location": {
                "lat": 22.5190705,
                "lng": 87.680919
            },
            "location_type": "APPROXIMATE",
            "viewport": {
                "northeast": {
                    "lat": 22.52186,
                    "lng": 87.6841701
                },
                "southwest": {
                    "lat": 22.5148601,
                    "lng": 87.67723
                }
            }
        },
        "place_id": "ChIJ0xo3c7eoAjoRftTMe1UtpKI",
        "types": [
            "locality",
            "political"
        ]
    },
    "Manikpur": {
        "address_components": [
            {
                "long_name": "Manikpur",
                "short_name": "Manikpur",
                "types": [
                    "political",
                    "sublocality",
                    "sublocality_level_2"
                ]
            },
            {
                "long_name": "Kulgachia",
                "short_name": "Kulgachia",
                "types": [
                    "political",
                    "sublocality",
                    "sublocality_level_1"
                ]
            },
            {
                "long_name": "Howrah",
                "short_name": "Howrah",
                "types": [
                    "locality",
                    "political"
                ]
            },
            {
                "long_name": "Howrah",
                "short_name": "Howrah",
                "types": [
                    "administrative_area_level_2",
                    "political"
                ]
            },
            {
                "long_name": "West Bengal",
                "short_name": "WB",
                "types": [
                    "administrative_area_level_1",
                    "political"
                ]
            },
            {
                "long_name": "India",
                "short_name": "IN",
                "types": [
                    "country",
                    "political"
                ]
            }
        ],
        "formatted_address": "Manikpur, Kulgachia, Howrah, West Bengal, India",
        "geometry": {
            "bounds": {
                "northeast": {
                    "lat": 22.4720741,
                    "lng": 88.029884
                },
                "southwest": {
                    "lat": 22.464144,
                    "lng": 88.0176109
                }
            },
            "location": {
                "lat": 22.4692758,
                "lng": 88.0253027
            },
            "location_type": "APPROXIMATE",
            "viewport": {
                "northeast": {
                    "lat": 22.4720741,
                    "lng": 88.029884
                },
                "southwest": {
                    "lat": 22.464144,
                    "lng": 88.0176109
                }
            }
        },
        "place_id": "ChIJBUF0MtmEAjoRZpRDixjVKt4",
        "types": [
            "political",
            "sublocality",
            "sublocality_level_2"
        ]
    },
    "Patla": {
        "address_components": [
            {
                "long_name": "Patla",
                "short_name": "Patla",
                "types": [
                    "locality",
                    "political"
                ]
            },
            {
                "long_name": "West Medinipur",
                "short_name": "West Medinipur",
                "types": [
                    "administrative_area_level_2",
                    "political"
                ]
            },
            {
                "long_name": "West Bengal",
                "short_name": "WB",
                "types": [
                    "administrative_area_level_1",
                    "political"
                ]
            },
            {
                "long_name": "India",
                "short_name": "IN",
                "types": [
                    "country",
                    "political"
                ]
            },
            {
                "long_name": "721146",
                "short_name": "721146",
                "types": [
                    "postal_code"
                ]
            }
        ],
        "formatted_address": "Patla, West Bengal 721146, India",
        "geometry": {
            "bounds": {
                "northeast": {
                    "lat": 22.5299499,
                    "lng": 87.6919599
                },
                "southwest": {
                    "lat": 22.52123,
                    "lng": 87.68491
                }
            },
            "location": {
                "lat": 22.5251327,
                "lng": 87.6883131
            },