id,name,jl_number,block_id,latitude,longitude
5053,Kabirpur,204,25.0,-1.0,-1.0
5054,Mahespur,205,25.0,-1.0,-1.0
5055,Amudpur,206,25.0,-1.0,-1.0
5056,Sasinara,207,25.0,-1.0,-1.0
5057,Kalsi,208,25.0,25.3655301,88.27288209999999
5058,Nudipur,209,25.0,-1.0,-1.0
5059,Simla,210,25.0,-1.0,-1.0
5060,Sonara,211,25.0,23.1373067,88.1059495
5061,Ilamdanga,212,25.0,23.1284052,88.108391
5062,Sura,213,25.0,23.0272191,87.9898205
5063,Durgapur,214,25.0,-1.0,-1.0
5064,Chot Khanda,215,25.0,-1.0,-1.0
5065,Alipur,216,25.0,-1.0,-1.0
5066,Shyamnagar,217,25.0,-1.0,-1.0
5067,Maglampur,218,25.0,23.1185464,88.1559741
5068,Katapur,219,25.0,23.1183183,88.1364591
5069,Benapur,220,25.0,22.2916118,87.3637025
5070,Birsimul,221,25.0,23.1110329,88.1498766
5071,Krishnajibanpur,222,25.0,23.1005706,88.14621770000001
5072,Malamba,1,26.0,23.3615626,88.0680883
5073,Bhagabanpur,2,26.0,-1.0,-1.0
5074,Bamuna,3,26.0,23.1882937,87.9003778
5075,Sargachi,4,26.0,-1.0,-1.0
5076,Haladharpur,5,26.0,23.3273546,88.0693101
5077,Unte,6,26.0,23.3198396,88.0632006
5078,Mandalgram,7,26.0,-1.0,-1.0
5079,Bara Polasan,8,26.0,-1.0,-1.0
5080,Dihi Palashan,9,26.0,-1.0,-1.0
5081,Kantabari,10,26.0,25.5001173,88.53356939999999
5082,Gorapur,11,26.0,22.422716,88.11815589999999
5083,Bijur,12,26.0,-1.0,-1.0
5084,Kalyanpur,13,26.0,22.5006615,87.91509309999999
5085,Barari,14,26.0,-1.0,-1.0
5086,Kantipur,15,26.0,23.2776464,88.0809159
5087,Bangram,16,26.0,23.246712,86.8126195
5088,Bhundul,17,26.0,-1.0,-1.0
5089,Reancha,18,26.0,22.4965893,88.35813440000001
5090,Melna,19,26.0,23.2667547,88.0628074
5091,Kaleswar,20,26.0,23.9572153,87.8469946
5092,Barkona,21,26.0,23.4568292,87.0058794
5094,Gangua,24,26.0,25.5469621,88.21812039999999
5098,Ausa,28,26.0,-1.0,-1.0
5102,Basatpur,32,26.0,-1.0,-1.0
5103,Kuchut,33,26.0,-1.0,-1.0
5104,Mashagaria,34,26.0,23.2243594,88.04364439999999
5105,Paikara,35,26.0,-1.0,-1.0
5108,Khangram,38,26.0,24.0266978,87.9849242
5110,Bhaita,40,26.0,-1.0,-1.0
5111,Baje  Rasulpur,59,26.0,23.2111312,88.05709019999999
5112,Baragram,60,26.0,23.2438149,86.6371758
5113,Naohati,61,26.0,22.8928724,88.42203239999999
5114,Paschim  Srirampur,62,26.0,23.102838,87.5457663
5115,Akalia,63,26.0,23.2298614,88.0674773
5116,Chandipur,64,26.0,-1.0,-1.0
5117,Kabastikri,65,26.0,-1.0,-1.0
5118,Jabui,66,26.0,23.2576085,88.0851909
5119,Gaggeswar,67,26.0,-1.0,-1.0
5120,Dhunai,68,26.0,23.2503887,88.1035078
5121,Belui,69,26.0,23.2467487,88.1102221
5122,Asapur,70,26.0,25.4210418,88.09129740000002
5123,Ghoshpur,71,26.0,22.7296891,87.7812524
5124,Biskopa,72,26.0,23.488248,87.3686661
5125,Beguniya,73,26.0,-1.0,-1.0
5126,Dakhalpur,74,26.0,23.2624111,88.1132737
5127,Bilbari,75,26.0,24.1677665,88.21812039999999
5128,Naopara,76,26.0,22.8128009,88.38098579999999
5129,Nanna,77,26.0,22.7803584,86.59558129999999
5130,Jhikra,78,26.0,22.8912488,88.6506644
5131,Bamunpukur,79,26.0,23.2777261,88.1498766
5132,Ahira,80,26.0,23.2792856,88.1559741
5133,Satgachia,81,26.0,23.2613705,88.1510962
5134,Ranihati,82,26.0,22.5705509,88.1510962
5135,Farakpur,83,26.0,-1.0,-1.0
5136,Bishnupur,84,26.0,23.0678795,87.3165222
5137,Mahishdanga,85,26.0,22.9061227,88.1961965
5138,Mahishpur,86,26.0,22.2816125,88.3633918
5139,Rukashpur,87,26.0,-1.0,-1.0
5140,Sikarpur,88,26.0,-1.0,-1.0
5141,Bitra,89,26.0,23.3096664,88.2095958
5142,Sahajadpur,90,26.0,24.0085658,88.47671679999999
5143,Siddariya,91,26.0,-1.0,-1.0
5144,Makra,92,26.0,-1.0,-1.0
5145,Bohar,93,26.0,-1.0,-1.0
5146,Masra,94,26.0,24.1291551,87.66551079999999
5147,Chak Balaram,95,26.0,-1.0,-1.0
5148,Baneswarpur,96,26.0,23.2039055,88.83710339999999
5149,Senpur,97,26.0,23.6637697,88.3470047
5150,Mutra,98,26.0,23.2395408,88.1937598
5151,Barwa,99,26.0,23.2438517,88.1803557
5152,Jakra,100,26.0,23.2617666,88.1852304
5153,Raybati,101,26.0,23.055458,87.8721602
5154,Goaldinghi,102,26.0,23.2541426,88.16938569999999
5155,Harkala,103,26.0,23.2436825,88.16572839999999
5156,Sridharpur,104,26.0,23.3103669,87.6913936
5157,Kanthalia,105,26.0,23.8863773,88.6036238
5158,Chak  Narayanpur,106,26.0,23.7402331,87.645164
5159,Rokanpur,117,26.0,23.2326472,88.1132737
5160,Gandhapur,119,26.0,23.2207121,88.1108325
5161,Kanpur,120,26.0,-1.0,-1.0
5162,Ganti,121,26.0,-1.0,-1.0
5163,Parhati,122,26.0,23.2414008,88.0986241
5164,Madhupur,123,26.0,26.363461,89.3807678
5165,Tajpur,124,26.0,-1.0,-1.0
5166,Kasipur,125,26.0,-1.0,-1.0
5167,Nandiyara,178,26.0,23.3841308,86.33007049999999
5168,Tantibaksa,179,26.0,23.226617,88.1699952
5169,Sarra,180,26.0,-1.0,-1.0
5170,Khayerpur,181,26.0,23.2304433,88.179137
5171,Taralpur,182,26.0,23.2275509,88.186449
5172,Bansipur,183,26.0,25.3650494,88.8287014
5173,Barasat,184,26.0,22.7228159,88.480552
5174,Kalibele,196,26.0,23.2095461,88.17617320000001
5175,Shambhupur,1,27.0,-1.0,-1.0
5176,Chakshanjadi,2,27.0,23.1578888,87.96533350000001
5177,Jamdaha,3,27.0,23.1521236,87.9800273
5178,Haibatpur,4,27.0,23.1507754,87.9910445
5179,Chalbalpur,5,27.0,23.7405124,86.88067749999999
5180,Kanakpur,6,27.0,22.0793376,87.50248280000001
5181,Sadipur,7,27.0,23.1282478,87.9751299
5182,Krishnapur,8,27.0,22.6627899,88.2765304
5183,Dadpur,9,27.0,24.2199615,87.7787929
5184,Habaspur,10,27.0,24.3191573,88.3385053
5185,Chouberia,11,27.0,23.1153016,88.01062379999999
5186,Ballabhbati,12,27.0,22.8622443,87.7849414
5187,Mashagram,13,27.0,23.1335279,88.0399767
5188,Bishambharpur,14,27.0,-1.0,-1.0
5189,Ruppur,15,27.0,23.664483,87.60135679999999
5190,Nabagram,16,27.0,23.111247,88.04364439999999
5191,Basistapur,17,27.0,23.0514043,88.0191871
5192,Keliri,18,27.0,23.1275138,88.03508590000001
5193,Sanchra,19,27.0,23.756436,87.3152799
5194,Ajhapur,20,27.0,-1.0,-1.0
5195,Purba Sadhipur,21,27.0,22.5642816,88.1705982
5196,Salmula,22,27.0,22.5620628,88.4090279
5197,Dattapur,23,27.0,23.1099537,88.0595345
5198,Dhuluk,24,27.0,23.0904387,88.0460894
5199,Faimpur,25,27.0,-1.0,-1.0
5200,Parbatpur,26,27.0,23.0620818,88.0399767
5201,Ruda,27,27.0,23.0709222,88.0326403
5202,Hiranyagram,28,27.0,23.0812354,88.0240796
5203,Krishna Chandrapur,29,27.0,23.4602007,88.519061
5204,Selimabad,30,27.0,23.0797311,87.99975289999999
5205,Sarangpur,31,27.0,23.1047442,87.9996115
5206,Berugram,32,27.0,-1.0,-1.0
5207,Balarampur,33,27.0,23.0943913,86.22029619999999
5208,Kalera,34,27.0,23.0806188,87.9751299
5209,Rajarampur,35,27.0,24.3573495,88.1860087
5210,Sreekrishnapur,36,27.0,22.8977074,88.5384045
5211,Jyotsriram,37,27.0,26.7181545,88.42673830000001
5212,Jyotdakshin,38,27.0,-1.0,-1.0
5213,Sah Hossainpur,39,27.0,-1.0,-1.0
5214,Hargobindapur,40,27.0,-1.0,-1.0
5215,Kubajpur,41,27.0,23.4637195,88.24703099999999
5216,Sura,42,27.0,23.0272191,87.9898205
5217,Kalna,43,27.0,-1.0,-1.0
5218,Kanshra,44,27.0,-1.0,-1.0
5219,Khanpur,45,27.0,22.6729089,88.2598404
5220,Jyot Raghab,46,27.0,23.0733786,87.9910445
5221,Radhaballabbati,47,27.0,23.0674865,87.9959401
5222,Jyot Kristai,48,27.0,-1.0,-1.0
5223,Uttar Mohanpur,49,27.0,-1.0,-1.0
5224,Halara,50,27.0,23.0743002,88.005118
5225,Betragarh,51,27.0,23.0711866,88.0152481
5226,Sajipur,52,27.0,23.05874,88.01062379999999
5227,Harekrishnapur,53,27.0,-1.0,-1.0
5228,Basantapur,54,27.0,23.0514043,88.0191871
5229,Paratal,55,27.0,23.0549547,88.0353916
5230,Gopikantapur,56,27.0,-1.0,-1.0
5231,Jyot Subal,57,27.0,22.46279,88.307386
5232,Ramchandrapur,58,27.0,22.8911172,88.4706642
5233,Chakdighi,59,27.0,-1.0,-1.0
5234,Sukpur,60,27.0,-1.0,-1.0
5235,Jargram,61,27.0,-1.0,-1.0
5236,Satgharia,62,27.0,-1.0,-1.0
5237,Baratikra,63,27.0,22.9988895,87.9861483
5238,Dhapdhara,64,27.0,23.6586546,87.91999700000001
5239,Sonar Garia,65,27.0,23.0091076,87.970232
5240,Paikpara,66,27.0,-1.0,-1.0
5241,Muidipur,67,27.0,-1.0,-1.0
5242,Nandanpur,68,27.0,22.647108,87.8402405
5243,Ujirpur,69,27.0,24.2644676,87.9898205
5244,Reshalatpur,70,27.0,-1.0,-1.0
5245,Kora,71,27.0,22.97114,87.9696197
5246,Shiali,72,27.0,22.974885,87.9714565
5247,Amarpur,73,27.0,22.9838792,87.9763543
5248,Dakshin Mohanpur,74,27.0,-1.0,-1.0
5249,Daspur,75,27.0,22.6068031,87.7246498
5250,Antpara,76,27.0,22.9840033,87.9861483
5251,Ramkrishnapur,77,27.0,25.2757475,88.9713045
5252,Mirjapur,78,27.0,23.2817971,87.88197699999999
5253,Pranballavpur,79,27.0,-1.0,-1.0
5254,Madhabpur,80,27.0,-1.0,-1.0
5255,Dumo,81,27.0,22.9966692,88.0288197
5256,Bidyabatipur,82,27.0,-1.0,-1.0
5257,Gureghar,83,27.0,23.0066684,88.03217289999999
5258,Tilkuria,84,27.0,22.996959,88.0330998
5259,Mohisgaria,85,27.0,22.8136682,88.1840118
5260,Narayanpur,86,27.0,22.6453065,88.46218909999999
5261,Mathurapur,87,27.0,22.1202674,88.39432819999999
5262,Bishnubati,88,27.0,22.8634904,88.0076182
5263,Srimanpur,89,27.0,-1.0,-1.0
5264,Siptai,90,27.0,23.0264165,88.0448669
5265,Ilampur,91,27.0,26.2546438,88.19741479999999
5266,Bhairavpur,92,27.0,-1.0,-1.0
5267,Pirijpur,93,27.0,23.0380835,88.0253027
5268,Gohaldaha,94,27.0,23.0381744,88.0326403
5269,Bahadurpur,95,27.0,23.6924569,87.1447831
5270,Janakibati,96,27.0,23.0443095,88.0473119
5271,Khordda Palashi,97,27.0,-1.0,-1.0
5272,Bag Kalapahar,98,27.0,23.0531506,88.0399767
5273,Itla,99,27.0,23.3450029,88.4549234
5274,Sadarpur,100,27.0,25.373533,87.970232
5275,Nawpara,101,27.0,-1.0,-1.0
5276,Sahapur,102,27.0,-1.0,-1.0
5277,Sheetalpur,103,27.0,-1.0,-1.0
5278,Mahindar,104,27.0,25.2973096,88.5396131
5279,Dogachia,105,27.0,23.4351502,88.2534192
5280,Antai,106,27.0,-1.0,-1.0
5281,Panch Shimul,107,27.0,23.064151,88.08763359999999
5282,Dantanpur,108,27.0,-1.0,-1.0
5283,Keotara,109,27.0,23.0568401,88.0986241
5284,Siromani,110,27.0,-1.0,-1.0
5285,Abujhati,111,27.0,23.0644431,88.1120531
5286,Amrah,112,27.0,23.2097714,87.94940969999999
5287,Gopalpur,113,27.0,-1.0,-1.0
5288,Jaugram,114,27.0,23.096244,88.08139349999999
5289,Jajanpur,115,27.0,23.1115465,88.0680883
5290,Ilsara,116,27.0,23.117619,88.077862
5291,Mayna,117,27.0,-1.0,-1.0
5292,Kulingram,118,27.0,-1.0,-1.0
5293,Gangarambati,119,27.0,22.5498723,88.32503179999999
5294,Ajapur,120,27.0,23.1411355,88.0534236
5295,Chak Muzaffarpur,121,27.0,22.5403031,88.360547
5296,Dattapura,122,27.0,23.1099537,88.0595345
5297,Kamalpur,123,27.0,23.3009283,86.84650359999999
5298,Chakpurahit,1,28.0,-1.0,-1.0
5299,Babarakpur,2,28.0,-1.0,-1.0
5300,Matchkhanda,3,28.0,-1.0,-1.0
5301,Jamna,4,28.0,-1.0,-1.0
5302,Bandhgacha,5,28.0,23.1978692,88.41408969999999
5303,Jakta,6,28.0,23.1939847,87.88074999999999
5304,Shalgachha,7,28.0,-1.0,-1.0
5305,Chhotto kairapur,8,28.0,22.556964,88.49669899999999
5306,Jotshilam,9,28.0,23.1760607,87.8758417
5307,Jotsadi,10,28.0,23.1685042,87.8672509
5308,Belsar,11,28.0,23.1802106,87.85252
5309,Samaspur,12,28.0,25.6969308,88.2631517
5310,Gopalpur,13,28.0,23.4976267,87.3959564
5311,Narugram,14,28.0,23.1473032,87.8402405
5312,Sipta,15,28.0,-1.0,-1.0
5313,Kukura,16,28.0,23.1272346,87.8147499
5314,Jamui,17,28.0,23.1208968,87.8138283
5315,Fakirpur,18,28.0,23.2290333,87.83164289999999
5316,Khemta,19,28.0,23.114528,87.8377842
5317,Purshuna,20,28.0,-1.0,-1.0
5318,Ahlladipur,21,28.0,23.830864,87.6913936
5319,Nandal,22,28.0,23.132654,87.8574308
5320,Bhimpur,23,28.0,23.431471,88.632578
5321,Basudebpur,24,28.0,21.8248993,87.62110609999999
5322,Jotram,25,28.0,-1.0,-1.0
5323,Sankarpur,26,28.0,-1.0,-1.0
5324,Shripur,27,28.0,-1.0,-1.0
5325,Shyamdasbati,28,28.0,-1.0,-1.0
5326,Golgram,29,28.0,-1.0,-1.0
5327,Bantir,30,28.0,-1.0,-1.0
5328,Shibpur,31,28.0,22.5723094,88.3117819
5329,Bamuniya,32,28.0,23.1882937,87.9003778
5330,Hijalna,33,28.0,23.1839427,87.9089623
5331,Banagram,34,28.0,23.276069,88.0735863
5332,Pirijpur,35,28.0,23.0380835,88.0253027
5333,Haripur,36,28.0,23.6773318,87.1934619
5334,Natu,37,28.0,-1.0,-1.0
5335,Uttar  Mohanpur,38,28.0,-1.0,-1.0
5336,Dhamas,39,28.0,23.1800632,88.198633
5337,Teyandul,40,28.0,23.1368167,87.93469329999999
5338,Sukur,41,28.0,23.2723673,87.95675990000001
5339,Ramanandapur,42,28.0,22.1652078,88.2716659
5340,Balla,43,28.0,-1.0,-1.0
5341,Sekpur,44,28.0,24.0183406,87.70617709999999
5342,Baliyarpur,45,28.0,-1.0,-1.0
5343,Kuliya,46,28.0,22.0943466,87.3668048
5344,Golgram Nurpur,47,28.0,23.1314792,87.88074999999999
5345,Shibrampur,48,28.0,-1.0,-1.0
5346,Debibarpur,49,28.0,-1.0,-1.0
5347,Baharampur,50,28.0,-1.0,-1.0
5348,Burar,51,28.0,23.1042268,87.8463807
5349,Gopinathpur,52,28.0,22.8076683,88.0534236
5350,Ramkrishnapur,53,28.0,25.2757475,88.9713045
5351,Chandipur,54,28.0,22.1022227,87.8574308
5352,Sehara,55,28.0,23.1021491,87.803382
5353,Konakrishnapur,56,28.0,23.090446,87.818129
5354,Bora,57,28.0,22.8986465,87.8340995
5355,Ujirhati,58,28.0,23.0769665,87.81198499999999
5356,Mogalmari,59,28.0,23.0842213,87.79846529999999
5357,Bajitpur,60,28.0,22.7081418,88.8527026
5358,Benduya,61,28.0,-1.0,-1.0
5359,Bujrukdihi,62,28.0,23.0602712,87.7886302
5360,Udgara,67,28.0,23.0667672,87.8279577
5361,Paschimpara,68,28.0,22.8716445,87.9310291
5362,Ausora,69,28.0,22.3398319,87.3064117
5363,Math Nurpur,70,28.0,-1.0,-1.0
5364,Palason,71,28.0,23.0642237,87.8598861
5365,Shyamsundar,72,28.0,-1.0,-1.0
5366,Mirjapur,73,28.0,-1.0,-1.0
5367,Muktipur,74,28.0,-1.0,-1.0
5368,Khalina,75,28.0,21.8884679,87.4876333
5369,Chakkeyampur,76,28.0,-1.0,-1.0
5370,Rasulpur,77,28.0,23.1840099,88.0301946
5371,Madanagar,78,28.0,23.1094318,87.9016043
5372,Jamaipota,79,28.0,23.1198988,87.9052834
5373,Meral,80,28.0,23.1155791,87.9163191
5374,Jagatpur,81,28.0,-1.0,-1.0
5376,Dakhinkul,82,28.0,22.7278755,87.8672509
5377,Borr,83,28.0,-1.0,-1.0
5378,Balagarh,84,28.0,23.118857,88.4646107
5379,Deriapur,85,28.0,23.1162782,87.970232
5380,Astikpur,86,28.0,-1.0,-1.0
5381,Anguna,87,28.0,-1.0,-1.0
5382,Mugura,88,28.0,23.1039286,87.9359313
5383,Belur,89,28.0,23.0905172,87.93470579999999
5384,Sanktia,90,28.0,23.0817139,87.944509
5385,Gunar,91,28.0,-1.0,-1.0
5386,Uchitpur,92,28.0,22.1771995,87.6753726
5387,Hakrishnapur,93,28.0,-1.0,-1.0
5388,Pipila,94,28.0,-1.0,-1.0
5389,Ibidpur,95,28.0,23.075441,87.91999700000001
5390,Bokra,96,28.0,23.0813626,87.9175451
5391,Narayanpur,97,28.0,22.6453065,88.46218909999999
5392,Bidhyanidhi,98,28.0,-1.0,-1.0
5393,Sahajpur,99,28.0,23.294358,88.25192129999999
5394,Rasuikhanda,100,28.0,23.0989646,87.8979248
5395,Alalpur,101,28.0,23.0928809,87.8881115
5396,Baira,102,28.0,23.0556258,88.2522024
5398,Raina,104,28.0,23.0735807,87.8917917
5399,Birampur,105,28.0,-1.0,-1.0
5400,Maheshbati,106,28.0,23.0737754,87.9065098
5401,Joterajaram,107,28.0,-1.0,-1.0
5402,Rainagar,118,28.0,-1.0,-1.0
5403,Bisheswarbati,119,28.0,-1.0,-1.0
5404,Netrakhanda,120,28.0,23.0497007,87.8868846
5405,Rambati,121,28.0,23.055458,87.8721602
5406,Bansa,122,28.0,23.3733932,85.9247051
5407,Bhagabatipur,123,28.0,22.6916409,88.191323
5408,Dharan,124,28.0,-1.0,-1.0
5409,Ramchandrapur,63,29.0,22.8911172,88.4706642
5410,Chak Chandan,64,29.0,-1.0,-1.0
5411,Shrirampur,65,29.0,-1.0,-1.0
5412,Baithari,66,29.0,23.0592412,87.821815
5413,Bijipur,8,29.0,-1.0,-1.0
5414,Deno,11,29.0,23.0516579,87.9224488
5415,Adampur,12,29.0,-1.0,-1.0
5416,Dhamnari,13,29.0,23.0430138,87.944509
5417,Pipaldaha,14,29.0,26.0241869,89.4753992
5418,Pasra,15,29.0,-1.0,-1.0
5419,Neor,16,29.0,23.0441353,87.9163191
5420,Chak  Kaiti,25,29.0,23.0299069,87.8537478
5421,Gobindapur,26,29.0,-1.0,-1.0
5422,Masjidpur,27,29.0,-1.0,-1.0
5423,Nasipur,28,29.0,24.3195752,88.37734619999999
5424,Katnabil,29,29.0,23.0233842,87.81198499999999
5425,Mirpur,30,29.0,22.7093319,88.3117819
5426,Uchalan,31,29.0,23.0303663,87.7787929
5427,Nandanpur,32,29.0,22.647108,87.8402405
5428,Agarpara,33,29.0,-1.0,-1.0
5429,Makarkola,34,29.0,23.0045262,87.7406534
5430,Eklakshmi,35,29.0,22.9882753,87.7492683
5431,Narattambati,36,29.0,-1.0,-1.0
5432,Babla,37,29.0,22.0190807,87.4579201
5433,Moniary,38,29.0,22.9653038,87.7610703
5434,Sankonarayanpur,39,29.0,22.9886898,87.7787929
5435,Rampur,40,29.0,25.3470758,88.632578
5436,Kalui,41,29.0,23.403283,88.07297539999999
5437,Keunta,42,29.0,23.0023082,87.7947774
5438,Mandarpur,43,29.0,21.758167,87.6420804
5439,Bulchandrapur,44,29.0,22.9783217,87.7824821
5440,Chuyadanga,45,29.0,-1.0,-1.0
5441,Hatpushkarini,46,29.0,22.9756172,87.8021529
5442,Beldanga,1,30.0,-1.0,-1.0
5443,Metedanga,2,30.0,-1.0,-1.0
5444,Nikunjapur,3,30.0,23.205531,87.18964489999999
5445,Lodna,4,30.0,23.1747953,87.13480799999999
5446,Banamalipur,5,30.0,22.7616738,88.1949782
5447,Bichkhara,6,30.0,23.2358659,87.684
5448,Nabagram,7,30.0,23.111247,88.04364439999999
5449,Keleti,8,30.0,23.233142,87.7012498
5450,Kumirkola,9,30.0,23.2436113,87.70494529999999
5451,Rupasa,10,30.0,-1.0,-1.0
5452,Dharmapur,11,30.0,-1.0,-1.0
5453,Gharkura,12,30.0,23.2335339,87.7283434
5454,Naricha,13,30.0,23.2380862,87.7344988
5455,Maladharpur,14,30.0,23.2269881,87.7388071
5456,Khejurhati,15,30.0,23.2186894,87.73080569999999
5457,Aradanga,16,30.0,23.2200179,87.7197245
5458,Hamirpur,17,30.0,21.7282717,87.5321673
5459,Khandghosh,18,30.0,23.2136368,87.6901614
5460,Sarifapur,19,30.0,25.9402263,87.8464254
5461,Kapshit,20,30.0,-1.0,-1.0
5462,Jot-Neoyaji,21,30.0,-1.0,-1.0
5463,Shyamadanga,22,30.0,-1.0,-1.0
5464,Barisiali,23,30.0,23.1964593,87.6690234
5465,Baman-Ari,24,30.0,23.1724724,87.67352369999999
5466,Dubrajhat,25,30.0,23.1658756,87.68030279999999
5467,Berugram,26,30.0,23.1045584,87.9849242
5468,Bayada,27,30.0,-1.0,-1.0
5469,Kalna,28,30.0,23.2248593,88.3482188
5470,Sultanpur,29,30.0,-1.0,-1.0
5471,Daiyar,30,30.0,23.1379426,87.70371349999999
5472,Amral,31,30.0,-1.0,-1.0
5473,Sadhanpur,32,30.0,-1.0,-1.0
5474,Punshur,33,30.0,23.1233452,87.7234185
5475,Shibrambati,34,30.0,22.7901986,88.215685
5476,Boyai,35,30.0,-1.0,-1.0
5477,Narayanpurchak,36,30.0,23.1444262,87.7406534
5478,Tarul,37,30.0,23.141555,87.7480377
5479,Narayanpur,38,30.0,22.6453065,88.46218909999999
5480,Kule,39,30.0,-1.0,-1.0
5481,Ukhrid,40,30.0,23.1694599,87.7221872
5482,Khantikar,41,30.0,23.1828704,87.7234185
5483,Karimpur,42,30.0,-1.0,-1.0
5484,Munsabpur,43,30.0,23.1947394,87.72095589999999
5485,Jot-Dharmadas,44,30.0,22.517355,88.3432076
5486,Owyari,45,30.0,-1.0,-1.0
5487,Gayespur,46,30.0,23.2815421,88.3603576
5488,Enayetnagar,47,30.0,22.3694722,88.2874736
5489,Ulkunda,48,30.0,23.8921059,87.8144427
5490,Teluya,49,30.0,22.8842544,87.8709329
5491,Shikarpur,50,30.0,23.1864083,87.7628028
5492,Krishnanagar,51,30.0,23.4008744,88.5013962
5493,Alipur,52,30.0,-1.0,-1.0
5494,Maur,53,30.0,23.209325,87.7523447
5495,Nischintapur,54,30.0,-1.0,-1.0
5496,Chandipur,55,30.0,-1.0,-1.0
5497,Napara,56,30.0,23.220941,86.6453646
5498,Mashila,57,30.0,-1.0,-1.0
5499,Sasanga,58,30.0,23.3024699,87.7628028
5500,Oyaniya,59,30.0,-1.0,-1.0
5501,Palashdangga,60,30.0,23.3993469,87.38851509999999
5502,Chaksultan,61,30.0,-1.0,-1.0
5503,Paduya,62,30.0,23.2135052,87.7849414
5504,Salun,63,30.0,23.2209971,87.7886302
5505,Atkulla,64,30.0,23.3159338,88.5275249
5506,Gaytanpur,65,30.0,-1.0,-1.0
5507,Tildangga,66,30.0,24.7898225,87.8758417
5508,Raipur,67,30.0,23.631129,87.65687989999999
5509,Keshabpur,68,30.0,22.8861165,87.8991514
5510,Khudkuri,69,30.0,23.1958403,87.7908951
5511,Shankari,70,30.0,23.1739901,87.83287120000001
5512,Ayama Kheger,71,30.0,-1.0,-1.0
5513,Kulachaura,72,30.0,-1.0,-1.0
5514,Huriya,73,30.0,23.1848043,87.8076837
5515,Kamalpur,74,30.0,23.3009283,86.84650359999999
5516,Keudia,75,30.0,23.1812114,87.8169003
5517,Jubila,76,30.0,-1.0,-1.0
5518,Chak Baduliya,77,30.0,-1.0,-1.0
5519,Sagrai,78,30.0,23.1514479,87.8169003
5520,Baduliya,79,30.0,23.1476808,87.8062642
5521,Puniya,80,30.0,-1.0,-1.0
5522,Taraposh,81,30.0,-1.0,-1.0
5523,Aladipur,82,30.0,-1.0,-1.0
5524,Krishnapur Kukra,83,30.0,-1.0,-1.0
5525,Chagram,84,30.0,23.1581166,87.7615726
5526,Saranga,85,30.0,23.1416946,87.7578817
5527,Guir,86,30.0,-1.0,-1.0
5528,Gopalpur,87,30.0,-1.0,-1.0
5529,Angram,88,30.0,-1.0,-1.0
5530,Chintamanipur,89,30.0,23.1330081,87.77510339999999
5531,Puriha,90,30.0,23.1331459,87.7849414
5532,Shuniya,91,30.0,22.8562487,87.6939373
5533,Jarul,92,30.0,23.1273985,87.7996945
5534,Amiliya,93,30.0,22.481789,88.3852029
5535,Kantapukur,94,30.0,-1.0,-1.0
5536,Kamdebpur,95,30.0,-1.0,-1.0
5537,Kayar,96,30.0,-1.0,-1.0
5538,Gopinathpur,97,30.0,22.8076683,88.0534236
5539,Amba,98,30.0,-1.0,-1.0
5540,Peetambarpur,99,30.0,23.1002323,87.7726436
5541,Balabati,100,30.0,23.0950147,87.7720286
5542,Arin,101,30.0,-1.0,-1.0
5543,Bara Gopinathpur,102,30.0,23.0900378,87.7886302
5544,Sankarpur,103,30.0,21.6491352,87.5698638
5545,Torkona,104,30.0,23.0896933,87.764033
5546,Induti,105,30.0,23.0660185,87.7738735
5547,Muidhara,106,30.0,23.0436069,87.7677235
5548,Gopalbera,107,30.0,23.0479508,87.759112
5549,Doargan,108,30.0,23.0373409,87.74557639999999
5550,Amra,109,30.0,23.4639179,86.1255609
5551,Rautara,110,30.0,22.8264226,86.6636269
5552,Kendur,111,30.0,23.0164336,87.7406534
5553,Basatpur,1,31.0,23.2540014,88.03386309999999
5554,Dangasara,2,31.0,24.1863087,88.4185765
5555,Jaladgram,3,31.0,23.4991153,87.7824821
5556,Berancha (Berua),4,31.0,-1.0,-1.0
5557,Poyalkura,5,31.0,-1.0,-1.0
5558,Kanpur,6,31.0,-1.0,-1.0
5559,Daura,7,31.0,23.4828406,87.7886302
5560,Ramchandrapur,8,31.0,22.8911172,88.4706642
5561,Banagram,9,31.0,23.276069,88.0735863
5562,Nuta,10,31.0,-1.0,-1.0
5563,Orgram,11,31.0,-1.0,-1.0
5564,Salkuni,12,31.0,23.4465614,87.80030909999999
5565,Silakot,13,31.0,23.4298593,87.7834868
5566,Mandarbati,14,31.0,23.4226741,87.7941627
5567,Sonchalida,15,31.0,23.4251892,87.8144427
5568,Bigra,16,31.0,-1.0,-1.0
5569,Gramdihi,17,31.0,23.4129442,87.7898597
5570,Gholda,18,31.0,22.1149644,87.8070692
5571,Mohanpur,19,31.0,21.8398171,87.4232306
5572,Ambana,20,31.0,-1.0,-1.0
5573,Banpas,21,31.0,23.3849714,87.81075609999999
5574,Haribati,22,31.0,23.9830343,87.9420584
5575,Chandai,23,31.0,23.3866994,87.3438429
5576,Dhandalsa,24,31.0,23.3998824,87.8132139
5577,Narayanpur,25,31.0,22.6453065,88.46218909999999
5578,Ratanpur,26,31.0,22.7985332,88.44402250000002
5579,Bamunara,27,31.0,23.5000611,87.3637025
5580,Kumarun,28,31.0,23.4233232,87.8408546
5581,Nrisinhapur,29,31.0,23.442011,87.8476086
5582,Shripur,30,31.0,22.7713699,87.5477832
5583,Kashipur,31,31.0,23.4341206,86.6678714
5584,Nurpur,32,31.0,24.2951479,88.186449
5585,Mahata,33,31.0,23.4845528,87.8046111
5586,Jarul,34,31.0,-1.0,-1.0
5587,Debpur,35,31.0,-1.0,-1.0
5588,Mandardihi,36,31.0,-1.0,-1.0
5589,Rampur,37,31.0,-1.0,-1.0
5590,Aruyar,38,31.0,-1.0,-1.0
5591,Seruya,39,31.0,-1.0,-1.0
5592,Kapsore,40,31.0,-1.0,-1.0
5593,Chandipur,41,31.0,22.1022227,87.8574308
5594,Rajipur,42,31.0,22.9685234,88.0583123
5595,Panoa,43,31.0,23.4067089,87.8770689
5596,Jhujkodanga,44,31.0,-1.0,-1.0
5597,Basuda,45,31.0,-1.0,-1.0
5598,Khurul,46,31.0,-1.0,-1.0
5599,Parhat,47,31.0,23.3587009,87.8476086
5600,Nunari,48,31.0,-1.0,-1.0
5601,Mahachanda,49,31.0,23.3411811,87.8721602
5602,Jhikardanga,50,31.0,23.3664571,87.8709329
5603,Kurumba,51,31.0,23.5494323,87.663045
5604,Bijipur,52,31.0,23.0507933,87.91325390000002
5605,Bajar Mahammadpur,53,31.0,22.0745608,87.4620254
5606,Narja,54,31.0,-1.0,-1.0
5607,Nabasta,55,31.0,-1.0,-1.0
5608,Karjana,56,31.0,23.344568,87.89227
5609,Eora,57,31.0,23.3579915,87.9052834
5610,Arra,58,31.0,23.5030412,86.69668539999999
5611,Eora Chak,59,31.0,23.3728695,87.9052834
5612,Balsidangga,60,31.0,23.9358993,88.25146509999999
5613,Belenda,61,31.0,-1.0,-1.0
5614,Nutangram,62,31.0,23.4500377,87.3959564
5615,Palar,63,31.0,23.407104,87.9065098
5616,Sotkhali,64,31.0,-1.0,-1.0
5617,Kulchanda,65,31.0,23.4192658,87.92612629999999
5618,Bhatar,66,31.0,-1.0,-1.0
5619,Bamsore,67,31.0,23.4347864,87.9054847
5620,Muratipur,68,31.0,23.4621631,87.907736
5621,Usha,69,31.0,-1.0,-1.0
5622,Gopinathbati,70,31.0,22.8076683,88.0534236
5623,Balgona,71,31.0,23.4462052,87.93838219999999
5624,Nityanandapur,72,31.0,23.4561979,87.1927587
5625,Santoshpur,73,31.0,22.4896872,88.38947689999999
5626,Kalapahari,74,31.0,23.4785752,87.9114147
5627,Bhairabpur,75,31.0,-1.0,-1.0
5628,Poshla,76,31.0,23.4866746,87.9616593
5629,Sikartore,77,31.0,-1.0,-1.0
5630,Haripur,78,31.0,-1.0,-1.0
5631,Tulsidanga,79,31.0,-1.0,-1.0
5632,Purba  Ramchandrapur,80,31.0,21.7562534,87.71849309999999
5633,Kanpurhat,81,31.0,23.4601515,87.9812516
5634,Bhatakul,82,31.0,23.4467154,87.9775787
5635,Mukundapur,83,31.0,-1.0,-1.0
5636,Selenda,84,31.0,-1.0,-1.0
5637,Dheriya,85,31.0,-1.0,-1.0
5638,Kasigram,86,31.0,23.4623688,88.038754
5639,Salun,87,31.0,23.2209971,87.7886302
5640,Madhpur,88,31.0,23.4266639,88.038754
5641,Nasigram,89,31.0,23.423288,88.0069534
5642,Muraripur,90,31.0,-1.0,-1.0
5643,Kherar,91,31.0,22.7252146,87.6753726
5644,Chhatini,92,31.0,23.3784988,87.9947163
5645,Barbelun,93,31.0,23.4044739,87.97714040000001
5646,Chandibati,94,31.0,23.4091895,87.9518599
5647,Kulnagar,95,31.0,23.412069,87.944509
5648,Kantari,96,31.0,23.7763685,87.4393397
5649,Kanchgaria,97,31.0,22.7326943,88.26801720000002
5650,Hargram,98,31.0,23.3838816,87.9506348
5651,Amarun,99,31.0,-1.0,-1.0
5652,Nowada,100,31.0,-1.0,-1.0
5653,Shunur,101,31.0,23.3479816,87.9359313
5654,Ghugia,102,31.0,23.3421583,87.9457342
5655,Mitrapur,103,31.0,-1.0,-1.0
5656,Erachya,104,31.0,23.3542525,87.96043449999999
5657,Bijaypur,105,31.0,22.8143505,88.1785276
5658,Palsona,106,31.0,23.4977624,88.13523909999999
5659,Kubajpur,107,31.0,23.4637195,88.24703099999999
5660,Ramchandrapur,26,32.0,22.8911172,88.4706642
5661,Purbatati,27,32.0,23.4613033,88.3324332
5662,Bannabagram,28,32.0,23.5271922,87.63147
5663,Srinagar,43,32.0,22.8061048,87.5795548
5664,Aushgram -chak,44,32.0,23.5475186,87.63467879999999
5665,Warishpur,45,32.0,23.5401013,87.63591249999999
5666,Bhamanpur,47,32.0,24.0988265,88.2679264
5667,Barchatra,48,32.0,23.3475357,87.34466669999999
5668,Karatia,63,32.0,23.501693,87.65318049999999
5669,Ausgram,64,32.0,23.5256369,87.663045
5670,Kunjanagar,65,32.0,-1.0,-1.0
5671,Kurumba,66,32.0,-1.0,-1.0
5672,Nabagram,67,32.0,23.111247,88.04364439999999
5673,Mallickpur,68,32.0,-1.0,-1.0
5674,Silut,69,32.0,23.5334576,87.68892919999999
5675,Sahapur,70,32.0,22.5171539,88.17060470000001
5676,Babur Bandh,71,32.0,23.523065,87.6901614
5677,Somaipur,72,32.0,23.5053626,87.70001789999999
5678,Ukta,73,32.0,23.5412019,87.7098723
5679,Berenda,74,32.0,23.554384,87.696422
5680,Beluti,75,32.0,23.6937006,87.8187434
5681,Nripatigram,76,32.0,-1.0,-1.0
5682,Srikrishnapur,77,32.0,22.8977074,88.5384045
5683,Jaykrishnapurr,90,32.0,-1.0,-1.0
5684,Sundalpur,92,32.0,-1.0,-1.0
5685,Kalyanpur,93,32.0,22.5006615,87.91509309999999
5686,Batagram,94,32.0,23.5654275,87.73942249999999
5687,Gangarampur,95,32.0,-1.0,-1.0
5688,Sitalgram,96,32.0,23.5395993,88.02897159999999
5689,Gobindapur Purba,97,32.0,-1.0,-1.0
5690,Sibbati,98,32.0,-1.0,-1.0
5691,Pichkuri,99,32.0,23.5353968,87.7197245
5692,Parsurampur,100,32.0,-1.0,-1.0
5693,Soara,101,32.0,23.5234986,87.7197245
5694,Aluthia,102,32.0,23.6770897,86.8860052
5695,Kantatikuri,103,32.0,23.7114989,88.0986241
5696,Keleti,104,32.0,23.233142,87.7012498
5697,Digha,105,32.0,21.6266172,87.5074315
5698,Punnagar,106,32.0,18.4519566,73.85966379999999
5699,Donaipur,107,32.0,23.7002537,87.73111349999999
5700,Dharmapur,108,32.0,22.551768,87.1634807
5701,Kamalnagar,109,32.0,23.5262318,88.3580671
5702,Guskara,110,32.0,-1.0,-1.0
5703,Itachanda,111,32.0,-1.0,-1.0
5704,Trukdanga,112,32.0,22.4634692,88.3343771
5705,Shibda,113,32.0,-1.0,-1.0
5706,Deyasha,114,32.0,-1.0,-1.0
5707,Nowada,115,32.0,23.9072888,88.4573454
5708,Belgram,116,32.0,-1.0,-1.0
5709,Aligram,117,32.0,23.7713637,87.8979248
5710,Dwriapur,118,32.0,21.7968505,87.85865849999999
5711,Laxmiganj,119,32.0,23.4828384,87.710796
5712,Majeragram,120,32.0,23.6258897,88.2826103
5713,Kumarganj,121,32.0,-1.0,-1.0
5714,Jadabganj,122,32.0,23.4692291,87.670442
5715,Telata,133,32.0,23.4513069,87.66551079999999
5716,Gonna,134,32.0,-1.0,-1.0
5717,Bhutgonna,135,32.0,-1.0,-1.0
5718,Dignagar,136,32.0,23.3278549,88.4512026
5719,Bhota,141,32.0,23.4042885,87.70494529999999
5720,Takipur,142,32.0,22.8641529,87.927352
5721,Chowari,143,32.0,-1.0,-1.0
5722,Asinda,144,32.0,23.382421,87.7357298
5723,Brajapur,145,32.0,23.4381192,85.8716515
5724,Bhada,146,32.0,23.3752475,87.75419040000001
5725,Karanji,147,32.0,-1.0,-1.0
5726,Belari,148,32.0,-1.0,-1.0
5727,Bara,149,32.0,-1.0,-1.0
5728,Kayrapur,150,32.0,22.7908764,88.3931671
5730,Harishpur,2,33.0,-1.0,-1.0
5733,Nowapara,5,33.0,22.8128009,88.38098579999999
5734,Chhora,6,33.0,23.6711343,87.1983631
5735,Bhuyera,7,33.0,23.5571927,87.5865393
5736,Hedogora,8,33.0,23.5605173,87.5612149
5737,Fanrijangle,9,33.0,-1.0,-1.0
5738,Srichandrapur,10,33.0,23.4716885,87.185908
5739,Majuria,11,33.0,-1.0,-1.0
5742,Rangakhila,13,33.0,23.5323938,87.52227460000002
5743,Kurhul,34,33.0,-1.0,-1.0
5744,Dhantore,14,33.0,-1.0,-1.0
5745,Arjuri,15,33.0,23.5336254,87.5061944
5746,Amarpur,16,33.0,22.9838792,87.9763543
5747,Chottoramchandrapur,17,33.0,22.9615845,88.44927179999999
5748,Chaktilong,18,33.0,-1.0,-1.0
5750,Salko,21,33.0,23.5489668,87.5358765
5751,Jali Kandar,22,33.0,23.5477709,87.5544182
5752,Goalara,23,33.0,-1.0,-1.0
5753,Genrai,24,33.0,23.5331692,87.57171699999999
5754,Bishnupur,25,33.0,23.0678795,87.3165222
5756,Goswamikhandamallickpur,30,33.0,-1.0,-1.0
5757,Ramnagar Uttar,31,33.0,-1.0,-1.0
5758,Khatnagar,32,33.0,22.0242641,87.3152799
5759,Gopalpur,33,33.0,23.4976267,87.3959564
5761,Maliyara,35,33.0,23.48283,87.2269973
5762,Malocha,36,33.0,22.5004512,88.7674361
5763,Bankul,37,33.0,-1.0,-1.0
5764,Banktara,38,33.0,23.5893069,87.6445473
5765,Pubar,39,33.0,23.5776327,87.6593461
5766,Panduk,40,33.0,23.5700676,87.650714
5767,Jalalpur,41,33.0,24.8936308,88.0700482
5768,Khorda Dwariapur,42,33.0,-1.0,-1.0
5769,Alefnagar,46,33.0,-1.0,-1.0
5770,Ramharipur,49,33.0,-1.0,-1.0
5771,Laxminarayanpur,50,33.0,-1.0,-1.0
5772,Babuisole,51,33.0,23.4850661,87.5746509
5773,Premganj,52,33.0,23.4811537,87.54078009999999
5774,Kuldiya,53,33.0,23.5453768,87.4058761
5775,Ramnagar,54,33.0,21.6786436,87.5631613
5776,Radhaballabpur,55,33.0,22.3161936,87.9112608
5777,Panchamohali,56,33.0,-1.0,-1.0
5778,Amarargarh,57,33.0,23.4292501,87.5840692
5779,Domebandi,58,33.0,-1.0,-1.0
5780,Protappur,59,33.0,22.666983,87.7689535
5781,Radhamohanpur,60,33.0,-1.0,-1.0
5782,Bhalki,61,33.0,-1.0,-1.0
5784,Chandradwip,78,33.0,23.5823334,87.6753726
5786,Purucha,80,33.0,23.6104589,87.66674359999999
5787,Bilshanda,81,33.0,-1.0,-1.0
5791,Santla,85,33.0,22.9163363,87.7147986
5792,Aowgram,86,33.0,-1.0,-1.0
5793,Bagbati,87,33.0,23.5933431,87.7160302
5794,Bhediya,88,33.0,23.5887916,87.7098723
5795,Brahmandihi,89,33.0,-1.0,-1.0
5796,Bhiti,91,33.0,25.5964767,88.0955714
5797,Goalpata,123,33.0,25.3099413,88.08763359999999
5798,Madanmohanpur,124,33.0,23.323959,87.4170333
5799,Samantapara,125,33.0,-1.0,-1.0
5800,Chandipur,126,33.0,22.1022227,87.8574308
5801,Sowata,127,33.0,-1.0,-1.0
5802,Jamtara,128,33.0,-1.0,-1.0
5803,Jayrampur,129,33.0,22.5930997,88.16938569999999
5804,Erral,130,33.0,23.4181026,87.6334451
5805,Bahadurpur,131,33.0,-1.0,-1.0
5806,Avirampur,132,33.0,23.4300024,87.6334451
5807,Bijaypur,137,33.0,22.8143505,88.1785276
5808,Kalaijhuti,138,33.0,23.4275076,87.66551079999999
5809,Siuly,139,33.0,23.4110166,87.65687989999999
5810,Sar,140,33.0,-1.0,-1.0
5811,Maukhira,1,33.0,23.5921881,87.54205789999999
5813,Akuliya,3,33.0,-1.0,-1.0
5814,Harinathapura,4,33.0,23.1901565,88.79027090000001
5816,Sonai,73,33.0,23.4632324,87.4752551
5817,Sonai  Aima,74,33.0,23.470927,87.4913461
5818,Bilaspur,70,33.0,25.7073947,88.03753139999999
5819,Paduma,69,33.0,23.5905631,88.4609782
5822,Chak Radhamohanpur,62,33.0,23.4867089,87.6457807
5823,Baradoba,67,33.0,26.5085443,89.1872631
5824,Bakshibad Pogram,83,33.0,23.6004708,87.6950899
5825,Reora,82,33.0,23.5943034,87.68030279999999
5826,Tilong,19,33.0,-1.0,-1.0
5827,Aduriya,20,33.0,-1.0,-1.0
5828,Pandali,77,33.0,-1.0,-1.0
5830,Nrisinghapur,79,33.0,23.2296386,88.3785594
5831,Dhankorha,29,33.0,23.7334455,86.77117349999999
5833,Babla,63,34.0,-1.0,-1.0
5834,Khetura,66,34.0,23.3324474,87.6753726
5835,Bharicha,69,34.0,23.4379916,88.1132737
5836,Atusi,83,34.0,23.2713211,87.66674359999999
5837,Gopalpur,87,34.0,23.4976267,87.3959564
5838,Dadpur,89,34.0,24.2199615,87.7787929
5839,Khamargram,1,35.0,-1.0,-1.0
5841,Noorkona,4,35.0,23.3949816,87.5803639
5842,Simnori,5,35.0,23.3771952,87.5770831
5843,Rakona,6,35.0,23.3847397,87.59147899999999
5844,Jharul,7,35.0,-1.0,-1.0
5845,Jotkolkol,8,35.0,23.3851161,87.61616959999999
5846,Paraj,9,35.0,23.3775847,87.60999819999999
5848,Bhimsara,11,35.0,23.3533683,87.5828342
5849,Ranadi,12,35.0,23.2564788,88.38341199999999
5850,Bolpur,13,35.0,23.6686892,87.68276759999999
5851,Karakdal,14,35.0,-1.0,-1.0
5852,Mallatikuri,15,35.0,-1.0,-1.0
5853,Jagulipara,16,35.0,-1.0,-1.0
5854,Lowa,17,35.0,23.341365,87.5600169
5855,Garibbati,19,35.0,23.3439845,87.5531823
5856,Lowapur,20,35.0,24.3012568,87.96410879999999
5857,Amarpur,21,35.0,-1.0,-1.0
5858,Bamunara,22,35.0,23.5000611,87.3637025
5859,Karkona,158,35.0,23.3192096,87.5865393
5860,Dharmapur,24,35.0,23.1430189,87.45172749999999
5861,Shirorai,25,35.0,23.3132011,87.6164146
5862,Mallasarul,26,35.0,23.2897566,87.606295
5863,Ramgopalpur,27,35.0,23.3012816,87.581599
5865,Biringpur,29,35.0,23.3018259,87.5686284
5866,Ghagra,30,35.0,22.6752025,86.7630057
5868,Kashpur,31,35.0,23.4341206,86.6678714
5869,Mado,32,35.0,22.5783074,88.3608886
5871,Bikrampur,33,35.0,-1.0,-1.0
5872,naldanga,34,35.0,-1.0,-1.0
5873,Mallikpara,35,35.0,-1.0,-1.0
5876,Bhagabanpur,36,35.0,22.097831,87.7517295
5883,Bangram,41,35.0,-1.0,-1.0
5884,Chanderchak,42,35.0,-1.0,-1.0
5886,Patihar,43,35.0,-1.0,-1.0
5888,Bandutia,44,35.0,22.8751225,86.5059713
5889,Rampur,45,35.0,22.9545583,88.7445888
5891,Howrah,46,35.0,22.5957689,88.26363940000002
5892,Dakshinkara,47,35.0,-1.0,-1.0
5895,Krishnarampur,49,35.0,22.723146,88.2120315
5898,Fatepur,50,35.0,-1.0,-1.0
5899,Mougram,51,35.0,-1.0,-1.0
5902,Jaykrishnabati,53,35.0,24.2144378,88.08458019999999
5904,Galigram,54,35.0,25.3921595,88.03386309999999
5905,Bansujapur,55,35.0,23.3680055,87.66551079999999
5906,Sandhipur,56,35.0,22.8537724,87.51237970000001
5908,Narayanpur,58,35.0,22.6453065,88.46218909999999
5910,Kenduatikuri,59,35.0,23.7114989,88.0986241
5912,Sodhpur,60,35.0,-1.0,-1.0
5914,Komarbandh,61,35.0,22.677401,87.2842134
5916,Shillya,62,35.0,-1.0,-1.0
5917,Shimasimi,65,35.0,23.28358,87.59147899999999
5918,Haripur,67,35.0,-1.0,-1.0
5919,Puratangram,68,35.0,23.266027,87.6112325
5920,Potna,81,35.0,23.3316369,87.62110609999999
5921,Khuraj,82,35.0,23.3494887,87.62110609999999
5922,Bhasapur,84,35.0,23.3600696,87.6322113
5923,Pursha,85,35.0,23.3689209,87.627276
5924,Kolkol,86,35.0,23.3971659,87.62604209999999
5925,Uchhagram,88,35.0,23.1581166,87.7615726
5926,Bharatpur,124,35.0,-1.0,-1.0
5927,Khanpara,2,35.0,23.277097,87.5568898
5929,Naskarbandh,125,35.0,23.4166251,87.4442952
5930,Shaldanga,126,35.0,23.4107008,87.3121742
5931,Kondaipur,3,35.0,-1.0,-1.0
5933,Nabakhanda,28,35.0,23.3114481,87.5655396
5934,Sihigram,10,35.0,-1.0,-1.0
5935,Sukhdal,37,35.0,-1.0,-1.0
5936,Chak Khandajuli,38,35.0,23.2706582,87.6223402
5937,Sundalpur,39,35.0,24.0133897,88.6771771
5938,Kharjuli,40,35.0,23.3236564,87.8966983
5941,Sujapur,48,35.0,-1.0,-1.0
5942,Purandargarh,52,35.0,-1.0,-1.0
5945,Mohulara,57,35.0,23.7540893,87.598629
5946,Srirampur,1,36.0,-1.0,-1.0
5947,Kanchanpur,2,36.0,23.3116417,87.0942627
5948,Tolbahari,3,36.0,22.6320726,86.76426239999999
5949,Sandipur,4,36.0,22.8537724,87.51237970000001
5950,Basudevpur,5,36.0,22.0877472,88.1364591
5951,Binodpur,6,36.0,21.9070102,88.5347783
5952,Rajhat,7,36.0,22.9419374,88.3409338
5953,Sashipur,8,36.0,-1.0,-1.0
5954,Dubrajpur,9,36.0,23.7946344,87.3761105
5955,Majhidanga,10,36.0,23.6539372,87.4071159
5956,Dandeswarpur,11,36.0,22.3993148,87.17158069999999
5957,Bidbihar,12,36.0,23.6441807,87.40153649999999
5958,Ranipur,13,36.0,23.4782489,86.54764109999999
5959,Thakuranibazar,14,36.0,23.6390287,87.4046363
5960,Fuljhuri,15,36.0,23.0140558,86.478725
5961,Chak Bishnupur,17,36.0,22.6726443,88.0937397
5962,Jamban,18,36.0,23.6059882,87.3847941
5963,Jathgaria,19,36.0,23.6195146,87.3934761
5964,Sibpur,20,36.0,-1.0,-1.0
5965,Dihibeta,21,36.0,23.642167,87.4145542
5966,Nabagram,22,36.0,23.111247,88.04364439999999
5967,Krishnapur,23,36.0,22.6627899,88.2765304
5968,Radhanagar,24,36.0,22.7263702,87.8660235
5969,Routhdihi,25,36.0,22.5442808,88.398153
5970,Kajladihi,26,36.0,23.620254,87.43810069999999
5971,Gorkellaberobari,27,36.0,-1.0,-1.0
5972,Gourangapur,28,36.0,23.607136,87.4542046
5973,Banagram,29,36.0,23.276069,88.0735863
5974,Kotalpukur,30,36.0,23.6043638,87.46658839999999
5975,Masna,31,36.0,23.6031374,87.4826825
5976,Nimtikuri,32,36.0,23.5621165,86.8596744
5977,Bankati,33,36.0,23.5987763,87.48887099999999
5978,Satkahania,34,36.0,-1.0,-1.0
5979,Basudha,35,36.0,23.6067841,87.52474800000002
5980,Radhamohanpur,36,36.0,22.3609517,87.6112325
5981,Shyambazar,37,36.0,22.5982031,88.36868659999999
5982,Brahmangram,38,36.0,22.5038288,87.9298034
5983,Raghunathpur,39,36.0,23.5343795,86.6686635
5984,Jamdoba,40,36.0,23.5611823,87.4628736
5985,Telipara,41,36.0,-1.0,-1.0
5986,Rakshitpur,42,36.0,23.5548302,87.43810069999999
5987,Chhua,43,36.0,23.1991455,87.33639339999999
5988,Bishnupur,44,36.0,-1.0,-1.0
5989,Bhagabanpur,45,36.0,-1.0,-1.0
5990,Chuyamudafa,46,36.0,-1.0,-1.0
5991,Akandara,47,36.0,-1.0,-1.0
5992,Molandighi,48,36.0,-1.0,-1.0
5993,Saraswatiganj,49,36.0,-1.0,-1.0
5994,Hariki,50,36.0,23.5648512,87.4145542
5995,Kandarkona,51,36.0,23.5545857,87.4232306
5996,Pathardihi,52,36.0,23.0612632,86.8734685
5997,Kuldiha,53,36.0,23.5453768,87.4058761
5998,Rupganj,54,36.0,23.5302179,87.38851509999999
5999,Panchpukuria,55,36.0,23.010916,88.543239
6000,Bamunara,58,36.0,23.5000611,87.3637025
6001,Khatpukur,59,36.0,22.4962464,88.6156905
6002,Chak Narayanpur,60,36.0,-1.0,-1.0
6003,Banskopa,61,36.0,23.488248,87.3686661
6004,Biharpur,62,36.0,23.4644326,87.35022289999999
6005,Babnabera,63,36.0,23.4569556,87.3649435
6006,Amlajora,64,36.0,23.4647031,87.3835537
6007,Gopalpur,65,36.0,23.4976267,87.3959564
6008,Keshabpur,66,36.0,22.8861165,87.8991514
6009,Sundhiyara,67,36.0,-1.0,-1.0
6010,Domra,68,36.0,23.5254933,87.4628736
6011,Trilokchandrapur,69,36.0,21.8782304,88.186449
6012,Garadaha,70,36.0,23.4955094,87.44801149999999
6013,Ijjatganj,71,36.0,23.4775826,87.44305639999999
6014,Rajkusum,72,36.0,23.4967333,87.43190539999999
6015,sadhumara,73,36.0,23.5144564,87.42447
6016,Bandra,74,36.0,-1.0,-1.0
6017,Brindabanpur,75,36.0,22.108309,87.8672509
6018,Birudiha,76,36.0,23.4698016,87.4219912
6019,Manikara,77,36.0,-1.0,-1.0
6020,Natungram,78,36.0,-1.0,-1.0
6021,Sokna,79,36.0,26.6841254,88.35064679999999
6022,Mobarakganj,80,36.0,23.4445088,87.3812078
6023,Napara,81,36.0,23.220941,86.6453646
6024,Aima Biswanathpur,82,36.0,23.4302164,87.4114551
6025,Gangbil,83,36.0,23.4356157,87.4232306
6026,Mahalchandni,84,36.0,22.5658983,88.3555641
6027,Panagar,85,36.0,22.7054823,88.0381427
6028,Kanksa,86,36.0,23.4600581,87.4628736
6029,Debipur,87,36.0,-1.0,-1.0
6030,Prayagpur,88,36.0,23.4479189,87.44801149999999
6031,Anandapur,89,36.0,-1.0,-1.0
6032,Silampur,90,36.0,-1.0,-1.0
6033,Arrah,91,36.0,23.5030412,86.69668539999999
6034,Paschim Gangarampur,92,36.0,-1.0,-1.0
6035,Piyariganj,93,36.0,25.6185295,88.12558369999999
6036,Dhobaru,94,36.0,23.4942035,87.4591586
6039,Gopalmath,3,37.0,23.467191,87.5371129
6040,Madhaipur,4,37.0,23.9051521,87.4083557
6041,Bhaburia,5,37.0,23.6963204,87.3637025
6042,Kamardanga,6,37.0,-1.0,-1.0
6043,Shyamsunderpur,7,37.0,22.7298885,88.1498766
6044,Jotbalarampur,8,37.0,-1.0,-1.0
6046,Rangamati,10,37.0,-1.0,-1.0
6047,Benabandi,11,37.0,23.0297257,87.26058909999999
6048,Maheshpur,12,37.0,22.2816125,88.3633918
6049,Laskarbadh,13,37.0,-1.0,-1.0
6050,Gogla,14,37.0,23.6971501,87.32521690000002
6052,Balijuri,16,37.0,23.6333325,87.3314264
6053,Sirsa,17,37.0,22.4257358,86.828937
6054,Nakrakonda,18,37.0,23.6808856,87.28732099999999
6055,Nabaghanapur,19,37.0,23.6618941,87.2851457
6056,Tilabani,20,37.0,23.4127367,86.5425921
6057,Laudoha,21,37.0,23.6611728,87.30782579999999
6058,Chaklaudoha,22,37.0,23.6494085,87.3152799
6059,Jamgora,23,37.0,-1.0,-1.0
6060,Madhaiganj,24,37.0,-1.0,-1.0
6061,Amdahi,25,37.0,23.6607259,87.3686661
6062,Jagannathpur,26,37.0,22.7462731,88.4467528
6063,Kalinagar,27,37.0,22.4192534,88.8694951
6064,Gopedanga,28,37.0,22.8832286,88.76382939999999
6065,Kendula,29,37.0,-1.0,-1.0
6066,Khatgaria,30,37.0,23.6306556,87.34880860000001
6067,Kalikapur,31,37.0,22.5009134,88.39493449999999
6068,Banshia,32,37.0,23.630146,87.3190065
6069,Shyampur,33,37.0,-1.0,-1.0
6070,Jhanjra,34,37.0,-1.0,-1.0
6071,Bhadrapur,35,37.0,24.2594751,87.94940969999999
6072,Sarpi,36,37.0,23.6452659,87.2650494
6073,Amlouka,37,37.0,23.6237192,87.2487725
6074,Banguri,38,37.0,-1.0,-1.0
6075,Arati,39,37.0,-1.0,-1.0
6076,Jamuna,40,37.0,-1.0,-1.0
6077,Patsawra,41,37.0,23.6060325,87.25747980000001
6078,Ichapur,42,37.0,22.8081981,88.3676393
6079,Kendua,43,37.0,24.9695767,88.24490139999999
6080,Champabandi,44,37.0,-1.0,-1.0
6081,Hetedoba,45,37.0,-1.0,-1.0
6082,Bansgora,46,37.0,-1.0,-1.0
6083,Nachan,47,37.0,23.6099749,87.3348412
6084,Pratappur,48,37.0,23.4707709,87.30285579999999
6085,Bargaria,49,37.0,21.8735569,87.37552889999999
6086,Kantaberia,50,37.0,22.5221527,88.08763359999999
6087,Kururia,56,37.0,23.5820839,87.275609
6088,Bijupora,57,37.0,-1.0,-1.0
6089,Amrai,58,37.0,23.5814467,87.2543702
6090,Karsar,59,37.0,-1.0,-1.0
6091,Chakagar,60,37.0,-1.0,-1.0
6092,Mohanpur,61,37.0,21.8398171,87.4232306
6093,Jagurbandh,62,37.0,23.5731418,87.2293354
6094,Sujara,63,37.0,22.5240331,88.3476486
6095,Mejedihi,65,37.0,23.1896737,87.2182844
6096,Punabad,69,37.0,23.5723801,87.2335428
6097,Dhunara,70,37.0,22.7375562,86.9849308
6098,Pursha,71,37.0,23.3689209,87.627276
6099,Faridpur,74,37.0,22.5618146,87.80952719999999
6100,Mahiskapur,75,37.0,22.2816125,88.3633918
6101,Chakbhabani,77,37.0,25.2298256,88.7770522
6102,Goyalara,78,37.0,-1.0,-1.0
6103,Gopinathpur,85,37.0,22.8076683,88.0534236
6104,Radhamadhabpur,87,37.0,-1.0,-1.0
6105,Raturia,90,37.0,23.5001248,87.28048400000002
6106,Birvhanpur,91,37.0,22.6289209,87.3227328
6107,Nadiha,92,37.0,-1.0,-1.0
6108,Nutandanga,2,37.0,-1.0,-1.0
6110,Paranganj,104,37.0,23.5549332,87.355015
6111,Jemua,105,37.0,-1.0,-1.0
6112,Haribazar,106,37.0,-1.0,-1.0
6113,Fuljhore,107,37.0,-1.0,-1.0
6114,Narayanpur,108,37.0,-1.0,-1.0
6115,Sankarpur,109,37.0,21.6491352,87.5698638
6116,Kaliganj,110,37.0,-1.0,-1.0
6117,Tetikhola,111,37.0,22.2345414,88.05947309999999
6118,Chakgopaldebpur,112,37.0,-1.0,-1.0
6119,Parulia,113,37.0,-1.0,-1.0
6121,Dhabani,114,37.0,-1.0,-1.0
6122,Mandarbani,15,37.0,21.6681435,87.70248169999999
6123,Benachity,117,37.0,-1.0,-1.0
6124,Dhandabagh,118,37.0,23.5712356,87.2655636
6125,Viringi,119,37.0,23.5534393,87.27619260000002
6126,Wyariya,123,37.0,-1.0,-1.0
6128,Bangram,1,37.0,23.246712,86.8126195
6130,Mamra,208,37.0,22.9233807,87.2636982
6131,Bansole,209,37.0,-1.0,-1.0
6132,Srikrishnapur,9,37.0,-1.0,-1.0
6133,Kamalpur,211,37.0,23.3009283,86.84650359999999
6134,Par  Radhamadhabpur,88,37.0,24.1755283,88.2977736
6161,Saora,1,39.0,22.8241457,87.7221872
6162,Ratibati,2,39.0,-1.0,-1.0
6163,Chatui,3,39.0,22.2020786,88.4626476
6164,Kumardiha,4,39.0,23.7261127,87.1160991
6165,Chelad,5,39.0,23.636894,87.0349421
6166,Tirat,6,39.0,23.6183081,87.0394733
6167,Chalbalpur,7,39.0,23.7405124,86.88067749999999
6168,Jemari,8,39.0,23.7898243,86.8759761
6169,Belebathan,9,39.0,23.6315157,87.0649239
6170,Harabhanga,10,39.0,23.6195298,87.0599282
6171,Damalia,11,39.0,23.6006504,87.08365289999999
6172,Naryankuri,12,39.0,-1.0,-1.0
6173,Egara,13,39.0,21.9001037,87.53695960000002
6174,Amkula,14,39.0,23.6140526,87.08490119999999
6175,Murgathole,15,39.0,23.3275584,87.13097479999999
6176,Nimcha,16,39.0,23.6277784,87.0747748
6177,Searsole,17,39.0,-1.0,-1.0
6178,Amrasata,18,39.0,-1.0,-1.0
6179,Chakjanadhara,19,39.0,23.6401796,87.1310668
6180,Banshra,20,39.0,-1.0,-1.0
6181,Sonachora,21,39.0,23.631672,87.1535095
6182,Mangalpur,22,39.0,23.0706329,87.68030279999999
6183,Ronai,23,39.0,23.614331,87.13327369999999
6184,Raniganj,24,39.0,23.6290575,87.0923906
6185,Sahebganj,25,39.0,23.4432448,87.8291861
6186,Raghunathchak,26,39.0,23.5834602,87.1185941
6187,Ballavpur,27,39.0,-1.0,-1.0
6188,Kumarbazar,28,39.0,-1.0,-1.0
6189,Chakbrindabanpur,29,39.0,23.601621,87.136055
6190,Baktarnagar,30,39.0,23.5973211,87.1447831
6191,Nupur,31,39.0,22.5180559,88.3511245
6192,Andharia,1,40.0,-1.0,-1.0
6193,Baguli,2,40.0,23.8042006,87.07990769999999
6194,Madhabpur,3,40.0,21.8742725,87.5846868
6195,Rakhakura,4,40.0,23.7858962,87.054932
6196,Chinchurbil,5,40.0,-1.0,-1.0
6197,Churulia,6,40.0,23.7833111,87.07398859999999
6198,Madhudanga,7,40.0,23.7739129,87.04993530000002
6199,Madantore,8,40.0,-1.0,-1.0
6200,Naikapur,9,40.0,-1.0,-1.0
6201,Sattar,10,40.0,-1.0,-1.0
6202,Jayantipur,11,40.0,22.7306557,87.5408217
6203,Manpur,12,40.0,-1.0,-1.0
6204,Joynagar,13,40.0,22.1771902,88.4258483
6205,Deshermohan,14,40.0,23.780892,87.1048702
6206,Birkulti,15,40.0,23.7543739,87.11734659999999
6207,Taltore,16,40.0,23.7389065,87.08490119999999
6208,Jhila,17,40.0,-1.0,-1.0
6209,Shibpur,18,40.0,22.5723094,88.3117819
6210,Nandi,19,40.0,23.7015865,87.0761622
6211,Damodarpur,20,40.0,22.7796573,87.7344988
6212,Jamuria,21,40.0,23.7060688,87.0774107
6213,Kaithi,22,40.0,23.714075,87.0610191
6214,Pariharpur,23,40.0,23.7090638,87.0393156
6215,Sripur,24,40.0,-1.0,-1.0
6216,Kundalia,25,40.0,23.1990354,87.24317409999999
6217,Joba,26,40.0,22.514691,88.357574
6218,Khoskula,27,40.0,-1.0,-1.0
6219,Ninga,28,40.0,-1.0,-1.0
6220,Chanda,29,40.0,22.8913299,88.6603073
6221,Bogra,30,40.0,23.6631792,87.0628215
6222,Banali,31,40.0,-1.0,-1.0
6223,Mithapur,32,40.0,-1.0,-1.0
6224,Satgram,33,40.0,22.486516,88.29780629999999
6225,kantagorya,34,40.0,24.2864706,87.9690074
6226,Bijpur,35,40.0,23.7047465,87.08614949999999
6227,Balanpur,36,40.0,23.7735051,86.8772298
6228,Mandalpur,37,40.0,-1.0,-1.0
6229,Ikrah,38,40.0,23.6836024,87.1079896
6230,Sekpur,39,40.0,24.0183406,87.70617709999999
6231,Hijalgara,40,40.0,-1.0,-1.0
6232,Mamudpur,51,40.0,22.8894533,88.4525012
6233,Sarthakpur,52,40.0,23.6601783,87.1135505
6234,Kunustora,54,40.0,23.650562,87.1298197
6235,Shemla,66,40.0,-1.0,-1.0
6236,Jamdiha,1,41.0,-1.0,-1.0
6238,Roshana,2,41.0,-1.0,-1.0
6239,Daskiyari,3,41.0,-1.0,-1.0
6240,Khaskuli,4,41.0,22.7291621,87.58962670000001
6241,Chhotokar,5,41.0,-1.0,-1.0
6242,Khairabad,6,41.0,27.4912468,80.9992915
6243,Baradang,7,41.0,23.8080333,86.9699172
6244,Alipur,8,41.0,26.4918891,89.52710259999999
6245,katapahari,9,41.0,-1.0,-1.0
6246,Panuria,10,41.0,23.8177777,86.98328029999999
6247,Aliganj,11,41.0,26.2363779,88.1535352
6248,Hossainpur,12,41.0,24.7574066,87.96375379999999
6249,Putulia,13,41.0,23.5379756,86.4933372
6250,Gour Bazar,14,41.0,-1.0,-1.0
6251,Amulia,15,41.0,-1.0,-1.0
6252,Rasunpur,16,41.0,23.1840099,88.0301946
6253,Madanpur,17,41.0,23.0089428,88.49123949999999
6254,Sarishatali,18,41.0,23.7974032,87.0349421
6255,Kapistha,19,41.0,-1.0,-1.0
6256,Jamgram,20,41.0,23.811927,87.01744409999999
6257,Punchra,21,41.0,-1.0,-1.0
6258,Itapara,22,41.0,23.7870876,86.97675149999999
6259,Bila,23,41.0,22.7273349,87.3326682
6260,Amdiha,24,41.0,23.7899083,86.95489889999999
6261,Baliapur,25,41.0,23.778119,86.95990549999999
6262,Amnala,26,41.0,23.9309782,88.4476565
6263,Raniganj,27,41.0,23.6290575,87.0923906
6264,Raghunathachak,28,41.0,23.7648187,86.9636601
6265,Taldanga,29,41.0,23.5545858,87.80093649999999
6266,Lalganj,30,41.0,25.4389011,88.0986241
6267,Janerdansayar,31,41.0,-1.0,-1.0
6268,Kanyapur,32,41.0,23.7065923,86.94989179999999
6269,Nuni,33,41.0,23.7483991,86.95990549999999
6270,Panchgachia,34,41.0,-1.0,-1.0
6271,Manohar Bahal,35,41.0,-1.0,-1.0
6272,Chinchuria,36,41.0,23.7051649,87.18964489999999
6273,Bijori,37,41.0,-1.0,-1.0
6274,Panifala,38,41.0,26.2592445,89.5356094
6275,Karrabaid,39,41.0,23.756487,86.9936865
6276,Napara,40,41.0,-1.0,-1.0
6277,Joyramdanga,41,41.0,23.1255866,88.5468645
6278,Bhaskajuri,42,41.0,23.7359234,87.006192
6279,Majiara,43,41.0,23.7168199,87.01744409999999
6280,Bhanoyara,44,41.0,23.7318253,87.02494399999999
6281,barabani,45,41.0,23.7493706,87.00994299999999
6282,Kelejora,46,41.0,23.7673957,87.0199442
6283,Khosnagar,47,41.0,23.7355561,87.48887099999999
6284,Khamra,48,41.0,23.2898934,85.97067849999999
6285,Gopalbaid,49,41.0,23.7574948,87.0461875
6286,Domahani,50,41.0,22.8424754,87.106118
6287,Shyamasundarpur,51,41.0,22.7298885,88.1498766
6288,Charanpur,52,41.0,23.7340561,87.03376779999999
6289,Ghatkul,1,42.0,23.6900044,86.71900199999999
6290,Gamarkuri,2,42.0,-1.0,-1.0
6291,Sarkuri,3,42.0,-1.0,-1.0
6292,Bathanabari,4,42.0,23.8112714,86.8345841
6293,Sidhabari,5,42.0,23.8189304,86.8458763
6294,Banskatia,6,42.0,23.8115783,86.84963979999999
6296,Kalipathar,8,42.0,23.8251281,86.8584202
6297,Brindabani,9,42.0,23.8393567,86.8640638
6298,Damdaha,10,42.0,23.8439659,86.87158769999999
6299,Dhanguri,11,42.0,23.8402897,86.8734685
6300,Pithakiyari,12,42.0,23.7885311,86.7057931
6301,Majladi,13,42.0,-1.0,-1.0
6302,Muchidi,14,42.0,23.8224105,86.8709607
6303,Pratappur,15,42.0,-1.0,-1.0
6304,Alladi,16,42.0,23.8083338,86.8728416
6305,Kaladabar,17,42.0,22.7478945,86.6081894
6306,Sirisberya,18,42.0,-1.0,-1.0
6307,Ramadi,19,42.0,-1.0,-1.0
6308,Denduya,20,42.0,23.7829483,86.8665719
6309,Barabai,21,42.0,23.7998957,86.8596744
6310,Dhanudi,22,42.0,23.1005855,86.09755179999999
6311,Hadla,23,42.0,23.7933398,86.82956449999999
6312,Maheshpur,24,42.0,22.2816125,88.3633918
6313,Shrirampur,25,42.0,22.748331,88.3385053
6314,Nekrajuria,26,42.0,-1.0,-1.0
6315,Salanpur,27,42.0,23.7735051,86.8772298
6316,Khudka,28,42.0,-1.0,-1.0
6317,Dhundabad,29,42.0,23.7753181,86.89352559999999
6318,Banbirdi,30,42.0,23.7840826,86.8860052
6319,Basudebpur,31,42.0,21.8248993,87.62110609999999
6320,Jemari,32,42.0,23.649447,87.069919
6321,Dhaminberya,33,42.0,23.8063449,86.8847516
6322,Amjhoria,34,42.0,23.7637705,87.99838779999999
6323,Harishadi,35,42.0,-1.0,-1.0
6324,Rupnarayanpur,36,42.0,23.8145545,86.8866319
6325,Benagorya,37,42.0,23.1235121,86.7152284
6326,Rangameta,38,42.0,23.33331,86.1929747
6327,Malbahal,39,42.0,26.8648542,88.74218309999999
6328,Kusumkanali,40,42.0,22.9215962,87.03869089999999
6329,Jorbari,41,42.0,-1.0,-1.0
6330,Ghiyadoba,42,42.0,-1.0,-1.0
6331,Uttar  Rampur,43,42.0,26.0767393,87.9255428
6332,Jeetpur,44,42.0,-1.0,-1.0
6333,Kalya,45,42.0,-1.0,-1.0
6334,Seakulberia,46,42.0,23.8297056,86.9386238
6335,Kirttanshala,47,42.0,22.1785205,88.5710266
6336,Kalisanko,48,42.0,23.8309185,86.9248483
6337,Chayenpur,49,42.0,23.8176706,86.9311104
6338,Dharaspur,50,42.0,23.8208403,86.94112799999999
6339,Keshardi,51,42.0,-1.0,-1.0
6340,Paharpur,52,42.0,22.5244929,88.2971985
6341,Monohara,53,42.0,25.3951449,88.27288209999999
6342,Malladi,54,42.0,23.8104293,86.9186233
6343,Kakurkunda,55,42.0,22.8258277,88.2059418
6344,Achra,56,42.0,23.7947598,86.89979180000002
6345,Dabor,57,42.0,23.683107,86.96491200000001
6346,Alkusha,58,42.0,-1.0,-1.0
6347,Fulberya,59,42.0,23.3386414,87.2307309
6348,Sadhana,60,42.0,22.6340802,88.4327139
6349,Lohat,61,42.0,-1.0,-1.0
6350,Radhaballavpur,62,42.0,22.3161936,87.9112608
6351,Samdi,63,42.0,23.7780207,86.919955
6352,Pahargara,64,42.0,23.7954572,86.9348672
6353,Mohanpur,65,42.0,21.8398171,87.4232306
6354,Parbatpur,66,42.0,23.0620818,88.0399767
6355,Bolkunda,67,42.0,23.7745058,86.9273532
6356,Barbakpur,68,42.0,-1.0,-1.0
6357,Madhaichak,69,42.0,23.7639304,86.9185854
6358,Patal,70,42.0,23.7710858,86.9048041
6359,Mohishmura,71,42.0,-1.0,-1.0
6360,Bara Pattabar,72,42.0,-1.0,-1.0
6361,Maliakola,73,42.0,-1.0,-1.0
6362,Dharma,74,42.0,22.4244647,87.3382559
6363,Talberia,75,42.0,-1.0,-1.0
6364,Ethora,76,42.0,23.7477088,86.9248483
6365,Angaria,77,42.0,-1.0,-1.0
6366,Uparkeshia,7,42.0,-1.0,-1.0
6367,Sunia,1,43.0,22.8565089,87.6950899
6368,Sahapur,2,43.0,22.5171539,88.17060470000001
6369,Churpuni,3,43.0,-1.0,-1.0
6370,Boura,4,43.0,23.6096137,88.03753139999999
6371,Baghtona,5,43.0,23.6063064,88.05517619999999
6372,Nahata,6,43.0,23.597899,88.05220130000001
6373,Shrikhanda,7,43.0,-1.0,-1.0
6374,Debkunda,8,43.0,-1.0,-1.0
6375,Koshigram,9,43.0,23.6309527,88.07908359999999
6376,Khanyerhat,10,43.0,-1.0,-1.0
6377,Nanagar,11,43.0,-1.0,-1.0
6378,Shrisurura,12,43.0,23.6433271,88.11815589999999
6379,Parulia,13,43.0,23.446217,88.3129969
6380,Routara,14,43.0,22.8264226,86.6636269
6381,Goai,15,43.0,23.6543706,88.1090014
6382,Bandra,16,43.0,19.0654531,72.8314202
6383,Jajigram,17,43.0,-1.0,-1.0
6384,Panchghara,18,43.0,22.408334,88.4488677
6385,Atuhat Chak,19,43.0,-1.0,-1.0
6386,Keshiya,20,43.0,22.2088176,87.133561
6387,Katwa,21,43.0,23.639056,88.13401909999999
6388,Ghoshhat,22,43.0,23.6376707,88.14255849999999
6389,Panuhat,23,43.0,23.631605,88.1327991
6390,Mandalhat,24,43.0,26.4669252,88.7349651
6391,Ekaihat,25,43.0,23.6235776,88.1456078
6392,Bikihat,26,43.0,23.6169353,88.1498766
6393,Khajurdihi,28,43.0,23.6166148,88.12303750000001
6394,Radhakrishnapur,29,43.0,-1.0,-1.0
6395,Sudpur,30,43.0,-1.0,-1.0
6396,Choudhak,31,43.0,-1.0,-1.0
6397,Mera,32,43.0,23.5985603,88.1059495
6398,Mosthafapur,33,43.0,22.6509608,87.9065098
6399,Ourangabad,34,43.0,-1.0,-1.0
6400,Purba Bijaynagar,35,43.0,-1.0,-1.0
6401,Kalyanbati,36,43.0,-1.0,-1.0
6402,Karajgram,37,43.0,-1.0,-1.0
6403,Durga,38,43.0,23.569077,88.12791849999999
6404,Bandhmura,39,43.0,23.5630687,88.12303750000001
6405,Alampur,40,43.0,22.5831787,88.21446720000002
6406,Ganfuliya,41,43.0,22.8181673,88.3631911
6407,Gusumba,42,43.0,23.5699568,88.077862
6408,Barampur,43,43.0,-1.0,-1.0
6409,Debagram,44,43.0,23.6886494,88.3093517
6410,Arjundihi,45,43.0,-1.0,-1.0
6411,Bhalsuni,46,43.0,-1.0,-1.0
6412,Karulia,47,43.0,23.5222372,88.0680883
6413,Kaithan,48,43.0,23.5239498,88.08641229999999
6414,Kalsa,50,43.0,22.3250421,88.1742616
6415,Gidhgram,51,43.0,23.8354482,88.0228566
6416,Kantari,52,43.0,23.7763685,87.4393397
6417,Puini,53,43.0,23.4838435,88.0573752
6418,Sargram,54,43.0,-1.0,-1.0
6419,Elgram,55,43.0,-1.0,-1.0
6420,Narsona,56,43.0,23.4604788,88.06625540000002
6421,Chandrapur,57,43.0,23.266857,88.52258739999999
6422,Buinchi,58,43.0,-1.0,-1.0
6423,Kamal,59,43.0,-1.0,-1.0
6424,Jamrah,60,43.0,-1.0,-1.0
6425,Shrirampur,75,43.0,-1.0,-1.0
6426,Depara,80,43.0,23.5864657,88.1517059
6427,Narayanpur,81,43.0,22.6453065,88.46218909999999
6428,Tikarkhanji,82,43.0,23.5968487,88.14926679999999
6429,Gopkhanji,83,43.0,-1.0,-1.0
6430,Nalahati,85,43.0,24.2921142,87.8376761
6431,Nasipur,86,43.0,24.3195752,88.37734619999999
6432,Charpataihat,89,43.0,23.621026,88.1637119
6433,Pashchim Bijaynagar,140,43.0,22.3092342,87.7443457
6434,Bera,27,44.0,22.8948842,86.8860052
6435,Karui,49,44.0,23.51971,88.1047287
6436,Kuara,61,44.0,23.4825346,88.1059495
6437,Aouria,62,44.0,-1.0,-1.0
6438,Palsona,63,44.0,23.4977624,88.13523909999999
6439,Dona,64,44.0,22.3188086,88.1498766
6440,Panjowa,65,44.0,-1.0,-1.0
6441,Ulastikuri,66,44.0,-1.0,-1.0
6442,Mejiari,67,44.0,23.5639262,87.1073658
6443,Deriapur,68,44.0,-1.0,-1.0
6444,Shila,69,44.0,23.4936023,88.16085149999999
6445,Ronda,70,44.0,23.5054461,88.1559741
6446,Kurchi,71,44.0,-1.0,-1.0
6447,Nandigram,72,44.0,-1.0,-1.0
6448,Baikunthapur,73,44.0,-1.0,-1.0
6449,Mulgram,74,44.0,23.3559089,88.0925186
6450,Panchberia,76,44.0,23.2225238,88.6051183
6451,Amdanga,77,44.0,-1.0,-1.0
6452,Musthili,78,44.0,23.5660071,88.1734592
6453,Jagadanandapur,79,44.0,23.5755181,88.16938569999999
6454,Barakhanji,84,44.0,23.5814393,88.16694749999999
6455,Baghtikari,87,44.0,23.597404,88.16481399999999
6456,Pataihat,88,44.0,23.6200541,88.1620708
6457,Dainhat,90,44.0,23.6052951,88.17182369999999
6458,Bhausing,91,44.0,23.6087263,88.1828997
6459,Paikpara,92,44.0,-1.0,-1.0
6460,Islampur,93,44.0,26.2546438,88.19741479999999
6461,Char Brajanathpur,94,44.0,23.6145311,88.198633
6462,Sahapur,95,44.0,22.5171539,88.17060470000001
6463,Bir Begun,96,44.0,23.5914693,88.1980239
6464,Benga,97,44.0,-1.0,-1.0
6465,Nawapara,98,44.0,-1.0,-1.0
6466,Akhara,99,44.0,23.5828053,88.1824518
6467,Bishnupur,100,44.0,23.0678795,87.3165222
6468,Musthulichak,101,44.0,23.5609269,88.1937598
6469,Deyasin,102,44.0,-1.0,-1.0
6470,Ramdaspur,103,44.0,23.5659168,88.2101848
6471,Jamunapatai,104,44.0,23.5759142,88.2035057
6472,Kumri,105,44.0,-1.0,-1.0
6473,Parsurampur,106,44.0,-1.0,-1.0
6474,Makhaltor,107,44.0,23.5938196,88.2083778
6475,Raghunathpur,108,44.0,-1.0,-1.0
6476,Kabirajpur,109,44.0,23.6074977,88.2339475
6477,Kshetpur Palasi,110,44.0,23.589427,88.21446720000002
6478,Kalikapur,111,44.0,22.5009134,88.39493449999999
6479,Agradwip,112,44.0,-1.0,-1.0
6480,Gajipur,113,44.0,23.1364148,88.7710424
6481,Chhoto Kulgachi,114,44.0,22.5082753,88.0183964
6482,Bara Kulgachi,115,44.0,23.5745738,88.22048269999999
6483,Garagacha,116,44.0,22.5035293,88.3034709
6484,Shuagachi,117,44.0,22.6908639,87.99520969999999
6485,Khaspur,118,44.0,24.1805687,87.9359313
6486,Chhoto Meigachi,119,44.0,-1.0,-1.0
6487,Malancha,120,44.0,22.5004512,88.7674361
6488,Singi,121,44.0,23.5400168,88.186449
6489,Ghoranash,122,44.0,23.565949,88.1743705
6490,Chanduli,123,44.0,23.5546648,88.16694749999999
6491,Postgram,124,44.0,23.5115111,88.16572839999999
6492,Nutangram,125,44.0,23.4500377,87.3959564
6493,Sribati,126,44.0,23.5235259,88.17548049999999
6494,Multikrishnanagar,127,44.0,23.5058442,88.1901046
6495,Sagarpur,128,44.0,-1.0,-1.0
6496,Okarsa,129,44.0,-1.0,-1.0
6497,Barameigachi,130,44.0,22.756919,88.50725489999999
6498,Gourdanga,131,44.0,23.5358207,88.2095958
6499,Shimulgachi,132,44.0,23.3770853,88.38947689999999
6500,Bhatna Pekua,133,44.0,23.5015356,88.2035057
6501,Mallickpur,134,44.0,22.7949486,88.91264489999999
6502,Chandpur,135,44.0,-1.0,-1.0
6503,Amul,136,44.0,26.7180713,88.429631
6504,Tantpara,137,44.0,23.47865,88.21872929999999
6505,Ghumuria,138,44.0,-1.0,-1.0
6506,Okiduttapur,139,44.0,-1.0,-1.0
6507,Chenchuri,1,45.0,-1.0,-1.0
6508,Chakta,2,45.0,-1.0,-1.0
6509,Mouri,3,45.0,-1.0,-1.0
6510,Majhina,4,45.0,25.4791852,88.75240629999999
6511,Kusutia,5,45.0,23.705107,88.46218909999999
6512,Haldi,6,45.0,-1.0,-1.0
6513,Shrigram,7,45.0,23.7968249,88.0253027
6514,Panpara,8,45.0,23.1122143,88.7229325
6515,Ichhapur,9,45.0,22.8081981,88.3676393
6516,Mahula,10,45.0,-1.0,-1.0
6517,Ankhona,11,45.0,-1.0,-1.0
6518,Murutia,12,45.0,-1.0,-1.0
6519,Moregram,13,45.0,24.3025793,88.0163889
6520,Berugram,14,45.0,23.1045584,87.9849242
6521,Chinispur,15,45.0,23.7903428,87.9837
6522,Biruri,16,45.0,23.790533,87.99838779999999
6523,Kojalsa,17,45.0,23.7891879,88.00940039999999
6524,Kechunia,18,45.0,-1.0,-1.0
6525,Agardanga,19,45.0,23.7851784,88.0448669
6526,Panparachak,20,45.0,-1.0,-1.0
6527,Kachutia,21,45.0,23.7731603,88.03508590000001
6528,Malgram,22,45.0,-1.0,-1.0
6529,Murgram,23,45.0,23.7477438,88.0240796
6530,Katundidanga,24,45.0,23.7423466,88.02719739999999
6531,Beninagar,28,45.0,23.731216,88.01062379999999
6532,Gopalpur,29,45.0,-1.0,-1.0
6533,Amgaria,30,45.0,23.7637705,87.99838779999999
6534,Ujjalpur,31,45.0,22.9838002,89.10626309999999
6535,Kulutia,32,45.0,-1.0,-1.0
6536,Kantadihi,33,45.0,22.4825357,87.78371179999999
6537,Kurmadanga,34,45.0,23.7454254,87.94740469999999
6538,Shripur,35,45.0,22.7713699,87.5477832
6539,Kandra,36,45.0,-1.0,-1.0
6540,Komarpur,37,45.0,23.7206345,87.997164
6541,Bamundi,38,45.0,-1.0,-1.0
6542,Masundi,39,45.0,23.7040084,87.9763543
6543,Bahara,40,45.0,24.4087746,88.1266983
6544,Rajur,41,45.0,23.7082293,87.95798479999999
6545,Raykhan,42,45.0,22.8540788,87.5321673
6546,Khanji,43,45.0,23.7212719,87.9322547
6547,Argun,44,45.0,23.7106507,87.9163191
6548,Khaspur,45,45.0,24.1805687,87.9359313
6549,Eahiapur,46,45.0,-1.0,-1.0
6550,Kanchra,47,45.0,22.944101,88.4335019
6551,Dadhia,48,45.0,23.6799279,87.9543099
6552,Aiapur Chak,49,45.0,-1.0,-1.0
6553,Serandi,50,45.0,23.6691458,87.92612629999999
6554,Palita,51,45.0,23.6488753,87.96778280000001
6555,Bira,52,45.0,-1.0,-1.0
6556,Bankui,53,45.0,23.6411989,87.94940969999999
6557,Narenga,54,45.0,23.6346913,87.9634964
6558,Chakdah,55,45.0,23.047858,88.5130144
6559,Noapara,56,45.0,-1.0,-1.0
6560,Kulun,57,45.0,-1.0,-1.0
6561,Pandugram,58,45.0,-1.0,-1.0
6562,Jamalpur Chak,59,45.0,23.6624662,87.9837
6563,Jamalpur,60,45.0,23.061089,87.9925839
6564,Ghatkuria,61,45.0,22.957853,88.7854646
6565,Ganful,62,45.0,24.1193103,87.9101885
6566,Bhandargaria,63,45.0,-1.0,-1.0
6567,Bakalsa,64,45.0,-1.0,-1.0
6568,Kulai,65,45.0,-1.0,-1.0
6569,Khatundi,66,45.0,23.6774951,87.9959401
6570,Khalipur,67,45.0,23.701445,88.0081769
6571,Mitratikuri,70,45.0,23.6762431,88.01429399999999
6572,Hatpada,71,45.0,-1.0,-1.0
6573,Loharundi,25,46.0,23.7360959,88.04364439999999
6574,Kandanag,26,46.0,23.7287379,88.0497566
6575,Nirol,27,46.0,23.7195074,88.0253027
6576,Srirampur,68,46.0,22.748331,88.3385053
6577,Dakshin Dihi,69,46.0,-1.0,-1.0
6578,Kouri,72,46.0,-1.0,-1.0
6579,Khenaibanda,73,46.0,23.65846,88.0191871
6580,Teora,74,46.0,23.6465004,88.01429399999999
6581,Billeswar Rasoi,75,46.0,-1.0,-1.0
6582,Charkhi,76,46.0,23.6524043,88.069921
6583,Komdanga,77,46.0,23.6662813,88.0497566
6584,Maliha,78,46.0,23.6587075,88.038754
6585,Chitahati,79,46.0,23.6690713,88.03508590000001
6586,Gurpara,80,46.0,-1.0,-1.0
6587,Taipur,81,46.0,-1.0,-1.0
6588,Kopa,82,46.0,23.6706661,88.04364439999999
6589,Purulia,83,46.0,23.3320779,86.365208
6590,Brambha Danga,84,46.0,23.0912274,86.8094808
6591,Ketugram,85,46.0,-1.0,-1.0
6592,Pachundi,86,46.0,23.7167806,88.0448669
6593,Murundi,87,46.0,23.7223435,88.0735863
6594,Gomai,88,46.0,23.7678197,87.8562032
6595,Chakkharulia,89,46.0,22.6222588,88.44865759999999
6596,Ambalgram,90,46.0,23.6889979,88.08274809999999
6597,Senpara,91,46.0,23.968047,88.5927608
6598,Talari,92,46.0,23.6815774,88.0839695
6599,Nabagram,93,46.0,23.111247,88.04364439999999
6600,Shiblun,94,46.0,23.695972,88.08385100000001
6601,Gangatikuri,95,46.0,23.7114989,88.0986241
6602,Balutia,96,46.0,23.7234219,88.085133
6603,Birahimpur,97,46.0,23.7248672,88.097403
6604,Baharan,98,46.0,23.7436125,88.10049409999999
6605,Jhamatpur,99,46.0,23.7385913,88.1254781
6606,Anantapur,100,46.0,24.1233506,88.10717029999999
6607,Keuguri,101,46.0,23.7253986,88.14133869999999
6608,Mougram,102,46.0,-1.0,-1.0
6609,Nutangram,103,46.0,23.4500377,87.3959564
6610,Charnarayanpur,104,46.0,-1.0,-1.0
6611,Char Sujapur,105,46.0,23.9805821,88.2229909
6612,Sujapur,106,46.0,25.0690815,88.13767899999999
6613,Kamalabari,107,46.0,25.6487725,88.1949782
6614,Narayanpur,108,46.0,-1.0,-1.0
6615,Raghupur,109,46.0,24.1676815,88.2108137
6616,Kalyanpur,110,46.0,22.5006615,87.91509309999999
6617,Bishnupur,111,46.0,23.0678795,87.3165222
6618,Siruli,112,46.0,23.7152644,88.1645092
6619,Dattabari,113,46.0,23.1099537,88.0595345
6620,Naliapur,114,46.0,23.7091427,88.1498766
6621,Paschim  Sujapur,115,46.0,23.706023,88.13767899999999
6622,Sitahati,116,46.0,23.7001911,88.1474374
6623,Naihati,117,46.0,-1.0,-1.0
6624,Uddharanpur,118,46.0,-1.0,-1.0
6625,Enayetpur,119,46.0,25.0782665,87.93470579999999
6626,Kankurhati,120,46.0,-1.0,-1.0
6627,Begunkola,121,46.0,23.6529868,88.1175456
6628,Sankhai,122,46.0,23.6620717,88.1309689
6629,Majhkhara,1,47.0,-1.0,-1.0
6630,Paschim Nabagram,2,47.0,23.5733055,87.7701836
6631,Tantbandi,3,47.0,23.5672511,87.7628028
6632,Unia Tatarpur,4,47.0,23.5538132,87.759112
6633,Debagram,5,47.0,23.6886494,88.3093517
6634,Keshabpur,6,47.0,22.8861165,87.8991514
6635,Raghunathpur,7,47.0,23.5343795,86.6686635
6636,Palpara,8,47.0,22.0757757,87.66551079999999
6637,Ramnagar,9,47.0,21.6786436,87.5631613
6638,Mallickpur,10,47.0,22.7949486,88.91264489999999
6639,Sarangapur,11,47.0,23.4345353,87.1871537
6640,Sarulia,12,47.0,23.924293,88.2400333
6641,Chak Parag,13,47.0,23.4989407,87.7701836
6642,Ujirpur,14,47.0,24.2644676,87.9898205
6643,Jalpara,15,47.0,-1.0,-1.0
6644,Balidanga,16,47.0,-1.0,-1.0
6645,Salanda,17,47.0,23.5303673,87.78371179999999
6646,Kalaipara,18,47.0,23.5257831,87.77510339999999
6647,Nawapara Irsanda,19,47.0,23.5361768,87.7738735
6648,Barulia,20,47.0,-1.0,-1.0
6649,Paligram,21,47.0,23.5630525,87.7812524
6650,Tikuri,22,47.0,-1.0,-1.0
6651,Narayanpur,23,47.0,22.6453065,88.46218909999999
6652,Gobindapur,24,47.0,-1.0,-1.0
6653,Krishnapur,25,47.0,-1.0,-1.0
6654,Gopalbera,26,47.0,23.0479508,87.759112
6655,Chanak,27,47.0,24.2205045,88.1169322
6656,Baruipara,28,47.0,-1.0,-1.0
6657,Jayrampur,29,47.0,22.5930997,88.16938569999999
6658,Nayapara,30,47.0,26.6760702,88.4453946
6659,Vinvina,31,47.0,22.169436,88.41613199999999
6660,Gothistha,32,47.0,23.5322984,87.8127866
6661,Kasiara,33,47.0,23.5426122,87.8082982
6662,Taldanga,34,47.0,23.5545858,87.80093649999999
6663,Lakhuria,35,47.0,23.5606657,87.82304359999999
6664,Jhilera,36,47.0,23.884211,87.8881115
6665,Kotalghosh,37,47.0,-1.0,-1.0
6666,Siur,38,47.0,23.8410704,87.4876333
6667,Chakdaha,39,47.0,23.047858,88.5130144
6668,Amdobe,40,47.0,23.1514593,88.89134709999999
6669,Radhanagar,42,47.0,22.7263702,87.8660235
6670,Sukhpukhuria,43,47.0,-1.0,-1.0
6671,Bamunara,44,47.0,23.5000611,87.3637025
6672,Dwarshini,45,47.0,23.5149151,87.84883649999999
6673,Pilsona,46,47.0,-1.0,-1.0
6674,Chandra,47,47.0,22.4621842,87.1485232
6675,Aowgram,48,47.0,-1.0,-1.0
6676,Mahartuba,49,47.0,23.4841965,87.8868846
6677,Khurtuba,50,47.0,-1.0,-1.0
6678,Dewlia,51,47.0,-1.0,-1.0
6679,Sitahati,52,47.0,23.7001911,88.1474374
6680,Kalyanpur,53,47.0,22.5006615,87.91509309999999
6681,Atghara,54,47.0,22.7969417,88.7758503
6682,Puratan Kaurgram,55,47.0,-1.0,-1.0
6683,Sagira,56,47.0,-1.0,-1.0
6684,Chak Pratappur,57,47.0,-1.0,-1.0
6685,Kogram,58,47.0,-1.0,-1.0
6686,Nutanhat,59,47.0,23.5394463,87.9028307
6687,Nabagram,60,47.0,23.111247,88.04364439999999
6688,Halimpur,61,47.0,23.5485672,87.9175451
6689,Jhilu,62,47.0,23.5414063,87.93838219999999
6690,Banpara,63,47.0,23.5279711,87.93470579999999
6691,Mangalkote,64,47.0,23.5231013,87.9040571
6692,Purba Nowapara,65,47.0,23.4968797,87.9058546
6693,Sakona,66,47.0,23.4973565,87.9255134
6694,Sankarpur,67,47.0,21.6491352,87.5698638
6695,Babladihi,68,47.0,-1.0,-1.0
6696,Palsona,69,47.0,23.4977624,88.13523909999999
6697,Thengapara,70,47.0,24.1863087,88.4185765
6698,Bebucha,71,47.0,-1.0,-1.0
6699,Bhatpara,72,47.0,-1.0,-1.0
6700,Sinut,73,47.0,23.516329,87.9543099
6701,Kunda,74,47.0,23.5282286,87.9543099
6702,Jartha,75,47.0,23.5342424,87.9592096
6703,Brahmapur,76,47.0,-1.0,-1.0
6704,Krishnabati,77,47.0,22.8193182,88.15719349999999
6705,Simulia,78,47.0,23.7644548,88.05220130000001
6706,Khudrun,79,47.0,-1.0,-1.0
6707,Ichhabatgram,80,47.0,-1.0,-1.0
6708,Palishgram,81,47.0,23.5669009,87.9543099
6709,Mukha,82,47.0,23.024043,87.64948079999999
6710,Bakulia,83,47.0,-1.0,-1.0
6711,Kankora,84,47.0,-1.0,-1.0
6712,Joykrishnapur,85,47.0,24.1847384,87.8082982
6713,Madhpur,86,47.0,-1.0,-1.0
6714,Uttar Banpara,87,47.0,23.6204428,87.9543099
6715,Keotsa,88,47.0,23.6234814,87.9592096
6716,Maliara,89,47.0,23.48283,87.2269973
6717,Chakulia,90,47.0,26.0237418,87.9601283
6718,Majhigram,91,47.0,25.1990481,88.8190971
6719,Singot,92,47.0,23.5694744,87.9806394
6720,Mathrun,93,47.0,23.5509374,87.9849242
6721,Bhalyagram,94,47.0,22.0323362,87.1746957
6722,Sanri,95,47.0,23.6097422,87.98920849999999
6723,Konwarpur,96,47.0,26.3786277,89.48485
6724,Kherrua,97,47.0,23.3860158,88.0008352
6725,Uttar Brahmapur,98,47.0,-1.0,-1.0
6726,Shyambazar,99,47.0,22.5982031,88.36868659999999
6727,Dhanyarukhi,100,47.0,23.6310788,88.0295831
6728,Pindira,101,47.0,23.1446583,88.3652122
6729,Lakshmipur,102,47.0,24.801475,87.96778280000001
6730,Uttar Belgram,103,47.0,23.5930837,88.0240796
6731,Kulsuna,104,47.0,23.5810609,88.01429399999999
6732,Buinchi,105,47.0,23.1211739,88.1925508
6733,Durmut,106,47.0,21.8091431,87.7738735
6734,Bankapasi,107,47.0,23.5710654,88.0473119
6735,Murulia,108,47.0,23.6092751,86.8396032
6736,Purba gopalpur,109,47.0,22.2661505,88.2375991
6737,Balarampur,110,47.0,-1.0,-1.0
6738,Jageswardihi,111,47.0,-1.0,-1.0
6739,Chaitanyapur,112,47.0,-1.0,-1.0
6740,Haripur,113,47.0,-1.0,-1.0
6741,Kaichar,114,47.0,23.5451763,87.9996115
6742,Sitalgram,115,47.0,23.5395993,88.02897159999999
6743,Kanaidanga,116,47.0,22.6721019,88.17548049999999
6744,Nigan,117,47.0,-1.0,-1.0
6745,Jagadishpur,118,47.0,22.652507,88.289905
6746,Masaru,119,47.0,23.4971351,87.96533350000001
6747,Chhoto Posla,120,47.0,23.4812623,87.95803420000001
6748,Gohagram,121,47.0,23.473461,87.9751299
6749,Belgram,122,47.0,-1.0,-1.0
6750,Saota,123,47.0,-1.0,-1.0
6751,Gobardhanpur,124,47.0,22.3198976,87.6556468
6752,Jabagram,125,47.0,23.4934091,88.0228566
6753,Bamungram,126,47.0,23.4985769,88.0197987
6754,ChakKharija Khirgram,127,47.0,23.5023653,88.0253027
6755,Kshirgram,128,47.0,23.5143272,88.0301946
6756,Kharija  Kshiragram,129,47.0,23.5234049,88.0387124
6757,Ittya,130,47.0,-1.0,-1.0
6758,Dharsona,131,47.0,23.4914005,88.040588
6759,Palashi,132,47.0,23.7832868,88.26071879999999
6760,Baghadanga,1,48.0,23.3320569,88.215685
6761,Parsahapur,2,48.0,22.5084987,88.3281158
6762,Ghanashyampur,3,48.0,22.3166425,88.2229909
6763,Paschim Sahapur,4,48.0,23.8442234,87.6901614
6764,Khorda Bitra,5,48.0,-1.0,-1.0
6765,Baruha,6,48.0,-1.0,-1.0
6766,Besbati,7,48.0,-1.0,-1.0
6767,Indrapur,8,48.0,-1.0,-1.0
6768,Pathardanga,9,48.0,23.3220091,88.2485521
6769,Hosenabad,10,48.0,22.4148577,87.34260139999999
6770,Rampur,11,48.0,25.3470758,88.632578
6771,Ramanandapur,12,48.0,22.1652078,88.2716659
6772,Jyotshyam,13,48.0,-1.0,-1.0
6773,Jurepara,14,48.0,23.2989226,88.24672679999999
6774,Begpur,15,48.0,23.2995104,88.23273030000001
6775,Karpurdanga,16,48.0,-1.0,-1.0
6776,Kulra,17,48.0,19.0873105,72.8911707
6777,Raj Khara,18,48.0,23.2905268,88.2278608
6778,Taipara,19,48.0,-1.0,-1.0
6779,Narayanpur,20,48.0,22.6453065,88.46218909999999
6780,Bheruya,21,48.0,22.8514525,88.2339475
6781,Chougharia,22,48.0,26.673364,88.421413
6782,Dhaleshwar,23,48.0,23.2815703,88.22542589999999
6783,Utra,24,48.0,23.2740607,88.2193381
6784,Rasulpur,25,48.0,23.1840099,88.0301946
6785,Harsuna,26,48.0,-1.0,-1.0
6786,Khalishpur,27,48.0,-1.0,-1.0
6787,Ranibanda,28,48.0,22.8660646,86.7831085
6788,Guptipur,29,48.0,23.291581,88.2482979
6789,Kankuriya,30,48.0,24.6500587,87.96043449999999
6790,Shakati,31,48.0,-1.0,-1.0
6791,Nowpara,32,48.0,23.5207495,88.4718747
6792,Muragacha,33,48.0,23.3444892,88.6297041
6793,Medgachhi,34,48.0,23.3105318,88.2874736
6794,Manikhara,35,48.0,25.0170055,88.37491969999999
6795,Kadipur,36,48.0,-1.0,-1.0
6796,Kharinan,37,48.0,-1.0,-1.0
6797,Pardupsa,38,48.0,-1.0,-1.0
6798,Kutirdanga,39,48.0,23.3448773,88.298414
6799,Dupsa,40,48.0,23.3285474,88.3020602
6800,Uttar Rameswarpur,41,48.0,23.3226993,88.3117819
6801,Khanpur,42,48.0,22.6729089,88.2598404
6802,Nandai,43,48.0,23.3130588,88.3148195
6803,Durgapur,44,48.0,23.5204443,87.3119227
6804,Mrizapur,45,48.0,-1.0,-1.0
6805,Malatipur,46,48.0,-1.0,-1.0
6806,Nagargachhi,47,48.0,23.2856112,88.3227162
6807,Gramkalna,48,48.0,23.0323127,87.9806394
6808,Belkuli,49,48.0,23.2854815,88.3105668
6809,Niralgachhi,50,48.0,-1.0,-1.0
6810,Krishnapur,51,48.0,22.6627899,88.2765304
6811,Sondalpur,52,48.0,23.270416,88.2935519
6812,Sargaria,53,48.0,-1.0,-1.0
6813,Bridhapara,54,48.0,-1.0,-1.0
6814,Madhupur,55,48.0,-1.0,-1.0
6815,Machhalandapur,56,48.0,21.7086851,87.725881
6816,Simlon,57,48.0,23.2625895,88.2582857
6817,Atghoria,58,48.0,-1.0,-1.0
6818,Surjapur,59,48.0,25.9402263,87.8464254
6819,Nischintapur,60,48.0,21.9902315,88.2152393
6820,Kandarpabati,61,48.0,-1.0,-1.0
6821,Bhatra,62,48.0,-1.0,-1.0
6822,Kashimpur,63,48.0,25.2752221,87.92857769999999
6823,Upalati,64,48.0,-1.0,-1.0
6824,Nowpara,65,48.0,23.5207495,88.4718747
6825,Sultanpur,66,48.0,22.7733524,87.7098723
6826,Ishabpur,67,48.0,22.8861165,87.8991514
6827,Gopalpur,71,48.0,23.4976267,87.3959564
6828,Hridaypur,72,48.0,22.702696,88.4697846
6829,Hatbele,73,48.0,-1.0,-1.0
6830,Basatpur,76,48.0,-1.0,-1.0
6831,Alagari,77,48.0,-1.0,-1.0
6832,Radhanagar,78,48.0,-1.0,-1.0
6833,Deyara,79,48.0,-1.0,-1.0
6834,Sehera,80,48.0,-1.0,-1.0
6835,Madanhansa,81,48.0,23.2464452,88.2789625
6836,Salghara,82,48.0,23.2554279,88.2838262
6837,Keshabpur,83,48.0,22.8861165,87.8991514
6838,Khaspur,84,48.0,24.1805687,87.9359313
6839,Faringgachi,85,48.0,-1.0,-1.0
6840,Badhagachi,86,48.0,23.1978692,88.41408969999999
6841,Dhatrigram,87,48.0,23.2795546,88.3129969
6842,Piyarinagar,88,48.0,26.025254,89.97419479999999
6843,Bhawanipur,89,48.0,-1.0,-1.0
6844,Mirzabati,90,48.0,23.2491935,88.32696759999999
6845,Krishnadevpur,91,48.0,23.2457217,88.35064679999999
6846,Hat Kalna,92,48.0,23.2382165,88.3445765
6847,Uttar Goara,93,48.0,23.2322121,88.3397196
6848,Rangpara,94,48.0,23.2285103,88.34154099999999
6849,Dharmadanga,95,48.0,-1.0,-1.0
6850,Muktarpur,97,48.0,22.795877,87.7234185
6851,Tamasapur,98,48.0,23.2401473,88.31603439999999
6852,Singrail,99,48.0,-1.0,-1.0
6853,Shikarpur,100,48.0,23.1864083,87.7628028
6854,Bijara,101,48.0,23.2317465,88.29598299999999
6855,Rustampur,102,48.0,23.222947,88.30813649999999
6856,Potanai,121,48.0,23.1720358,88.21264049999999
6857,Digha,161,48.0,-1.0,-1.0
6858,Koaldanga,162,48.0,22.6016731,88.13767899999999
6859,Mirpur,163,48.0,22.7093319,88.3117819
6860,Kalna,164,48.0,-1.0,-1.0
6861,RameswarPur,165,48.0,-1.0,-1.0
6862,Madhuban,166,48.0,23.0878276,87.3525325
6863,Hatgachha,189,48.0,-1.0,-1.0
6864,Moynagari,68,49.0,26.5738294,88.8214984
6865,Kutubpur,69,49.0,-1.0,-1.0
6866,Suipara,70,49.0,23.2192267,88.2400333
6867,Tehatta,74,49.0,23.7295581,88.5299428
6868,Baitipara,75,49.0,23.2232366,88.26619269999999
6869,Sadhpukhuria,96,49.0,23.2182034,88.3242018
6870,Rukashpur,103,49.0,23.3259661,88.2035057
6871,Anukhal,104,49.0,-1.0,-1.0
6872,Balia,105,49.0,23.082003,88.66994799999999
6873,Akhalpoush,106,49.0,23.193776,88.27138099999999
6874,Narenga,107,49.0,23.6346913,87.9634964
6875,Bajitpur,108,49.0,22.7081418,88.8527026
6876,Agardaha,109,49.0,25.295307,88.4876093
6877,Jhikra,110,49.0,-1.0,-1.0
6878,Usmanpur,111,49.0,22.0799635,87.8649337
6879,Sabidpur,112,49.0,23.1850347,88.24368439999999
6880,Atkatia,113,49.0,-1.0,-1.0
6881,Bardalia,114,49.0,23.192273,88.22542589999999
6882,Masidpur,115,49.0,23.1981718,88.22055569999999
6883,Biruha,116,49.0,23.192136,88.2132494
6884,Sontoshpur,117,49.0,22.4896872,88.38947689999999
6885,Gopaldaspur,118,49.0,23.1804204,88.23029559999999
6886,Bhurkunda,119,49.0,-1.0,-1.0
6887,Damdama,120,49.0,-1.0,-1.0
6888,Bara Dhamas,122,49.0,-1.0,-1.0
6889,Shibpur,123,49.0,22.5723094,88.3117819
6890,Joyrampur,124,49.0,22.85984,87.8267292
6891,Balindar,125,49.0,23.1652621,88.2059418
6892,Tola,126,49.0,23.5815987,87.216664
6893,Tala,127,49.0,-1.0,-1.0
6894,Baidyapur,128,49.0,23.1597449,88.24490139999999
6895,Mirhat,129,49.0,-1.0,-1.0
6896,Narikeldanga,130,49.0,-1.0,-1.0
6897,Amdabad,131,49.0,-1.0,-1.0
6898,Hasanhati,132,49.0,23.1791888,88.2534192
6899,Panchrakhi,133,49.0,22.9197163,88.3518608
6900,Udaypur,134,49.0,-1.0,-1.0
6901,Ankha,135,49.0,22.2514683,87.7677235
6902,Kulepara,136,49.0,-1.0,-1.0
6903,Singa,137,49.0,24.180912,88.33000419999999
6904,Kumarpara,138,49.0,22.6430317,88.4194855
6905,Singarkone,139,49.0,-1.0,-1.0
6906,Dakshin Nowpara,140,49.0,22.8582998,88.3166419
6907,Saidpur,141,49.0,-1.0,-1.0
6908,Patilpara,142,49.0,-1.0,-1.0
6909,Bara Baharkuli,143,49.0,23.1406754,88.2704497
6910,Kaparpur,144,49.0,22.7174061,88.101066
6911,Kola,145,49.0,22.9898326,88.3652122
6912,Kulti,146,49.0,23.7370306,86.8370937
6913,Simla,147,49.0,22.7392188,88.3215014
6914,Badla,148,49.0,23.1541911,88.2813944
6915,Chagram,149,49.0,-1.0,-1.0
6916,Dakshin Goara,150,49.0,-1.0,-1.0
6917,Noara,151,49.0,-1.0,-1.0
6918,Arbeliya,152,49.0,-1.0,-1.0
6919,Kadipara,153,49.0,22.8944302,88.215685
6920,Jaypur,154,49.0,-1.0,-1.0
6921,Bhabanandapur,155,49.0,24.2923556,87.75296
6922,Goda Gobindabati,156,49.0,23.197735,88.3166419
6923,Madhubati,157,49.0,-1.0,-1.0
6924,Kadamba,158,49.0,23.2097455,88.32636029999999
6925,Nepakuli,159,49.0,23.1993907,88.3324332
6926,Umarpur,160,49.0,-1.0,-1.0
6927,Jewdhara,167,49.0,-1.0,-1.0
6928,Shaspur,168,49.0,23.8709475,87.7898597
6929,Kuledaha,169,49.0,23.2119263,88.3931154
6930,Hanspukur,170,49.0,22.5830157,88.3551423
6931,Satgachia,171,49.0,23.2613705,88.1510962
6932,Medgachhi  Paikpara,172,49.0,23.2091939,88.4173644
6933,Satapati,173,49.0,23.201757,88.415925
6934,Bundebaj,174,49.0,23.2031428,88.4076664
6935,Barasat,175,49.0,22.7228159,88.480552
6936,Purba Sahapur,176,49.0,21.8592831,87.62974369999999
6937,Kalyanpur,177,49.0,22.5006615,87.91509309999999
6938,Kushdanga,178,49.0,-1.0,-1.0
6939,Ara,179,49.0,23.1998702,88.3785594
6940,Srirampur,180,49.0,22.748331,88.3385053
6941,Rahatpur,181,49.0,23.3720267,88.3324332
6942,Khagrakur,182,49.0,23.1877372,88.3567163
6943,Beguni,183,49.0,-1.0,-1.0
6944,Hijuli,184,49.0,-1.0,-1.0
6945,Chak Simla,185,49.0,23.1730029,88.3712796
6946,Bansai,186,49.0,-1.0,-1.0
6947,Jhero Jamirtala,187,49.0,-1.0,-1.0
6948,Boalia,188,49.0,-1.0,-1.0
6949,Bazar Krishnapur,190,49.0,23.1637441,88.3397196
6950,Maheswarpur,191,49.0,23.0317825,88.545656
6951,Ekchaka,192,49.0,24.0605015,87.8476086
6952,Kelenai,193,49.0,-1.0,-1.0
6953,Dwariatan,194,49.0,23.1860331,88.33607649999999
6954,Jharu Bati,195,49.0,-1.0,-1.0
6955,Dafarpur,196,49.0,24.4441063,88.1022869
6956,Burumpara,197,49.0,23.1738681,88.3117819
6957,Bahara,198,49.0,24.4087746,88.1266983
6958,Panchdewli,199,49.0,-1.0,-1.0
6959,Ichapur,200,49.0,-1.0,-1.0
6960,Kutubpur,201,49.0,-1.0,-1.0
6961,Dakshin Krishnapur,202,49.0,-1.0,-1.0
6962,Dakshin Durgapur,203,49.0,21.9470947,88.3603576
6963,Dampara,204,49.0,-1.0,-1.0
6964,Paharpur,205,49.0,-1.0,-1.0
6965,Patharghata,206,49.0,22.5684389,88.52510679999999
6966,Chhota Baharkuli,207,49.0,23.1501555,88.3215014
6967,Kasipur,208,49.0,-1.0,-1.0
6968,Arjuna,209,49.0,-1.0,-1.0
6969,Kaigaria,210,49.0,23.1489856,88.3518608
6970,Sunye,211,49.0,-1.0,-1.0
6971,Pindira,212,49.0,23.1446583,88.3652122
6972,Angarsone,213,49.0,-1.0,-1.0
6973,Rameswar,214,49.0,23.1281961,88.3567163
6974,Kani Bamni,215,49.0,23.1244935,88.358537
6975,Nama Bhandartikuri,86,50.0,23.4382994,88.33789809999999
6976,Bhandar Tikuri,87,50.0,23.4315974,88.3372909
6977,Paranpur,88,50.0,25.1576548,87.997164
6978,Ekdala,89,50.0,25.4823856,88.4640053
6979,Mahatapur,90,50.0,22.5906032,87.1709576
6980,Jahannagar,91,50.0,23.4182446,88.3409338
6981,Sulantu,92,50.0,23.4240934,88.3312187
6982,Moudanga,93,50.0,23.4257345,88.0839695
6983,Golahat,94,50.0,-1.0,-1.0
6984,Bhatra,97,50.0,-1.0,-1.0
6985,Madra,98,50.0,23.4407264,88.28686569999999
6986,Balarampur,99,50.0,-1.0,-1.0
6987,Sonarudra,100,50.0,23.4368401,88.2716659
6988,Polgram,101,50.0,23.4449495,88.2649763
6989,Haripur,102,50.0,-1.0,-1.0
6990,Dastipara,103,50.0,23.4534202,88.2573733
6991,Dogachhia,107,50.0,23.0055396,88.79027090000001
6992,Saidpur,108,50.0,22.8426204,87.9316419
6993,Mudhar Falhari,109,50.0,-1.0,-1.0
6994,Laxmanpur,110,50.0,23.440911,87.00931779999999
6995,Bhaturia,111,50.0,23.4249905,88.2765304
6996,Bamangaria,112,50.0,23.4251764,88.2935519
6997,Banki,113,50.0,22.3587411,88.7445888
6998,Satgachia,114,50.0,23.2613705,88.1510962
6999,Kuricha,115,50.0,-1.0,-1.0
7000,Ramchandrapur,116,50.0,22.8911172,88.4706642
7001,Bagpur,117,50.0,-1.0,-1.0
7002,Kachuya,118,50.0,-1.0,-1.0
7003,Minapur,119,50.0,-1.0,-1.0
7004,Konrapur,120,50.0,-1.0,-1.0
7005,Gagra,121,50.0,-1.0,-1.0
7006,Belgaria,122,50.0,-1.0,-1.0
7007,Gokarna,123,50.0,-1.0,-1.0
7008,karail,124,50.0,25.4214294,88.666333
7009,Dharmatala,125,50.0,-1.0,-1.0
7010,Kushgaria,126,50.0,22.4557758,88.38578489999999
7011,Damodarpara,127,50.0,23.4012902,88.28625780000002
7012,Atkadanga,128,50.0,23.3991706,88.29659079999999
7013,Bhatsala,129,50.0,-1.0,-1.0
7014,Shyampur,130,50.0,22.299502,88.02774869999999
7015,Bethpukur,131,50.0,22.879528,88.535579
7016,Manganpur,132,50.0,23.410689,88.33000419999999
7017,Rajyadharpara,133,50.0,23.410689,88.33000419999999
7018,Chandpur,134,50.0,22.6851815,88.42706020000001
7019,Shrirampur,135,50.0,22.748331,88.3385053
7020,Champahati,136,50.0,22.4042861,88.49365949999999
7021,Chak Rahatpur,137,50.0,23.3788576,88.34518349999999
7022,Kobla,138,50.0,23.3885361,88.3457906
7023,Ganganandapur,139,50.0,23.1422195,88.75180499999999
7024,Bidyanagar,140,50.0,23.395835,88.3324332
7025,Rajapur,141,50.0,23.5965449,88.36496939999999
7026,Koblachak,142,50.0,23.3986557,88.3178568
7027,Sahapur,143,50.0,-1.0,-1.0
7028,Dakshin Chandipur,144,50.0,25.1047618,87.818129
7029,Malatipur,145,50.0,24.8054474,88.04364439999999
7030,Mashgaria,146,50.0,22.6222588,88.44865759999999
7031,Bachpur,147,50.0,23.3863574,88.2813944
7032,Malgaria,148,50.0,-1.0,-1.0
7033,Nawpara,149,50.0,22.6428013,88.3916662
7034,Maruidanga,150,50.0,-1.0,-1.0
7035,Sahajatpur,151,50.0,24.0085658,88.47671679999999
7036,Arjunpukur,152,50.0,23.3739687,88.2375991
7037,Kamalpur,153,50.0,23.3009283,86.84650359999999
7038,Satgaria,154,50.0,23.3680167,88.2375991
7039,Baradhek,155,50.0,23.3693541,88.2242084
7040,Dirghapara,156,50.0,-1.0,-1.0
7041,Kharasgram,157,50.0,-1.0,-1.0
7042,Bagiyara,158,50.0,-1.0,-1.0
7043,Dhamai,159,50.0,-1.0,-1.0
7044,Bagiyarachak,160,50.0,-1.0,-1.0
7045,Ranjapurpati,161,50.0,-1.0,-1.0
7046,Shankra,162,50.0,-1.0,-1.0
7047,Islampur,163,50.0,26.2546438,88.19741479999999
7048,Maheshgaria,164,50.0,24.3348297,87.7634179
7049,Jialgaria,165,50.0,-1.0,-1.0
7050,Nadanghat,166,50.0,23.3749497,88.252608
7051,Kundapara,167,50.0,23.3610237,88.4197886
7052,Gahak,168,50.0,23.3580983,88.2826103
7053,Akabpur,169,50.0,23.097268,88.7157113
7054,Lakshmiparaa,170,50.0,-1.0,-1.0
7055,Jakar,171,50.0,23.364209,88.2971985
7056,Bhaidarpara,172,50.0,23.3685013,88.2813944
7057,Shewragaria,173,50.0,-1.0,-1.0
7058,Rajibpur,174,50.0,22.8249245,88.5589473
7059,Ghola,175,50.0,22.6909482,88.4076664
7060,Kangsaripur,176,50.0,-1.0,-1.0
7061,Dakshinbati,177,50.0,23.3823784,88.32636029999999
7062,Rahatpur,178,50.0,23.3720267,88.3324332
7063,Singhjuli,179,50.0,-1.0,-1.0
7064,Samudragarh,180,50.0,23.3466132,88.3215014
7065,Ningra,181,50.0,23.3524616,88.3117819
7066,Jalahati,182,50.0,23.3481917,88.33000419999999
7067,Jaluidanga,183,50.0,23.3409178,88.3457906
7068,Hatsimla,184,50.0,23.3407125,88.32636029999999
7069,Gopinathpur,185,50.0,-1.0,-1.0
7070,Nasratpur,186,50.0,24.9049509,88.298414
7071,Paruldanga,187,50.0,-1.0,-1.0
7072,Goyalpara,188,50.0,25.3099413,88.08763359999999
7073,Dhoba,189,50.0,23.3147022,88.32939689999999
7074,Panchlakhi,190,50.0,22.9197163,88.3518608
7075,Bahara,1,51.0,-1.0,-1.0
7076,Chandanpur Simuldanga,2,51.0,23.5645391,88.24976889999999
7077,Chak Bahara,3,51.0,23.5611341,88.2445971
7078,Krishnabati,4,51.0,22.8193182,88.15719349999999
7079,Kharduttapara,5,51.0,-1.0,-1.0
7080,Hapaniya,6,51.0,23.5360424,88.2290783
7081,Pathangram,7,51.0,23.5226677,88.23029559999999
7082,Gachha,8,51.0,23.5441211,88.42827199999999
7083,Hat Suri,9,51.0,23.9101538,87.5305396
7084,Harishpur,10,51.0,23.6039022,87.17967929999999
7085,Chhatni,12,51.0,23.5244693,88.2582857
7086,Kanknal,13,51.0,23.5245234,88.2631517
7087,Uttar Srirampur,14,51.0,25.4133074,88.44159979999999
7088,Santoshpur pila,15,51.0,23.5554283,88.2528025
7089,Mamudpur,16,51.0,22.8894533,88.4525012
7090,Patuli,17,51.0,23.5664443,88.2874736
7091,Kashipur,18,51.0,23.4341206,86.6678714
7092,Sarisha,19,51.0,22.2552031,88.1901046
7093,Jhawdanga,20,51.0,22.9464377,88.8527026
7094,Narayanpur,21,51.0,-1.0,-1.0
7095,Dampal,22,51.0,23.5365321,88.27288209999999
7096,Tegachi,23,51.0,24.012352,88.56136339999999
7097,Nawapara,24,51.0,22.5611026,87.9837
7098,Barati,25,51.0,22.4203778,87.65256389999999
7099,Dafarpota,26,51.0,24.4441063,88.1022869
7100,Kamalapur,27,51.0,22.7684874,88.27288209999999
7101,Barea,28,51.0,23.2128734,88.077862
7102,Rukushpur,29,51.0,-1.0,-1.0
7103,Charjhawdanga,30,51.0,-1.0,-1.0
7104,Majida,31,51.0,23.5316651,88.3208403
7105,Kamalnagar,32,51.0,-1.0,-1.0
7106,Mertala,33,51.0,23.4960193,88.3797726
7107,Chandipur,34,51.0,22.1022227,87.8574308
7108,Charchuyadanga,35,51.0,-1.0,-1.0
7109,Atpara,36,51.0,23.4955613,88.33607649999999
7110,Uttar Lakshmipur,37,51.0,25.0648982,88.0424219
7111,Singhari,38,51.0,24.0190302,87.75296
7112,Dhamas,39,51.0,23.1800632,88.198633
7113,Ukhra,40,51.0,23.6516121,87.24588039999999
7114,Jagheswarpur,41,51.0,21.7268896,88.1096118
7115,Sarangpur,42,51.0,23.1047442,87.9996115
7116,Nimdaha,43,51.0,23.5006124,88.2534192
7117,Nakadaha,44,51.0,23.5055529,88.22968689999999
7118,Palashberia,45,51.0,23.4884925,88.2339475
7119,Jamalpur,46,51.0,23.061089,87.9925839
7120,Bodhsaha,47,51.0,22.5401992,88.32605149999999
7121,Mahadevpur,48,51.0,26.3603742,88.40402910000002
7122,Joykrishnapur,49,51.0,24.1847384,87.8082982
7123,Uttar Nawapara,50,51.0,22.5397347,88.8419038
7124,Haldipara,51,51.0,23.3256308,88.6120708
7125,Ghuni,52,51.0,22.5976431,88.46218909999999
7126,Satpota,53,51.0,22.5187444,87.818129
7127,Isabpur,54,51.0,23.3307142,87.46658839999999
7128,Mukshimpara,55,51.0,23.469193,88.2375991
7129,Bararpara,56,51.0,23.4602936,88.2400333
7130,Kubajpur,57,51.0,23.4637195,88.24703099999999
7131,Sanghoshpara,58,51.0,-1.0,-1.0
7132,Sumuria,59,51.0,-1.0,-1.0
7133,Kukshimla,60,51.0,23.4624805,88.25265870000001
7134,Dubrajpur,61,51.0,-1.0,-1.0
7135,Sihipara,62,51.0,-1.0,-1.0
7136,Doghari,63,51.0,23.4727079,88.28625780000002
7137,Dhitpur,64,51.0,23.4755233,88.2716659
7138,Sardanga,65,51.0,23.4635942,88.2692335
7139,Moyail,66,51.0,-1.0,-1.0
7140,Bargachhi,67,51.0,-1.0,-1.0
7141,Baganchra,68,51.0,-1.0,-1.0
7142,Lohachur,69,51.0,23.4698119,88.2935519
7143,Biswarambha,70,51.0,-1.0,-1.0
7144,Murgachha,71,51.0,22.6940464,88.4197886
7145,Hrishi,72,51.0,23.472893,88.3032755
7146,Faleya,73,51.0,23.4821064,88.3198247
7147,Sajiyara,74,51.0,-1.0,-1.0
7148,Kuturia,75,51.0,22.4770654,87.3227328
7149,Simla,76,51.0,22.7392188,88.3215014
7150,Gopipur,77,51.0,23.9412892,87.9322547
7151,Kasthasali,78,51.0,23.4616357,88.3639986
7152,Chupi,79,51.0,23.460059,88.3555025
7153,Purbasthali,80,51.0,-1.0,-1.0
